time(millisecond),datetime(utc),latitude,longitude,height_above_takeoff(feet),height_above_ground_at_drone_location(feet),ground_elevation_at_drone_location(feet),altitude_above_seaLevel(feet),height_sonar(feet),speed(mph),distance(feet),satellites,gpslevel,voltage(v),max_altitude(feet),max_ascent(feet),max_speed(mph),max_distance(feet), xSpeed(mph), ySpeed(mph), zSpeed(mph), compass_heading(degrees), pitch(degrees), roll(degrees),isPhoto,isVideo,rc_elevator,rc_aileron,rc_throttle,rc_rudder,gimbal_heading(degrees),gimbal_pitch(degrees),battery_percent,voltageCell1,voltageCell2,voltageCell3,voltageCell4,voltageCell5,voltageCell6,current(A),battery_temperature(f),altitude(feet),ascent(feet),flycStateRaw,flycState,message
0,,40.1850009210365,33.3282423403837,0,Available with any HD 360 subscription,Available with any HD 360 subscription,3451.5790468022,0.328084,0,0,11,4,0,3451.5790468022,0,0,0,0,0,0,255, -0.9, 0.4,0,0,1024,1024,1024,1024,255,0,76,4.044,4.044,4.042,4.044,0,0,0,73.31,3451.5790468022,0,41,Motors_Started,
100,,40.1850008239985,33.3282423213912,0,,,3451.5790468022,0.328084,0,0.035797901408,11,4,0,3451.5790468022,0,0,0.035797901408,0,0,0,255, -0.9, 0.4,0,0,1024,1024,1024,1024,255,0,76,4.044,4.044,4.042,4.044,0,0,0,73.31,3451.5790468022,0,41,Motors_Started,
200,,40.1850006342944,33.328242143149,0,,,3451.5790468022,0.328084,0,0.118182746564,11,4,0,3451.5790468022,0,0,0.118182746564,0,0,0,254.9, -0.9, 0.4,0,0,1024,1024,1024,1024,254.9,0,76,4.044,4.044,4.042,4.044,0,0,0,73.31,3451.5790468022,0,41,Motors_Started,
300,,40.1850005286432,33.3282420807875,0,,,3451.5790468022,0.328084,0,0.160411094372,11,4,0,3451.5790468022,0,0,0.160411094372,0,0,0,254.9, -0.9, 0.3,0,0,1024,1024,1024,1024,254.9,0,76,4.044,4.044,4.042,4.044,0,0,0,73.31,3451.5790468022,0,41,Motors_Started,
400,,40.1850004164155,33.3282420070941,0,,,3451.5790468022,0.328084,0,0.20622047904,11,4,0,3451.5790468022,0,0,0.20622047904,0,0,0,255, -0.9, 0.3,0,0,1024,1024,1024,1024,255,0,76,4.044,4.044,4.042,4.044,0,0,0,73.31,3451.5790468022,0,41,Motors_Started,
500,2021-03-21 09:47:10,40.1850002895418,33.328241936204,0,,,3451.5790468022,0.328084,0,0.256468512144,11,4,0,3451.5790468022,0,0,0.256468512144,0,0,0,254.9, -0.9, 0.3,0,0,1024,1024,1024,1024,255,0,76,4.044,4.044,4.042,4.044,0,0,0,73.31,3451.5790468022,0,41,Motors_Started,
600,2021-03-21 09:47:10,40.1849999954837,33.3282417088589,0,,,3451.5790468022,0.328084,0,0.38081366048,11,4,0,3451.5790468022,0,0,0.38081366048,0,0,0,255, -0.9, 0.3,0,0,1024,1024,1024,1024,255,0,76,4.044,4.044,4.042,4.044,0,0,0,73.31,3451.5790468022,0,41,Motors_Started,
700,2021-03-21 09:47:10,40.1849998534754,33.3282416447472,0,,,3451.5790468022,0.328084,0,0.43509187744,11,4,16.113,3451.5790468022,0,0,0.43509187744,0,0,0,255.1, -0.9, 0.3,0,0,1024,1024,1024,1024,255,0,76,4.044,4.044,4.042,4.044,0,0,1.436,73.31,3451.5790468022,0,41,Motors_Started,Setting new Return-To-Home altitude to 300m (984 ft). Data Recorder File Index is 155. Setting new Maximum Flight Altitude to 500m (1640 ft)
800,2021-03-21 09:47:10,40.1849997292838,33.3282415820259,0,,,3451.5790468022,0.328084,0,0.48346786324,11,4,16.113,3451.5790468022,0,0,0.48346786324,0,0,0,255, -0.9, 0.4,0,0,1024,1024,1024,1024,254.9,0,76,4.044,4.044,4.042,4.044,0,0,1.436,73.31,3451.5790468022,0,41,Motors_Started,
900,2021-03-21 09:47:10,40.1849996196586,33.3282415251116,0,,,3451.5790468022,0.328084,0,0.52638453128,11,4,16.113,3451.5790468022,0,0,0.52638453128,0,0,0,255.1, -0.9, 0.3,0,0,1024,1024,1024,1024,255,0,76,4.044,4.044,4.042,4.044,0,0,1.436,73.31,3451.5790468022,0,41,Motors_Started,
1000,2021-03-21 09:47:11,40.1849995159185,33.3282414691177,0,,,3451.5790468022,0.328084,0,0.56726707852,11,4,16.113,3451.5790468022,0,0,0.56726707852,0,0,0,255.1, -0.9, 0.3,0,0,1024,1024,1024,1024,255,0,76,4.044,4.044,4.042,4.044,0,0,1.436,73.31,3451.5790468022,0,41,Motors_Started,
1100,2021-03-21 09:47:11,40.1849994769071,33.3282413980744,0,,,3451.5790468022,0.328084,0,0.58872705296,11,4,16.113,3451.5790468022,0,0,0.58872705296,0,0,0,255.1, -0.9, 0.3,0,0,1024,1024,1024,1024,254.9,0,76,4.044,4.044,4.042,4.044,0,0,1.436,73.31,3451.5790468022,0,41,Motors_Started,
1200,2021-03-21 09:47:11,40.1849994330511,33.3282414008097,0,,,3451.5790468022,0.328084,0,0.6027559248,11,4,16.113,3451.5790468022,0,0,0.6027559248,0,0,0,255.1, -0.9, 0.3,0,0,1024,1024,1024,1024,254.9,0,76,4.044,4.044,4.042,4.044,0,0,1.436,73.31,3451.5790468022,0,41,Motors_Started,
1300,2021-03-21 09:47:11,40.1849994000303,33.3282414114397,0,,,3451.5790468022,0.328084,0,0.61237206684,11,4,16.113,3451.5790468022,0,0,0.61237206684,0,0,0,255.1, -0.9, 0.3,0,0,1024,1024,1024,1024,254.9,0,76,4.044,4.044,4.042,4.044,0,0,1.436,73.31,3451.5790468022,0,41,Motors_Started,
1400,2021-03-21 09:47:11,40.1849993732217,33.3282414331949,0,,,3451.5790468022,0.328084,0,0.61874673896,11,4,16.113,3451.5790468022,0,0,0.61874673896,0,0,0,255.1, -0.9, 0.3,0,0,1024,1024,1024,1024,254.9,0,76,4.044,4.044,4.042,4.044,0,0,1.436,73.31,3451.5790468022,0,41,Motors_Started,
1500,2021-03-21 09:47:11,40.184999535054,33.328241629641,0,,,3451.5790468022,0.328084,0,0.54309713024,11,4,16.113,3451.5790468022,0,0,0.61874673896,0,0,0,255.1, -1, 0.4,0,0,1024,1024,1024,1024,255,0,76,4.044,4.044,4.042,4.044,0,0,1.436,73.31,3451.5790468022,0,11,AutoTakeoff,
1600,2021-03-21 09:47:11,40.1849995029647,33.3282417006753,0,,,3451.5790468022,0.328084,0,0.54724739284,11,4,16.113,3451.5790468022,0,0,0.61874673896,0,0,0,255.1, -0.9, 0.4,0,0,1024,1024,1024,1024,255,0,76,4.044,4.044,4.042,4.044,0,0,1.436,73.31,3451.5790468022,0,11,AutoTakeoff,
1700,2021-03-21 09:47:11,40.184999470842,33.3282417541127,0,,,3451.5790468022,0.328084,0,0.55376314108,13,4,15.969,3451.5790468022,0,0,0.61874673896,0,0,0,255.1, -0.9, 0.4,0,0,1024,1024,1024,1024,255,0,76,4.022,4.025,4.023,4.021,0,0,1.964,73.31,3451.5790468022,0,11,AutoTakeoff,
1800,2021-03-21 09:47:11,40.1849994330649,33.3282417840011,0,,,3451.5790468022,0.328084,0,0.56460303644,13,4,15.969,3451.5790468022,0,0,0.61874673896,0,0,0,255, -0.9, 0.4,0,0,1024,1024,1024,1024,255,0,76,4.022,4.025,4.023,4.021,0,0,1.964,73.31,3451.5790468022,0,11,AutoTakeoff,
1900,2021-03-21 09:47:11,40.1849994643412,33.3282419384983,0,,,3451.5790468022,0.328084,0,0.54314962368,13,4,15.969,3451.5790468022,0,0,0.61874673896,0,0,0,255, -1, 0.4,0,0,1024,1024,1024,1024,255,0,76,4.022,4.025,4.023,4.021,0,0,1.964,73.31,3451.5790468022,0,11,AutoTakeoff,
2000,2021-03-21 09:47:12,40.1849993715663,33.328241940816,0,,,3451.5790468022,0.328084,0,0.57619096332,13,4,15.969,3451.5790468022,0,0,0.61874673896,0,0,0,255.1, -1.2, 0.4,0,0,1024,1024,1024,1024,255,0,76,4.022,4.025,4.023,4.021,0,0,1.964,73.31,3451.5790468022,0,11,AutoTakeoff,
2100,2021-03-21 09:47:12,40.1849992905386,33.3282419580508,0,,,3451.5790468022,0.328084,0,0.60435697472,13,4,15.969,3451.5790468022,0,0,0.61874673896,0,0,0,255.2, -1.4, 0.5,0,0,1024,1024,1024,1024,255,0,76,4.022,4.025,4.023,4.021,0,0,1.964,73.31,3451.5790468022,0,11,AutoTakeoff,
2200,2021-03-21 09:47:12,40.1849992217666,33.3282419916149,0,,,3451.5790468022,0.328084,0,0.62755251352,13,4,15.969,3451.5790468022,0,0,0.62755251352,0,0,0,255.3, -2.3, 0.4,0,0,1024,1024,1024,1024,255,0,76,4.022,4.025,4.023,4.021,0,0,1.964,73.31,3451.5790468022,0,11,AutoTakeoff,
2300,2021-03-21 09:47:12,40.1849990081966,33.328241966258,0,,,3451.5790468022,0.328084,0,0.70564634804,13,4,15.969,3451.5790468022,0,0,0.70564634804,0,0,0,255.5, -3.4, 0.3,0,0,1024,1024,1024,1024,255,0,76,4.022,4.025,4.023,4.021,0,0,1.964,73.31,3451.5790468022,0,11,AutoTakeoff,
2400,2021-03-21 09:47:12,40.1849988914717,33.3282418546015,0,,,3451.5790468022,0.328084,0.223694,0.75276249128,13,4,15.969,3451.5790468022,0,0.223694,0.75276249128,0,-0.223694,-0.447388,255.6, -3, -0.1,0,0,1024,1024,1024,1024,255,0,76,4.022,4.025,4.023,4.021,0,0,1.964,73.31,3451.5790468022,0,11,AutoTakeoff,
2500,2021-03-21 09:47:12,40.1849987534522,33.3282416949045,0,,,3451.5790468022,0.656168,0.223694,0.81104989472,13,4,15.969,3451.5790468022,0,0.223694,0.81104989472,0,-0.223694,-0.894776,255.6, -0.2, -0.5,0,0,1024,1024,1024,1024,255,0,76,4.022,4.025,4.023,4.021,0,0,1.964,73.31,3451.5790468022,0,11,AutoTakeoff,
2600,2021-03-21 09:47:12,40.1849985796084,33.3282415266312,0.328084,,,3451.9071308022,0.656168,0.223694,0.88386813852,13,4,15.969,3451.9071308022,0.328084,0.223694,0.88386813852,0,-0.223694,-1.11847,255.7, 1.2, -0.4,0,0,1024,1024,1024,1024,255,0,76,4.022,4.025,4.023,4.021,0,0,1.964,73.31,3451.9071308022,0.328084,11,AutoTakeoff,
2700,2021-03-21 09:47:12,40.1849984038432,33.3282413624944,0.328084,,,3451.9071308022,0.984252,0.223694,0.95799215664,13,4,15.966,3451.9071308022,0.328084,0.223694,0.95799215664,0,-0.223694,-1.342164,255.7, 1.7, 0.2,0,0,1024,1024,1024,1024,255,0,76,4.018,4.02,4.016,4.013,0,0,3.298,73.31,3451.9071308022,0.328084,11,AutoTakeoff,
2800,2021-03-21 09:47:12,40.184998177557,33.3282410900322,0.656168,,,3452.2352148022,1.312336,0.223694,1.05989504704,13,4,15.966,3452.2352148022,0.656168,0.223694,1.05989504704,0,-0.223694,-1.11847,255.7, 2.3, 0.6,0,0,1024,1024,1024,1024,255,0,76,4.018,4.02,4.016,4.013,0,0,3.298,73.31,3452.2352148022,0.656168,11,AutoTakeoff,
2900,2021-03-21 09:47:12,40.1849980239605,33.3282409353232,0.656168,,,3452.2352148022,1.312336,0.223694,1.12721788384,12,4,15.966,3452.2352148022,0.656168,0.223694,1.12721788384,0,-0.223694,-1.11847,255.7, 2.2, 0.7,0,0,1024,1024,1024,1024,255,0,76,4.018,4.02,4.016,4.013,0,0,3.298,73.31,3452.2352148022,0.656168,11,AutoTakeoff,
3000,2021-03-21 09:47:13,40.1849978822847,33.3282408039195,0.984252,,,3452.5632988022,1.64042,0,1.18852694092,12,4,15.966,3452.5632988022,0.984252,0.223694,1.18852694092,0,0,-1.11847,255.6, 1.8, 0.8,0,0,1024,1024,1024,1024,255,0,76,4.018,4.02,4.016,4.013,0,0,3.298,73.31,3452.5632988022,0.984252,11,AutoTakeoff,
3100,2021-03-21 09:47:13,40.1849977139993,33.3282406863673,0.984252,,,3452.5632988022,1.64042,0,1.25763455468,12,4,15.966,3452.5632988022,0.984252,0.223694,1.25763455468,0,0,-1.11847,255.6, 1.3, 0.9,0,0,1024,1024,1024,1024,255,0,76,4.018,4.02,4.016,4.013,0,0,3.298,73.31,3452.5632988022,0.984252,11,AutoTakeoff,
3200,2021-03-21 09:47:13,40.1849973242727,33.3282402947937,1.312336,,,3452.8913828022,1.968504,0,1.43079400904,12,4,15.966,3452.8913828022,1.312336,0.223694,1.43079400904,0,0,-0.894776,255.6, 0.7, 0.5,0,0,1024,1024,1024,1024,255.1,0,76,4.018,4.02,4.016,4.013,0,0,3.298,73.31,3452.8913828022,1.312336,11,AutoTakeoff,
3300,2021-03-21 09:47:13,40.1849971289799,33.3282402170613,1.312336,,,3452.8913828022,1.968504,0,1.50479991692,13,4,15.966,3452.8913828022,1.312336,0.223694,1.50479991692,0,0,-0.894776,255.7, 0.5, 0,0,0,1024,1024,1024,1024,255.1,0,76,4.018,4.02,4.016,4.013,0,0,3.298,73.31,3452.8913828022,1.312336,11,AutoTakeoff,
3400,2021-03-21 09:47:13,40.184996945164,33.3282402018934,1.64042,,,3453.2194668022,2.296588,0,1.56828417092,13,4,15.966,3453.2194668022,1.64042,0.223694,1.56828417092,0,0,-0.894776,255.8, 0.2, 0,0,0,1024,1024,1024,1024,255.1,0,76,4.018,4.02,4.016,4.013,0,0,3.298,73.31,3453.2194668022,1.64042,11,AutoTakeoff,
3500,2021-03-21 09:47:13,40.1849967564351,33.3282402250726,1.64042,,,3453.2194668022,2.296588,0,1.62983601016,13,4,15.966,3453.2194668022,1.64042,0.223694,1.62983601016,0,0,-0.894776,255.8, 0, -0.2,0,0,1024,1024,1024,1024,255.1,0,76,4.018,4.02,4.016,4.013,0,0,3.298,73.31,3453.2194668022,1.64042,11,AutoTakeoff,
3600,2021-03-21 09:47:13,40.1849963098087,33.3282405915263,1.64042,,,3453.2194668022,2.624672,0,1.75160110592,13,4,15.966,3453.2194668022,1.64042,0.223694,1.75160110592,0,0,-0.894776,255.8, 0.2, -0.4,0,0,1024,1024,1024,1024,255.1,0,76,4.018,4.02,4.016,4.013,0,0,3.298,73.31,3453.2194668022,1.64042,11,AutoTakeoff,
3700,2021-03-21 09:47:13,40.1849961416368,33.3282406249218,1.968504,,,3453.5475508022,2.624672,0,1.80812997912,13,4,15.69,3453.5475508022,1.968504,0.223694,1.80812997912,0,0,-0.894776,255.8, 0.4, -0.4,0,0,1024,1024,1024,1024,255.1,0,76,4.018,4.02,4.016,4.013,0,0,12.04,73.31,3453.5475508022,1.968504,11,AutoTakeoff,
3800,2021-03-21 09:47:13,40.1849960584323,33.3282405663022,1.968504,,,3453.5475508022,2.952756,0,1.84174218492,13,4,15.69,3453.5475508022,1.968504,0.223694,1.84174218492,0,0,-0.894776,255.9, 0.6, -0.1,0,0,1024,1024,1024,1024,255.1,0,76,4.018,4.02,4.016,4.013,0,0,12.04,73.31,3453.5475508022,1.968504,11,AutoTakeoff,
3900,2021-03-21 09:47:13,40.1849959434674,33.3282405199966,2.296588,,,3453.8756348022,2.952756,0,1.8856135774,13,4,15.69,3453.8756348022,2.296588,0.223694,1.8856135774,0,0,-0.894776,255.9, 0.8, -0.4,0,0,1024,1024,1024,1024,255.1,0,76,4.018,4.02,4.016,4.013,0,0,12.04,73.31,3453.8756348022,2.296588,11,AutoTakeoff,
4000,2021-03-21 09:47:14,40.1849958900186,33.3282404087035,2.296588,,,3453.8756348022,3.28084,0,1.91290032368,13,4,15.69,3453.8756348022,2.296588,0.223694,1.91290032368,0,0,-0.894776,255.8, 1.2, -0.7,0,0,1024,1024,1024,1024,255.1,0,76,4.018,4.02,4.016,4.013,0,0,12.04,73.31,3453.8756348022,2.296588,11,AutoTakeoff,
4100,2021-03-21 09:47:14,40.1849956580069,33.3282404282914,2.624672,,,3454.2037188022,3.28084,0,1.99280518188,14,4,15.69,3454.2037188022,2.624672,0.223694,1.99280518188,0,0,-1.11847,255.7, 1.3, -0.1,0,0,1024,1024,1024,1024,255.2,0,76,4.018,4.02,4.016,4.013,0,0,12.04,73.31,3454.2037188022,2.624672,11,AutoTakeoff,
4200,2021-03-21 09:47:14,40.1849953421425,33.3282405155841,2.952756,,,3454.5318028022,3.608924,0,2.09804468656,14,4,15.69,3454.5318028022,2.952756,0.223694,2.09804468656,0,0,-1.11847,255.5, 0.8, 0.2,0,0,1024,1024,1024,1024,255.1,0,76,4.018,4.02,4.016,4.013,0,0,12.04,73.31,3454.5318028022,2.952756,14,Waypoint,
4300,2021-03-21 09:47:14,40.1849951032253,33.328240600711,2.952756,,,3454.5318028022,3.608924,0,2.17730650012,14,4,15.69,3454.5318028022,2.952756,0.223694,2.17730650012,0,0,-0.894776,255.4, 0.8, 0.9,0,0,1024,1024,1024,1024,255.2,0,76,4.018,4.02,4.016,4.013,0,0,12.04,73.31,3454.5318028022,2.952756,14,Waypoint,
4400,2021-03-21 09:47:14,40.1849949723994,33.3282406747879,3.28084,,,3454.8598868022,3.937008,0,2.2194554516,14,4,15.69,3454.8598868022,3.28084,0.223694,2.2194554516,0,0,-1.11847,255.3, 1.1, 1,0,0,1024,1024,1024,1024,255.1,0,76,4.018,4.02,4.016,4.013,0,0,12.04,73.31,3454.8598868022,3.28084,14,Waypoint,
4500,2021-03-21 09:47:14,40.1849948456421,33.3282408348876,3.28084,,,3454.8598868022,4.265092,0,2.25597448164,12,4,15.69,3454.8598868022,3.28084,0.223694,2.25597448164,0,0,-1.11847,255.2, 1.3, 0.9,0,0,1024,1024,1024,1024,255.2,0,76,4.018,4.02,4.016,4.013,0,0,12.04,73.31,3454.8598868022,3.28084,14,Waypoint,
4600,2021-03-21 09:47:14,40.1849946230778,33.3282408421624,3.608924,,,3455.1879708022,4.265092,0,2.33544626896,12,4,15.69,3455.1879708022,3.608924,0.223694,2.33544626896,0,0,-1.11847,255.1, 0.5, 0.9,0,0,1024,1024,1024,1024,255.2,0,76,4.018,4.02,4.016,4.013,0,0,12.04,73.31,3455.1879708022,3.608924,14,Waypoint,
4700,2021-03-21 09:47:14,40.1849944188131,33.3282408898851,3.608924,,,3455.1879708022,4.593176,0,2.40653551008,14,4,15.649,3455.1879708022,3.608924,0.223694,2.40653551008,0,0,-1.11847,255.1, 0, 0.9,0,0,1024,1024,1024,1024,255.2,0,76,3.933,3.948,3.947,3.927,0,0,12.04,73.31,3455.1879708022,3.608924,14,Waypoint,
4800,2021-03-21 09:47:14,40.1849942165962,33.328240987289,3.937008,,,3455.5160548022,4.593176,0,2.4750164834,14,4,15.649,3455.5160548022,3.937008,0.223694,2.4750164834,0,0,-1.11847,255.2, 0.1, 0.8,0,0,1024,1024,1024,1024,255.1,0,76,3.933,3.948,3.947,3.927,0,0,12.04,73.31,3455.5160548022,3.937008,14,Waypoint,
4900,2021-03-21 09:47:14,40.1849939845625,33.3282410503077,3.937008,,,3455.5160548022,4.92126,0,2.55618774584,13,4,15.649,3455.5160548022,3.937008,0.223694,2.55618774584,0,0,-1.342164,255.4, 0.4, 0.9,0,0,1024,1024,1024,1024,255.2,0,76,3.933,3.948,3.947,3.927,0,0,12.04,73.31,3455.5160548022,3.937008,14,Waypoint,
5000,2021-03-21 09:47:15,40.1849938165583,33.3282410127401,4.265092,,,3455.8441388022,4.92126,0,2.61834654048,13,4,15.649,3455.8441388022,4.265092,0.223694,2.61834654048,0,0,-1.789552,255.4, 0.2, 1,0,0,1024,1024,1024,1024,255.2,0,76,3.933,3.948,3.947,3.927,0,0,12.04,73.31,3455.8441388022,4.265092,14,Waypoint,
5100,2021-03-21 09:47:15,40.1849936423148,33.3282409837079,4.593176,,,3456.1722228022,5.577428,0,2.68242462652,14,4,15.649,3456.1722228022,4.593176,0.223694,2.68242462652,0,0,-2.23694,255.2, 0.2, 2,0,0,1024,1024,1024,1024,255.2,0,76,3.933,3.948,3.947,3.927,0,0,12.04,73.31,3456.1722228022,4.593176,14,Waypoint,
5200,2021-03-21 09:47:15,40.1849934471442,33.3282409622179,4.92126,,,3456.5003068022,5.905512,0,2.75376977316,14,4,15.649,3456.5003068022,4.92126,0.223694,2.75376977316,0,0,-2.908022,255.2, 0.7, 3.8,0,0,1024,1024,1024,1024,255.2,0,76,3.933,3.948,3.947,3.927,0,0,12.04,73.31,3456.5003068022,4.92126,14,Waypoint,
5300,2021-03-21 09:47:15,40.1849933104803,33.3282406811367,5.577428,,,3457.1564748022,6.233596,0,2.81496072,14,4,15.649,3457.1564748022,5.577428,0.223694,2.81496072,0,0,-3.802798,255.2, 0.5, 3.6,0,0,1024,1024,1024,1024,255.2,0,76,3.933,3.948,3.947,3.927,0,0,12.04,73.31,3457.1564748022,5.577428,14,Waypoint,
5400,2021-03-21 09:47:15,40.1849931667978,33.328240672716,6.233596,,,3457.8126428022,6.889764,0,2.8670604592,14,4,15.649,3457.8126428022,6.233596,0.223694,2.8670604592,0,0,-4.47388,255.2, 0.1, 2.9,0,0,1024,1024,1024,1024,255.2,0,76,3.933,3.948,3.947,3.927,0,0,12.04,73.31,3457.8126428022,6.233596,14,Waypoint,
5500,2021-03-21 09:47:15,40.1849929831663,33.3282406388807,6.889764,,,3458.4688108022,7.545932,0,2.93470153748,13,4,15.649,3458.4688108022,6.889764,0.223694,2.93470153748,0,0,-5.144962,255, -0.6, 2.9,0,0,1024,1024,1024,1024,255.1,0,76,3.933,3.948,3.947,3.927,0,0,12.04,73.31,3458.4688108022,6.889764,14,Waypoint,
5600,2021-03-21 09:47:15,40.1849926873025,33.3282405467861,7.545932,,,3459.1249788022,8.530184,0,3.04538723656,13,4,15.649,3459.1249788022,7.545932,0.223694,3.04538723656,0,0,-6.039738,255, 0.1, 3.2,0,0,1024,1024,1024,1024,255.2,0,76,3.933,3.948,3.947,3.927,0,0,12.04,73.31,3459.1249788022,7.545932,14,Waypoint,
5700,2021-03-21 09:47:15,40.1849923699114,33.3282402936134,8.530184,,,3460.1092308022,9.514436,0,3.1716044322,13,4,15.611,3460.1092308022,8.530184,0.223694,3.1716044322,0,0,-6.487126,255, 1.5, 3.2,0,0,1024,1024,1024,1024,255.1,0,76,3.918,3.961,3.918,3.899,0,0,12.354,73.31,3460.1092308022,8.530184,14,Waypoint,
5800,2021-03-21 09:47:15,40.1849923003728,33.3282401714657,9.514436,,,3461.0934828022,10.498688,0.223694,3.20281834396,13,4,15.611,3461.0934828022,9.514436,0.223694,3.20281834396,0,-0.223694,-6.71082,255, 2, 2.7,0,0,1024,1024,1024,1024,255.2,0,76,3.918,3.961,3.918,3.899,0,0,12.354,73.31,3461.0934828022,9.514436,14,Waypoint,
5900,2021-03-21 09:47:15,40.1849922139838,33.3282400713207,10.498688,,,3462.0777348022,11.48294,0,3.23911099604,13,4,15.611,3462.0777348022,10.498688,0.223694,3.23911099604,0,0,-6.934514,255, 2, 2.9,0,0,1024,1024,1024,1024,255.2,0,76,3.918,3.961,3.918,3.899,0,0,12.354,73.31,3462.0777348022,10.498688,14,Waypoint,
6000,2021-03-21 09:47:16,40.1849920727432,33.3282399903339,11.48294,,,3463.0619868022,12.467192,0.31540854,3.2940945936,13,4,15.611,3463.0619868022,11.48294,0.31540854,3.2940945936,0.223694,-0.223694,-7.158208,255.1, 2.2, 3.2,0,0,1024,1024,1024,1024,255.2,0,76,3.918,3.961,3.918,3.899,0,0,12.354,73.31,3463.0619868022,11.48294,14,Waypoint,
6100,2021-03-21 09:47:16,40.184991918352,33.328239931962,12.795276,,,3464.3743228022,13.451444,0.223694,3.352526354,14,4,15.611,3464.3743228022,12.795276,0.31540854,3.352526354,0.223694,0,-7.158208,255.1, 2.5, 3.3,0,0,1024,1024,1024,1024,255.1,0,76,3.918,3.961,3.918,3.899,0,0,12.354,73.31,3464.3743228022,12.795276,14,Waypoint,
6200,2021-03-21 09:47:16,40.1849916772275,33.3282398700947,13.779528,,,3465.3585748022,14.76378,0.31540854,3.4421589028,14,4,15.611,3465.3585748022,13.779528,0.31540854,3.4421589028,0.223694,-0.223694,-7.158208,255.2, 2.6, 3.2,0,0,1024,1024,1024,1024,255.2,0,76,3.918,3.961,3.918,3.899,0,0,12.354,73.31,3465.3585748022,13.779528,14,Waypoint,
6300,2021-03-21 09:47:16,40.1849915159399,33.3282398490764,15.091864,,,3466.6709108022,15.748032,0.223694,3.5010171724,13,4,15.611,3466.6709108022,15.091864,0.31540854,3.5010171724,0.223694,0,-7.158208,255.2, 2.6, 3,0,0,1024,1024,1024,1024,255.2,0,76,3.918,3.961,3.918,3.899,0,0,12.354,73.31,3466.6709108022,15.091864,14,Waypoint,
6400,2021-03-21 09:47:16,40.1849913645223,33.3282398544982,16.076116,,,3467.6551628022,16.732284,0.223694,3.5548557568,13,4,15.611,3467.6551628022,16.076116,0.31540854,3.5548557568,0.223694,0,-7.158208,255.2, 2.2, 2.8,0,0,1024,1024,1024,1024,255.1,0,76,3.918,3.961,3.918,3.899,0,0,12.354,73.31,3467.6551628022,16.076116,14,Waypoint,
6500,2021-03-21 09:47:16,40.1849912357376,33.3282399464728,17.060368,,,3468.6394148022,17.716536,0.223694,3.596128724,12,4,15.611,3468.6394148022,17.060368,0.31540854,3.596128724,0.223694,0,-6.934514,255.2, 1.9, 2.7,0,0,1024,1024,1024,1024,255.2,0,76,3.918,3.961,3.918,3.899,0,0,12.354,73.31,3468.6394148022,17.060368,14,Waypoint,
6600,2021-03-21 09:47:16,40.1849911148338,33.3282405774653,18.04462,,,3469.6236668022,18.700788,0.223694,3.61138463,12,4,15.611,3469.6236668022,18.04462,0.31540854,3.61138463,0.223694,0,-6.934514,255.2, 1.5, 3.2,0,0,1024,1024,1024,1024,255.2,0,76,3.918,3.961,3.918,3.899,0,0,12.354,73.31,3469.6236668022,18.04462,14,Waypoint,
6700,2021-03-21 09:47:16,40.1849910049553,33.3282408300808,19.356956,,,3470.9360028022,20.013124,0.223694,3.6422901428,14,4,15.44,3470.9360028022,19.356956,0.31540854,3.6422901428,0.223694,0,-6.934514,255.2, 1.1, 3.7,0,0,1024,1024,1024,1024,255.1,0,76,3.859,3.879,3.879,3.848,0,0,18.12,73.31,3470.9360028022,19.356956,14,Waypoint,
6800,2021-03-21 09:47:16,40.1849908937595,33.3282410903913,20.341208,,,3471.9202548022,20.997376,0,3.6750001176,14,4,15.44,3471.9202548022,20.341208,0.31540854,3.6750001176,0,0,-6.934514,255.2, 0.9, 3.7,0,0,1024,1024,1024,1024,255.2,0,76,3.859,3.879,3.879,3.848,0,0,18.12,73.31,3471.9202548022,20.341208,14,Waypoint,
6900,2021-03-21 09:47:16,40.1849907471482,33.328241300931,21.32546,,,3472.9045068022,21.981628,0,3.7232284656,13,4,15.44,3472.9045068022,21.32546,0.31540854,3.7232284656,0,0,-6.71082,255.1, 0.6, 4.2,0,0,1024,1024,1024,1024,255.2,0,76,3.859,3.879,3.879,3.848,0,0,18.12,73.31,3472.9045068022,21.32546,14,Waypoint,
7000,2021-03-21 09:47:17,40.184990441828,33.3282416464442,22.309712,,,3473.8887588022,22.96588,0,3.8282153456,13,4,15.44,3473.8887588022,22.309712,0.31540854,3.8282153456,0,0,-6.71082,255.1, 0.8, 5,0,0,1024,1024,1024,1024,255.2,0,76,3.859,3.879,3.879,3.848,0,0,18.12,73.31,3473.8887588022,22.309712,14,Waypoint,
7100,2021-03-21 09:47:17,40.1849902260453,33.3282417089867,23.293964,,,3474.8730108022,23.950132,0,3.9060368704,13,4,15.44,3474.8730108022,23.293964,0.31540854,3.9060368704,0,0,-6.71082,255.2, 1.3, 5.2,0,0,1024,1024,1024,1024,255.2,0,76,3.859,3.879,3.879,3.848,0,0,18.12,73.31,3474.8730108022,23.293964,14,Waypoint,
7200,2021-03-21 09:47:17,40.1849900064456,33.3282416815168,24.278216,,,3475.8572628022,24.934384,0,3.9864174504,13,4,15.44,3475.8572628022,24.278216,0.31540854,3.9864174504,0,0,-6.71082,255.3, 1.8, 4.9,0,0,1024,1024,1024,1024,255.2,0,76,3.859,3.879,3.879,3.848,0,0,18.12,73.31,3475.8572628022,24.278216,14,Waypoint,
7300,2021-03-21 09:47:17,40.1849897948277,33.3282416544813,25.262468,,,3476.8415148022,25.918636,0,4.0638780828,14,4,15.44,3476.8415148022,25.262468,0.31540854,4.0638780828,0,0,-6.71082,255.3, 1.8, 4.6,0,0,1024,1024,1024,1024,255.2,0,76,3.859,3.879,3.879,3.848,0,0,18.12,73.31,3476.8415148022,25.262468,14,Waypoint,
7400,2021-03-21 09:47:17,40.1849892900947,33.3282414408579,26.24672,,,3477.8257668022,26.902888,0,4.2509515796,14,4,15.44,3477.8257668022,26.24672,0.31540854,4.2509515796,0,0,-6.71082,255.3, 1.8, 5.1,0,0,1024,1024,1024,1024,255.2,0,76,3.859,3.879,3.879,3.848,0,0,18.12,73.31,3477.8257668022,26.24672,14,Waypoint,
7500,2021-03-21 09:47:17,40.1849890817092,33.3282414497041,27.230972,,,3478.8100188022,27.88714,0,4.3267061752,14,4,15.44,3478.8100188022,27.230972,0.31540854,4.3267061752,0,0,-6.71082,255.3, 1.7, 6,0,0,1024,1024,1024,1024,255.1,0,76,3.859,3.879,3.879,3.848,0,0,18.12,73.31,3478.8100188022,27.230972,14,Waypoint,
7600,2021-03-21 09:47:17,40.1849889003169,33.3282414555122,28.215224,,,3479.7942708022,28.871392,0,4.3926838676,14,4,15.44,3479.7942708022,28.215224,0.31540854,4.3926838676,0,0,-6.71082,255.2, 1.4, 6.5,0,0,1024,1024,1024,1024,255.1,0,76,3.859,3.879,3.879,3.848,0,0,18.12,73.31,3479.7942708022,28.215224,14,Waypoint,
7700,2021-03-21 09:47:17,40.1849887986906,33.3282414595207,29.199476,,,3480.7785228022,29.855644,0.223694,4.429626126,14,4,15.395,3480.7785228022,29.199476,0.31540854,4.429626126,0.223694,0,-6.71082,255.2, 1.4, 6.3,0,0,1024,1024,1024,1024,255.1,0,76,3.879,3.898,3.899,3.871,0,0,14.064,73.31,3480.7785228022,29.199476,14,Waypoint,
7800,2021-03-21 09:47:17,40.1849887953734,33.328241469916,30.183728,,,3481.7627748022,30.839896,0.223694,4.4306759948,14,4,15.395,3481.7627748022,30.183728,0.31540854,4.4306759948,0.223694,0,-6.71082,255.2, 1.6, 5.7,0,0,1024,1024,1024,1024,255.2,0,76,3.879,3.898,3.899,3.871,0,0,14.064,73.31,3481.7627748022,30.183728,14,Waypoint,
7900,2021-03-21 09:47:17,40.1849888266412,33.328241476502,31.16798,,,3482.7470268022,31.824148,0.223694,4.4191930548,14,4,15.395,3482.7470268022,31.16798,0.31540854,4.4306759948,0.223694,0,-6.71082,255.2, 1.5, 5.2,0,0,1024,1024,1024,1024,255.2,0,76,3.879,3.898,3.899,3.871,0,0,14.064,73.31,3482.7470268022,31.16798,14,Waypoint,
8000,2021-03-21 09:47:18,40.1849888353289,33.3282415387339,32.152232,,,3483.7312788022,32.8084,0.223694,4.4151248132,14,4,15.395,3483.7312788022,32.152232,0.31540854,4.4306759948,0.223694,0,-6.487126,255.2, 1.4, 4.8,0,0,1024,1024,1024,1024,255.2,0,76,3.879,3.898,3.899,3.871,0,0,14.064,73.31,3483.7312788022,32.152232,14,Waypoint,
8100,2021-03-21 09:47:18,40.1849888735273,33.3282415816665,33.136484,,,3484.7155308022,33.792652,0.447388,4.4006235004,13,4,15.395,3484.7155308022,33.136484,0.447388,4.4306759948,0.447388,0,-6.487126,255.3, 1.3, 4.7,0,0,1024,1024,1024,1024,255.2,0,76,3.879,3.898,3.899,3.871,0,0,14.064,73.31,3484.7155308022,33.136484,14,Waypoint,
8200,2021-03-21 09:47:18,40.184988951463,33.3282415988028,34.120736,,,3485.6997828022,34.776904,0.223694,4.3719817672,13,4,15.395,3485.6997828022,34.120736,0.447388,4.4306759948,0.223694,0,-6.487126,255.3, 1.3, 4.7,0,0,1024,1024,1024,1024,255.2,0,76,3.879,3.898,3.899,3.871,0,0,14.064,73.31,3485.6997828022,34.120736,14,Waypoint,
8300,2021-03-21 09:47:18,40.184989011165,33.3282417761013,35.104988,,,3486.6840348022,35.761156,0.223694,4.3481628688,14,4,15.395,3486.6840348022,35.104988,0.447388,4.4306759948,0.223694,0,-6.487126,255.1, 0.7, 4.9,0,0,1024,1024,1024,1024,255.2,0,76,3.879,3.898,3.899,3.871,0,0,14.064,73.31,3486.6840348022,35.104988,14,Waypoint,
8400,2021-03-21 09:47:18,40.1849890461766,33.328241816769,36.08924,,,3487.6682868022,36.745408,0.447388,4.3350067004,14,4,15.395,3487.6682868022,36.08924,0.447388,4.4306759948,0.447388,0,-6.487126,255.1, 0.3, 4.8,0,0,1024,1024,1024,1024,255.2,0,76,3.879,3.898,3.899,3.871,0,0,14.064,73.31,3487.6682868022,36.08924,14,Waypoint,
8500,2021-03-21 09:47:18,40.1849891342331,33.3282418094782,37.073492,,,3488.6525388022,37.72966,0.447388,4.3029528936,14,4,15.395,3488.6525388022,37.073492,0.447388,4.4306759948,0.447388,0,-6.487126,255.1, 0.8, 4.4,0,0,1024,1024,1024,1024,255.1,0,76,3.879,3.898,3.899,3.871,0,0,14.064,73.31,3488.6525388022,37.073492,14,Waypoint,
8600,2021-03-21 09:47:18,40.1849893140003,33.3282417487785,38.057744,,,3489.6367908022,38.713912,0.447388,4.23802507,14,4,15.395,3489.6367908022,38.057744,0.447388,4.4306759948,0.447388,0,-6.71082,255.2, 1.7, 4,0,0,1024,1024,1024,1024,255.2,0,76,3.879,3.898,3.899,3.871,0,0,14.064,73.31,3489.6367908022,38.057744,14,Waypoint,
8700,2021-03-21 09:47:18,40.1849895511359,33.3282417472264,39.041996,,,3490.6210428022,39.698164,0.50107456,4.1516077444,14,4,15.535,3490.6210428022,39.041996,0.50107456,4.4306759948,0.447388,-0.223694,-6.71082,255.2, 2.2, 3.5,0,0,1024,1024,1024,1024,255.2,0,76,3.879,3.898,3.899,3.871,0,0,14.064,73.31,3490.6210428022,39.041996,14,Waypoint,
8800,2021-03-21 09:47:18,40.1849896838329,33.3282415589511,40.026248,,,3491.6052948022,40.682416,0.31540854,4.1056759844,14,4,15.535,3491.6052948022,40.026248,0.50107456,4.4306759948,0.223694,-0.223694,-6.71082,255.2, 2.3, 3.6,0,0,1024,1024,1024,1024,255.2,0,76,3.879,3.898,3.899,3.871,0,0,14.064,73.31,3491.6052948022,40.026248,14,Waypoint,
8900,2021-03-21 09:47:18,40.1849898016802,33.3282413876057,41.0105,,,3492.5895468022,41.666668,0.223694,4.0655841196,14,4,15.535,3492.5895468022,41.0105,0.50107456,4.4306759948,0.223694,0,-6.71082,255.2, 2.5, 3.7,0,0,1024,1024,1024,1024,255.2,0,76,3.879,3.898,3.899,3.871,0,0,14.064,73.31,3492.5895468022,41.0105,14,Waypoint,
9000,2021-03-21 09:47:19,40.1849899165213,33.3282412263159,41.994752,,,3493.5737988022,42.65092,0.223694,4.0269686328,14,4,15.535,3493.5737988022,41.994752,0.50107456,4.4306759948,0.223694,0,-6.71082,255.2, 2.5, 4,0,0,1024,1024,1024,1024,255.2,0,76,3.879,3.898,3.899,3.871,0,0,14.064,73.31,3493.5737988022,41.994752,14,Waypoint,
9100,2021-03-21 09:47:19,40.1849898162051,33.3282409025282,42.979004,,,3494.5580508022,43.635172,0.223694,4.071358398,14,4,15.535,3494.5580508022,42.979004,0.50107456,4.4306759948,0.223694,0,-6.71082,255.2, 2.4, 4.4,0,0,1024,1024,1024,1024,255.2,0,76,3.879,3.898,3.899,3.871,0,0,14.064,73.31,3494.5580508022,42.979004,14,Waypoint,
9200,2021-03-21 09:47:19,40.1849898063717,33.3282408002899,43.963256,,,3495.5423028022,44.619424,0.223694,4.0778216528,14,4,15.535,3495.5423028022,43.963256,0.50107456,4.4306759948,0.223694,0,-6.71082,255.3, 2.3, 4.6,0,0,1024,1024,1024,1024,255.1,0,76,3.879,3.898,3.899,3.871,0,0,14.064,73.31,3495.5423028022,43.963256,14,Waypoint,
9300,2021-03-21 09:47:19,40.184989822109,33.3282407044542,44.947508,,,3496.5265548022,45.603676,0.447388,4.0750329388,14,4,15.535,3496.5265548022,44.947508,0.50107456,4.4306759948,0.447388,0,-6.71082,255.2, 2.2, 4.5,0,0,1024,1024,1024,1024,255.2,0,76,3.879,3.898,3.899,3.871,0,0,14.064,73.31,3496.5265548022,44.947508,14,Waypoint,
9400,2021-03-21 09:47:19,40.1849898859122,33.3282406039488,45.93176,,,3497.5108068022,46.587928,0.447388,4.0551510484,14,4,15.535,3497.5108068022,45.93176,0.50107456,4.4306759948,0.447388,0,-6.71082,255.2, 2.3, 4.3,0,0,1024,1024,1024,1024,255.2,0,76,3.879,3.898,3.899,3.871,0,0,14.064,73.31,3497.5108068022,45.93176,14,Waypoint,
9500,2021-03-21 09:47:19,40.1849899638447,33.3282405258829,46.916012,,,3498.4950588022,46.916012,0.447388,4.0295933048,14,4,15.535,3498.4950588022,46.916012,0.50107456,4.4306759948,0.447388,0,-6.487126,255.3, 2.2, 4.4,0,0,1024,1024,1024,1024,255.2,0,76,3.879,3.898,3.899,3.871,0,0,14.064,73.31,3498.4950588022,46.916012,14,Waypoint,
9600,2021-03-21 09:47:19,40.1849900660344,33.3282405064435,47.900264,,,3499.4793108022,46.916012,0.223694,3.9933072144,14,4,15.535,3499.4793108022,47.900264,0.50107456,4.4306759948,0.223694,0,-6.71082,255.3, 2, 4.7,0,0,1024,1024,1024,1024,255.1,0,76,3.879,3.898,3.899,3.871,0,0,14.064,73.31,3499.4793108022,47.900264,14,Waypoint,
9700,2021-03-21 09:47:19,40.184990135845,33.3282404960901,48.884516,,,3500.4635628022,46.916012,0.223694,3.9684056388,14,4,15.467,3500.4635628022,48.884516,0.50107456,4.4306759948,0.223694,0,-6.71082,255.3, 1.7, 4.6,0,0,1024,1024,1024,1024,255.2,0,76,3.871,3.89,3.892,3.865,0,0,14.508,73.31,3500.4635628022,48.884516,14,Waypoint,
9800,2021-03-21 09:47:19,40.1849901638331,33.3282405305226,49.868768,,,3501.4478148022,46.916012,0.223694,3.9570539324,14,4,15.467,3501.4478148022,49.868768,0.50107456,4.4306759948,0.223694,0,-6.71082,255.3, 1.8, 4.4,0,0,1024,1024,1024,1024,255.1,0,76,3.871,3.89,3.892,3.865,0,0,14.508,73.31,3501.4478148022,49.868768,14,Waypoint,
9900,2021-03-21 09:47:19,40.1849901971347,33.3282405029908,50.85302,,,3502.4320668022,46.916012,0.223694,3.9459975016,14,4,15.467,3502.4320668022,50.85302,0.50107456,4.4306759948,0.223694,0,-6.487126,255.3, 2.1, 4.7,0,0,1024,1024,1024,1024,255.2,0,76,3.871,3.89,3.892,3.865,0,0,14.508,73.31,3502.4320668022,50.85302,14,Waypoint,
10000,2021-03-21 09:47:20,40.1849901279682,33.3282404171283,51.837272,,,3503.4163188022,46.916012,0.223694,3.9741799172,14,4,15.467,3503.4163188022,51.837272,0.50107456,4.4306759948,0.223694,0,-6.487126,255.3, 2.3, 4.4,0,0,1024,1024,1024,1024,255.2,0,76,3.871,3.89,3.892,3.865,0,0,14.508,73.31,3503.4163188022,51.837272,14,Waypoint,
10100,2021-03-21 09:47:20,40.1849901858179,33.3282403019045,52.821524,,,3504.4005708022,46.916012,0.223694,3.9577429088,14,4,15.467,3504.4005708022,52.821524,0.50107456,4.4306759948,0.223694,0,-6.487126,255.3, 2.4, 4.5,0,0,1024,1024,1024,1024,255.2,0,76,3.871,3.89,3.892,3.865,0,0,14.508,73.31,3504.4005708022,52.821524,14,Waypoint,
10200,2021-03-21 09:47:20,40.1849902581143,33.3282402067541,53.805776,,,3505.3848228022,46.916012,0.447388,3.9355644304,14,4,15.467,3505.3848228022,53.805776,0.50107456,4.4306759948,0.447388,0,-6.487126,255.3, 2.5, 4.5,0,0,1024,1024,1024,1024,255.2,0,76,3.871,3.89,3.892,3.865,0,0,14.508,73.31,3505.3848228022,53.805776,14,Waypoint,
10300,2021-03-21 09:47:20,40.1849903477235,33.3282401265355,54.790028,,,3506.3690748022,46.916012,0.447388,3.9066930384,14,4,15.467,3506.3690748022,54.790028,0.50107456,4.4306759948,0.447388,0,-6.487126,255.3, 2.5, 4.4,0,0,1024,1024,1024,1024,255.2,0,76,3.871,3.89,3.892,3.865,0,0,14.508,73.31,3506.3690748022,54.790028,14,Waypoint,
10400,2021-03-21 09:47:20,40.1849905126987,33.3282400470013,55.77428,,,3507.3533268022,46.916012,0.223694,3.8509187584,14,4,15.467,3507.3533268022,55.77428,0.50107456,4.4306759948,0.223694,0,-6.71082,255.3, 2.4, 4.4,0,0,1024,1024,1024,1024,255.2,0,76,3.871,3.89,3.892,3.865,0,0,14.508,73.31,3507.3533268022,55.77428,14,Waypoint,
10500,2021-03-21 09:47:20,40.1849906155455,33.3282399736555,56.758532,,,3508.3375788022,46.916012,0.223694,3.8173885736,13,4,15.467,3508.3375788022,56.758532,0.50107456,4.4306759948,0.223694,0,-6.71082,255.3, 2.6, 4.2,0,0,1024,1024,1024,1024,255.2,0,76,3.871,3.89,3.892,3.865,0,0,14.508,73.31,3508.3375788022,56.758532,14,Waypoint,
10600,2021-03-21 09:47:20,40.1849906922192,33.3282398858367,57.742784,,,3509.3218308022,46.916012,0.447388,3.7941602264,13,4,15.467,3509.3218308022,57.742784,0.50107456,4.4306759948,0.447388,0,-6.487126,255.3, 2.5, 4,0,0,1024,1024,1024,1024,255.2,0,76,3.871,3.89,3.892,3.865,0,0,14.508,73.31,3509.3218308022,57.742784,14,Waypoint,
10700,2021-03-21 09:47:20,40.1849908047276,33.3282398060718,58.727036,,,3510.3060828022,46.916012,0.447388,3.7579069444,13,4,15.445,3510.3060828022,58.727036,0.50107456,4.4306759948,0.447388,0,-6.71082,255.3, 2.2, 4.1,0,0,1024,1024,1024,1024,255.2,0,76,3.874,3.893,3.894,3.868,0,0,13.574,73.31,3510.3060828022,58.727036,14,Waypoint,
10800,2021-03-21 09:47:20,40.184991153664,33.3282396468186,59.711288,,,3511.2903348022,46.916012,0.223694,3.6418636336,13,4,15.445,3511.2903348022,59.711288,0.50107456,4.4306759948,0.223694,0,-6.487126,255.3, 2.2, 4.1,0,0,1024,1024,1024,1024,255.2,0,76,3.874,3.893,3.894,3.868,0,0,13.574,73.31,3511.2903348022,59.711288,14,Waypoint,
10900,2021-03-21 09:47:20,40.1849912949625,33.3282395559561,60.69554,,,3512.2745868022,46.916012,0.223694,3.596784892,13,4,15.445,3512.2745868022,60.69554,0.50107456,4.4306759948,0.223694,0,-6.487126,255.3, 2.6, 3.8,0,0,1024,1024,1024,1024,255.2,0,76,3.874,3.893,3.894,3.868,0,0,13.574,73.31,3512.2745868022,60.69554,14,Waypoint,
11000,2021-03-21 09:47:21,40.1849913584238,33.3282394651658,61.679792,,,3513.2588388022,46.916012,0.223694,3.5797901408,13,4,15.445,3513.2588388022,61.679792,0.50107456,4.4306759948,0.223694,0,-6.487126,255.3, 2.8, 3.8,0,0,1024,1024,1024,1024,255.2,0,76,3.874,3.893,3.894,3.868,0,0,13.574,73.31,3513.2588388022,61.679792,14,Waypoint,
11100,2021-03-21 09:47:21,40.1849913959724,33.3282393878895,62.664044,,,3514.2430908022,46.916012,0.223694,3.5713255736,13,4,15.445,3514.2430908022,62.664044,0.50107456,4.4306759948,0.223694,0,-6.487126,255.3, 2.9, 3.8,0,0,1024,1024,1024,1024,255.2,0,76,3.874,3.893,3.894,3.868,0,0,13.574,73.31,3514.2430908022,62.664044,14,Waypoint,
11200,2021-03-21 09:47:21,40.1849914003383,33.3282393198203,63.648296,,,3515.2273428022,46.916012,0.223694,3.5742127128,13,4,15.445,3515.2273428022,63.648296,0.50107456,4.4306759948,0.223694,0,-6.487126,255.3, 2.6, 3.9,0,0,1024,1024,1024,1024,255.1,0,76,3.874,3.893,3.894,3.868,0,0,13.574,73.31,3515.2273428022,63.648296,14,Waypoint,
11300,2021-03-21 09:47:21,40.1849912742609,33.3282392690102,64.632548,,,3516.2115948022,46.916012,0.223694,3.6222442104,14,4,15.445,3516.2115948022,64.632548,0.50107456,4.4306759948,0.223694,0,-6.71082,255.3, 2.6, 4.1,0,0,1024,1024,1024,1024,255.2,0,76,3.874,3.893,3.894,3.868,0,0,13.574,73.31,3516.2115948022,64.632548,14,Waypoint,
11400,2021-03-21 09:47:21,40.184991378794,33.3282392740367,65.6168,,,3517.1958468022,46.916012,0.223694,3.5848426344,14,4,15.445,3517.1958468022,65.6168,0.50107456,4.4306759948,0.223694,0,-6.487126,255.3, 2.5, 4.2,0,0,1024,1024,1024,1024,255.2,0,76,3.874,3.893,3.894,3.868,0,0,13.574,73.31,3517.1958468022,65.6168,14,Waypoint,
11500,2021-03-21 09:47:21,40.1849914450146,33.3282392855399,66.601052,,,3518.1800988022,46.916012,0.223694,3.5606300352,14,4,15.445,3518.1800988022,66.601052,0.50107456,4.4306759948,0.223694,0,-6.487126,255.3, 2.4, 4.2,0,0,1024,1024,1024,1024,255.1,0,76,3.874,3.893,3.894,3.868,0,0,13.574,73.31,3518.1800988022,66.601052,14,Waypoint,
11600,2021-03-21 09:47:21,40.1849914487169,33.3282393030506,67.25722,,,3518.8362668022,46.916012,0.223694,3.5581694052,14,4,15.445,3518.8362668022,67.25722,0.50107456,4.4306759948,0.223694,0,-6.487126,255.3, 2.4, 4,0,0,1024,1024,1024,1024,255.2,0,76,3.874,3.893,3.894,3.868,0,0,13.574,73.31,3518.8362668022,67.25722,14,Waypoint,
11700,2021-03-21 09:47:21,40.1849914208607,33.328239410358,68.241472,,,3519.8205188022,46.916012,0.223694,3.5610565444,14,4,15.439,3519.8205188022,68.241472,0.50107456,4.4306759948,0.223694,0,-6.71082,255.3, 2, 4,0,0,1024,1024,1024,1024,255.2,0,76,3.874,3.893,3.894,3.868,0,0,13.574,73.31,3519.8205188022,68.241472,14,Waypoint,
11800,2021-03-21 09:47:21,40.1849914870716,33.32823945561,69.225724,,,3520.8047708022,46.916012,0.223694,3.5346457824,14,4,15.439,3520.8047708022,69.225724,0.50107456,4.4306759948,0.223694,0,-6.487126,255.3, 2, 4.1,0,0,1024,1024,1024,1024,255.2,0,76,3.874,3.893,3.894,3.868,0,0,13.574,73.31,3520.8047708022,69.225724,14,Waypoint,
11900,2021-03-21 09:47:21,40.184991522141,33.3282394739343,70.209976,,,3521.7890228022,46.916012,0.223694,3.5210302964,14,4,15.439,3521.7890228022,70.209976,0.50107456,4.4306759948,0.223694,0,-6.71082,255.3, 2, 4.3,0,0,1024,1024,1024,1024,255.2,0,76,3.874,3.893,3.894,3.868,0,0,13.574,73.31,3521.7890228022,70.209976,14,Waypoint,
12000,2021-03-21 09:47:22,40.1849915130885,33.3282394442652,71.522312,,,3523.1013588022,46.916012,0.223694,3.5261155984,14,4,15.439,3523.1013588022,71.522312,0.50107456,4.4306759948,0.223694,0,-6.71082,255.3, 2.1, 4.9,0,0,1024,1024,1024,1024,255.1,0,76,3.874,3.893,3.894,3.868,0,0,13.574,73.31,3523.1013588022,71.522312,14,Waypoint,
12100,2021-03-21 09:47:22,40.1849915012318,33.32823940206,72.506564,,,3524.0856108022,46.916012,0.223694,3.5330381708,14,4,15.439,3524.0856108022,72.506564,0.50107456,4.4306759948,0.223694,0,-6.71082,255.3, 2.3, 5,0,0,1024,1024,1024,1024,255.2,0,76,3.874,3.893,3.894,3.868,0,0,13.574,73.31,3524.0856108022,72.506564,14,Waypoint,
12200,2021-03-21 09:47:22,40.1849915259141,33.3282394196622,73.490816,,,3525.0698628022,46.916012,0.223694,3.5231628424,14,4,15.439,3525.0698628022,73.490816,0.50107456,4.4306759948,0.223694,0,-6.71082,255.3, 2.4, 4.5,0,0,1024,1024,1024,1024,255.2,0,76,3.874,3.893,3.894,3.868,0,0,13.574,73.31,3525.0698628022,73.490816,14,Waypoint,
12300,2021-03-21 09:47:22,40.1849915602881,33.3282394432729,74.475068,,,3526.0541148022,46.916012,0.223694,3.5094161228,14,4,15.439,3526.0541148022,74.475068,0.50107456,4.4306759948,0.223694,0,-6.71082,255.3, 2.6, 4.4,0,0,1024,1024,1024,1024,255.2,0,76,3.874,3.893,3.894,3.868,0,0,13.574,73.31,3526.0541148022,74.475068,14,Waypoint,
12400,2021-03-21 09:47:22,40.1849916099076,33.3282394783234,75.45932,,,3527.0383668022,46.916012,0.223694,3.4895670408,14,4,15.439,3527.0383668022,75.45932,0.50107456,4.4306759948,0.223694,0,-6.71082,255.3, 2.5, 4.3,0,0,1024,1024,1024,1024,255.2,0,76,3.874,3.893,3.894,3.868,0,0,13.574,73.31,3527.0383668022,75.45932,14,Waypoint,
12500,2021-03-21 09:47:22,40.1849917909328,33.3282396094066,76.115488,,,3527.6945348022,46.916012,0.223694,3.41699486,14,4,15.439,3527.6945348022,76.115488,0.50107456,4.4306759948,0.223694,0,-6.487126,255.2, 2.3, 4.4,0,0,1024,1024,1024,1024,255.2,0,76,3.874,3.893,3.894,3.868,0,0,13.574,73.31,3527.6945348022,76.115488,14,Waypoint,
12600,2021-03-21 09:47:22,40.1849918940695,33.3282395874707,77.09974,,,3528.6787868022,46.916012,0.223694,3.3816930216,14,4,15.439,3528.6787868022,77.09974,0.50107456,4.4306759948,0.223694,0,-6.487126,255.2, 2.1, 4.4,0,0,1024,1024,1024,1024,255.2,0,76,3.874,3.893,3.894,3.868,0,0,13.574,73.31,3528.6787868022,77.09974,14,Waypoint,
12700,2021-03-21 09:47:22,40.1849919470745,33.3282395359879,78.083992,,,3529.6630388022,46.916012,0.223694,3.3661746484,14,4,15.433,3529.6630388022,78.083992,0.50107456,4.4306759948,0.223694,0,-6.71082,255.2, 2.8, 4.2,0,0,1024,1024,1024,1024,255.2,0,76,3.866,3.889,3.888,3.859,0,0,13.772,73.31,3529.6630388022,78.083992,14,Waypoint,
12800,2021-03-21 09:47:22,40.1849919148688,33.3282394432158,79.068244,,,3530.6472908022,46.916012,0.223694,3.3836615256,14,4,15.433,3530.6472908022,79.068244,0.50107456,4.4306759948,0.223694,0,-6.71082,255.3, 3.1, 4.1,0,0,1024,1024,1024,1024,255.1,0,76,3.866,3.889,3.888,3.859,0,0,13.772,73.31,3530.6472908022,79.068244,14,Waypoint,
12900,2021-03-21 09:47:22,40.1849919152148,33.3282393777254,80.38058,,,3531.9596268022,46.916012,0.223694,3.387959426,14,4,15.433,3531.9596268022,80.38058,0.50107456,4.4306759948,0.223694,0,-6.71082,255.4, 3.2, 4.4,0,0,1024,1024,1024,1024,255.1,0,76,3.866,3.889,3.888,3.859,0,0,13.772,73.31,3531.9596268022,80.38058,14,Waypoint,
13000,2021-03-21 09:47:23,40.1849919589345,33.3282393126519,81.036748,,,3532.6157948022,46.916012,0.223694,3.376968612,14,4,15.433,3532.6157948022,81.036748,0.50107456,4.4306759948,0.223694,0,-6.71082,255.4, 3.2, 4.7,0,0,1024,1024,1024,1024,255.2,0,76,3.866,3.889,3.888,3.859,0,0,13.772,73.31,3532.6157948022,81.036748,14,Waypoint,
13100,2021-03-21 09:47:23,40.1849920192634,33.328239321884,82.021,,,3533.6000468022,46.916012,0.223694,3.3550197924,14,4,15.433,3533.6000468022,82.021,0.50107456,4.4306759948,0.223694,0,-6.487126,255.3, 2.9, 4.1,0,0,1024,1024,1024,1024,255.1,0,76,3.866,3.889,3.888,3.859,0,0,13.772,73.31,3533.6000468022,82.021,14,Waypoint,
13200,2021-03-21 09:47:23,40.1849920467687,33.3282393655008,83.005252,,,3534.5842988022,46.916012,0.223694,3.3422573248,14,4,15.433,3534.5842988022,83.005252,0.50107456,4.4306759948,0.223694,0,-6.487126,255.3, 2.5, 3.9,0,0,1024,1024,1024,1024,255.1,0,76,3.866,3.889,3.888,3.859,0,0,13.772,73.31,3534.5842988022,83.005252,14,Waypoint,
13300,2021-03-21 09:47:23,40.1849920789158,33.3282394194705,83.66142,,,3535.2404668022,46.916012,0.223694,3.3271982692,14,4,15.433,3535.2404668022,83.66142,0.50107456,4.4306759948,0.223694,0,-6.71082,255.3, 2.3, 4.1,0,0,1024,1024,1024,1024,255.2,0,76,3.866,3.889,3.888,3.859,0,0,13.772,73.31,3535.2404668022,83.66142,14,Waypoint,
13400,2021-03-21 09:47:23,40.1849920864579,33.3282395890852,84.317588,,,3535.8966348022,46.916012,0.223694,3.3132546992,14,4,15.433,3535.8966348022,84.317588,0.50107456,4.4306759948,0.223694,0,-6.71082,255.2, 2.2, 4.1,0,0,1024,1024,1024,1024,255.2,0,76,3.866,3.889,3.888,3.859,0,0,13.772,73.31,3535.8966348022,84.317588,14,Waypoint,
13500,2021-03-21 09:47:23,40.1849921207106,33.3282396437686,85.629924,,,3537.2089708022,46.916012,0.223694,3.2976050924,14,4,15.433,3537.2089708022,85.629924,0.50107456,4.4306759948,0.223694,0,-6.934514,255.3, 2, 4.3,0,0,1024,1024,1024,1024,255.2,0,76,3.866,3.889,3.888,3.859,0,0,13.772,73.31,3537.2089708022,85.629924,14,Waypoint,
13600,2021-03-21 09:47:23,40.1849921320999,33.3282396828838,86.94226,,,3538.5213068022,46.916012,0.223694,3.2910762208,14,4,15.433,3538.5213068022,86.94226,0.50107456,4.4306759948,0.223694,0,-6.934514,255.3, 2.1, 4.5,0,0,1024,1024,1024,1024,255.1,0,76,3.866,3.889,3.888,3.859,0,0,13.772,73.31,3538.5213068022,86.94226,14,Waypoint,
13700,2021-03-21 09:47:23,40.1849921736961,33.3282396996062,87.926512,,,3539.5055588022,46.916012,0.223694,3.2752461678,14,4,15.428,3539.5055588022,87.926512,0.50107456,4.4306759948,0.223694,0,-6.934514,255.3, 2.3, 4.3,0,0,1024,1024,1024,1024,255.2,0,76,3.866,3.889,3.888,3.859,0,0,13.902,73.31,3539.5055588022,87.926512,14,Waypoint,
13800,2021-03-21 09:47:23,40.1849923260167,33.3282396638448,88.58268,,,3540.1617268022,46.916012,0.223694,3.2234088958,14,4,15.428,3540.1617268022,88.58268,0.50107456,4.4306759948,0.223694,0,-6.71082,255.3, 2.5, 3.9,0,0,1024,1024,1024,1024,255.2,0,76,3.866,3.889,3.888,3.859,0,0,13.902,73.31,3540.1617268022,88.58268,14,Waypoint,
13900,2021-03-21 09:47:23,40.1849924092017,33.3282396702283,89.566932,,,3541.1459788022,46.916012,0.223694,3.19347451164,14,4,15.428,3541.1459788022,89.566932,0.50107456,4.4306759948,0.223694,0,-6.71082,255.3, 2.3, 3.5,0,0,1024,1024,1024,1024,255.2,0,76,3.866,3.889,3.888,3.859,0,0,13.902,73.31,3541.1459788022,89.566932,14,Waypoint,
14000,2021-03-21 09:47:24,40.1849924716321,33.3282397001626,90.879268,,,3542.4583148022,46.916012,0.223694,3.16938330352,14,4,15.428,3542.4583148022,90.879268,0.50107456,4.4306759948,0.223694,0,-6.934514,255.3, 2.2, 3.7,0,0,1024,1024,1024,1024,255.2,0,76,3.866,3.889,3.888,3.859,0,0,13.902,73.31,3542.4583148022,90.879268,14,Waypoint,
14100,2021-03-21 09:47:24,40.1849925180721,33.3282397205968,91.86352,,,3543.4425668022,46.916012,0.223694,3.15157818484,14,4,15.428,3543.4425668022,91.86352,0.50107456,4.4306759948,0.223694,0,-6.934514,255.3, 2.2, 3.7,0,0,1024,1024,1024,1024,255.2,0,76,3.866,3.889,3.888,3.859,0,0,13.902,73.31,3543.4425668022,91.86352,14,Waypoint,
14200,2021-03-21 09:47:24,40.1849925540697,33.3282396683681,92.519688,,,3544.0987348022,46.916012,0.223694,3.14222451,14,4,15.428,3544.0987348022,92.519688,0.50107456,4.4306759948,0.223694,0,-6.71082,255.2, 2.2, 4,0,0,1024,1024,1024,1024,255.1,0,76,3.866,3.889,3.888,3.859,0,0,13.902,73.31,3544.0987348022,92.519688,14,Waypoint,
14300,2021-03-21 09:47:24,40.1849925558105,33.3282396717874,93.175856,,,3544.7549028022,46.916012,0.223694,3.14138133412,14,4,15.428,3544.7549028022,93.175856,0.50107456,4.4306759948,0.223694,0,-6.71082,255.2, 2, 4,0,0,1024,1024,1024,1024,255.2,0,76,3.866,3.889,3.888,3.859,0,0,13.902,73.31,3544.7549028022,93.175856,14,Waypoint,
14400,2021-03-21 09:47:24,40.184992520426,33.3282396997369,94.160108,,,3545.7391548022,46.916012,0.223694,3.15209655756,14,4,15.428,3545.7391548022,94.160108,0.50107456,4.4306759948,0.223694,0,-6.71082,255.2, 2.2, 4,0,0,1024,1024,1024,1024,255.2,0,76,3.866,3.889,3.888,3.859,0,0,13.902,73.31,3545.7391548022,94.160108,14,Waypoint,
14500,2021-03-21 09:47:24,40.1849924988662,33.3282397108152,95.472444,,,3547.0514908022,46.916012,0.223694,3.15902897248,14,4,15.428,3547.0514908022,95.472444,0.50107456,4.4306759948,0.223694,0,-6.934514,255.3, 2.6, 4.1,0,0,1024,1024,1024,1024,255.1,0,76,3.866,3.889,3.888,3.859,0,0,13.902,73.31,3547.0514908022,95.472444,14,Waypoint,
14600,2021-03-21 09:47:24,40.1849925044062,33.3282397041145,96.456696,,,3548.0357428022,46.916012,0,3.1574968202,14,4,15.428,3548.0357428022,96.456696,0.50107456,4.4306759948,0,0,-6.934514,255.3, 2.7, 4.5,0,0,1024,1024,1024,1024,255.2,0,76,3.866,3.889,3.888,3.859,0,0,13.902,73.31,3548.0357428022,96.456696,14,Waypoint,
14700,2021-03-21 09:47:24,40.1849924201872,33.3282397262903,97.440948,,,3549.0199948022,46.916012,0.223694,3.18596794972,14,4,15.417,3549.0199948022,97.440948,0.50107456,4.4306759948,0.223694,0,-6.934514,255.3, 2.7, 4.7,0,0,1024,1024,1024,1024,255.2,0,76,3.864,3.879,3.878,3.852,0,0,13.902,73.31,3549.0199948022,97.440948,14,Waypoint,
14800,2021-03-21 09:47:24,40.184992429751,33.3282397052222,98.4252,,,3550.0042468022,46.916012,0.223694,3.18392070556,14,4,15.417,3550.0042468022,98.4252,0.50107456,4.4306759948,0.223694,0,-6.934514,255.3, 2.6, 4.3,0,0,1024,1024,1024,1024,255.2,0,76,3.864,3.879,3.878,3.852,0,0,13.902,73.31,3550.0042468022,98.4252,14,Waypoint,
14900,2021-03-21 09:47:24,40.1849924854658,33.3282396900988,99.409452,,,3550.9884988022,46.916012,0.223694,3.1651247732,14,4,15.417,3550.9884988022,99.409452,0.50107456,4.4306759948,0.223694,0,-6.934514,255.3, 2.7, 3.9,0,0,1024,1024,1024,1024,255.2,0,76,3.864,3.879,3.878,3.852,0,0,13.902,73.31,3550.9884988022,99.409452,14,Waypoint,
15000,2021-03-21 09:47:25,40.1849926151722,33.3282396878632,100.721788,,,3552.3008348022,46.916012,0.223694,3.11927831504,14,4,15.417,3552.3008348022,100.721788,0.50107456,4.4306759948,0.223694,0,-6.934514,255.3, 2.8, 3.9,0,0,1024,1024,1024,1024,255.2,0,76,3.864,3.879,3.878,3.852,0,0,13.902,73.31,3552.3008348022,100.721788,14,Waypoint,
15100,2021-03-21 09:47:25,40.1849928698608,33.3282396530539,101.70604,,,3553.2850868022,46.916012,0.223694,3.0314633516,14,4,15.417,3553.2850868022,101.70604,0.50107456,4.4306759948,0.223694,0,-6.934514,255.3, 2.6, 3.7,0,0,1024,1024,1024,1024,255.2,0,76,3.864,3.879,3.878,3.852,0,0,13.902,73.31,3553.2850868022,101.70604,14,Waypoint,
15200,2021-03-21 09:47:25,40.1849929297004,33.3282396765256,102.690292,,,3554.2693388022,46.916012,0.223694,3.008694322,14,4,15.417,3554.2693388022,102.690292,0.50107456,4.4306759948,0.223694,0,-6.934514,255.3, 2.2, 3.4,0,0,1024,1024,1024,1024,255.2,0,76,3.864,3.879,3.878,3.852,0,0,13.902,73.31,3554.2693388022,102.690292,14,Waypoint,
15300,2021-03-21 09:47:25,40.1849929841987,33.3282397142151,103.34646,,,3554.9255068022,46.916012,0.223694,2.98683736592,14,4,15.417,3554.9255068022,103.34646,0.50107456,4.4306759948,0.223694,0,-6.71082,255.3, 2.1, 3.2,0,0,1024,1024,1024,1024,255.2,0,76,3.864,3.879,3.878,3.852,0,0,13.902,73.31,3554.9255068022,103.34646,14,Waypoint,
15400,2021-03-21 09:47:25,40.1849930329723,33.3282397936661,104.330712,,,3555.9097588022,46.916012,0.223694,2.9642061316,14,4,15.417,3555.9097588022,104.330712,0.50107456,4.4306759948,0.223694,0,-6.71082,255.2, 2.1, 3.1,0,0,1024,1024,1024,1024,255.2,0,76,3.864,3.879,3.878,3.852,0,0,13.902,73.31,3555.9097588022,104.330712,14,Waypoint,
15500,2021-03-21 09:47:25,40.1849930122796,33.3282399685665,105.314964,,,3556.8940108022,46.916012,0.223694,2.9602691236,13,4,15.417,3556.8940108022,105.314964,0.50107456,4.4306759948,0.223694,0,-6.71082,255.2, 2.1, 3.5,0,0,1024,1024,1024,1024,255.2,0,76,3.864,3.879,3.878,3.852,0,0,13.902,73.31,3556.8940108022,105.314964,14,Waypoint,
15600,2021-03-21 09:47:25,40.1849929754776,33.3282399887579,106.6273,,,3558.2063468022,46.916012,0,2.972112956,13,4,15.417,3558.2063468022,106.6273,0.50107456,4.4306759948,0,0,-6.934514,255.3, 2.1, 3.9,0,0,1024,1024,1024,1024,255.2,0,76,3.864,3.879,3.878,3.852,0,0,13.902,73.31,3558.2063468022,106.6273,14,Waypoint,
15700,2021-03-21 09:47:25,40.1849929472412,33.3282400029033,107.939636,,,3559.5186828022,46.916012,0,2.981299308,15,4,15.421,3559.5186828022,107.939636,0.50107456,4.4306759948,0,0,-6.934514,255.3, 2.3, 4,0,0,1024,1024,1024,1024,255.1,0,76,3.859,3.877,3.873,3.837,0,0,14.766,73.31,3559.5186828022,107.939636,14,Waypoint,
15800,2021-03-21 09:47:25,40.1849929439363,33.3282400204832,108.923888,,,3560.5029348022,46.916012,0.223694,2.98140757572,15,4,15.421,3560.5029348022,108.923888,0.50107456,4.4306759948,0.223694,0,-6.934514,255.3, 2.5, 4,0,0,1024,1024,1024,1024,255.2,0,76,3.859,3.877,3.873,3.837,0,0,14.766,73.31,3560.5029348022,108.923888,14,Waypoint,
15900,2021-03-21 09:47:25,40.1849929393465,33.3282399994493,109.580056,,,3561.1591028022,46.916012,0,2.9843176808,15,4,15.421,3561.1591028022,109.580056,0.50107456,4.4306759948,0,0,-6.71082,255.3, 2.7, 3.8,0,0,1024,1024,1024,1024,255.2,0,76,3.859,3.877,3.873,3.837,0,0,14.766,73.31,3561.1591028022,109.580056,14,Waypoint,
16000,2021-03-21 09:47:26,40.1849929265876,33.3282398491645,110.564308,,,3562.1433548022,46.916012,0,2.99828421668,15,4,15.421,3562.1433548022,110.564308,0.50107456,4.4306759948,0,0,-6.71082,255.3, 2.7, 3.9,0,0,1024,1024,1024,1024,255.2,0,76,3.859,3.877,3.873,3.837,0,0,14.766,73.31,3562.1433548022,110.564308,14,Waypoint,
16100,2021-03-21 09:47:26,40.184992847692,33.3282397755527,111.54856,,,3563.1276068022,46.916012,0,3.0310696508,15,4,15.421,3563.1276068022,111.54856,0.50107456,4.4306759948,0,0,-6.71082,255.3, 2.7, 4.1,0,0,1024,1024,1024,1024,255.2,0,76,3.859,3.877,3.873,3.837,0,0,14.766,73.31,3563.1276068022,111.54856,14,Waypoint,
16200,2021-03-21 09:47:26,40.1849926564239,33.3282398919012,112.532812,,,3564.1118588022,46.916012,0,3.09160771048,15,4,15.421,3564.1118588022,112.532812,0.50107456,4.4306759948,0,0,-6.71082,255.3, 2.8, 4.2,0,0,1024,1024,1024,1024,255.2,0,76,3.859,3.877,3.873,3.837,0,0,14.766,73.31,3564.1118588022,112.532812,14,Waypoint,
16300,2021-03-21 09:47:26,40.1849925394275,33.3282399531347,113.517064,,,3565.0961108022,46.916012,0,3.12958015264,15,4,15.421,3565.0961108022,113.517064,0.50107456,4.4306759948,0,0,-6.71082,255.3, 2.6, 4.4,0,0,1024,1024,1024,1024,255.2,0,76,3.859,3.877,3.873,3.837,0,0,14.766,73.31,3565.0961108022,113.517064,14,Waypoint,
16400,2021-03-21 09:47:26,40.1849923119087,33.3282399611276,114.501316,,,3566.0803628022,46.916012,0,3.21028225496,15,4,15.421,3566.0803628022,114.501316,0.50107456,4.4306759948,0,0,-6.71082,255.3, 2.6, 4.6,0,0,1024,1024,1024,1024,255.2,0,76,3.859,3.877,3.873,3.837,0,0,14.766,73.31,3566.0803628022,114.501316,14,Waypoint,
16500,2021-03-21 09:47:26,40.184992309194,33.3282399099718,115.485568,,,3567.0646148022,46.916012,0,3.21422582464,15,4,15.421,3567.0646148022,115.485568,0.50107456,4.4306759948,0,0,-6.71082,255.3, 2.8, 4.6,0,0,1024,1024,1024,1024,255.1,0,76,3.859,3.877,3.873,3.837,0,0,14.766,73.31,3567.0646148022,115.485568,14,Waypoint,
16600,2021-03-21 09:47:26,40.1849922742574,33.3282398445786,116.46982,,,3568.0488668022,46.916012,0.223694,3.230561127,15,4,15.421,3568.0488668022,116.46982,0.50107456,4.4306759948,0.223694,0,-6.71082,255.3, 2.7, 4.4,0,0,1024,1024,1024,1024,255.1,0,76,3.859,3.877,3.873,3.837,0,0,14.766,73.31,3568.0488668022,116.46982,14,Waypoint,
16700,2021-03-21 09:47:26,40.1849922852608,33.3282397960539,117.125988,,,3568.7050348022,46.916012,0.223694,3.22958671752,15,4,15.361,3568.7050348022,117.125988,0.50107456,4.4306759948,0.223694,0,-6.71082,255.3, 2.6, 4.3,0,0,1024,1024,1024,1024,255.2,0,76,3.851,3.869,3.868,3.834,0,0,14.654,73.31,3568.7050348022,117.125988,14,Waypoint,
16800,2021-03-21 09:47:26,40.1849925034072,33.3282396979848,118.438324,,,3570.0173708022,46.916012,0.223694,3.15824813256,15,4,15.361,3570.0173708022,118.438324,0.50107456,4.4306759948,0.223694,0,-6.71082,255.3, 2.6, 4,0,0,1024,1024,1024,1024,255.2,0,76,3.851,3.869,3.868,3.834,0,0,14.654,73.31,3570.0173708022,118.438324,14,Waypoint,
16900,2021-03-21 09:47:26,40.1849926401549,33.3282396895541,119.75066,,,3571.3297068022,46.916012,0.223694,3.11031177932,15,4,15.361,3571.3297068022,119.75066,0.50107456,4.4306759948,0.223694,0,-6.934514,255.3, 2.7, 3.8,0,0,1024,1024,1024,1024,255.2,0,76,3.851,3.869,3.868,3.834,0,0,14.654,73.31,3571.3297068022,119.75066,14,Waypoint,
17000,2021-03-21 09:47:27,40.1849928233573,33.3282396923068,120.406828,,,3571.9858748022,46.916012,0.223694,3.04523959876,15,4,15.361,3571.9858748022,120.406828,0.50107456,4.4306759948,0.223694,0,-6.71082,255.3, 2.6, 3.6,0,0,1024,1024,1024,1024,255.2,0,76,3.851,3.869,3.868,3.834,0,0,14.654,73.31,3571.9858748022,120.406828,14,Waypoint,
17100,2021-03-21 09:47:27,40.1849929772575,33.3282397282287,121.719164,,,3573.2982108022,46.916012,0.223694,2.9883367098,15,4,15.361,3573.2982108022,121.719164,0.50107456,4.4306759948,0.223694,0,-6.934514,255.3, 2.3, 3.5,0,0,1024,1024,1024,1024,255.2,0,76,3.851,3.869,3.868,3.834,0,0,14.654,73.31,3573.2982108022,121.719164,14,Waypoint,
17200,2021-03-21 09:47:27,40.1849933134392,33.32824003092,122.375332,,,3573.9543788022,46.916012,0.223694,2.8492947106,15,4,15.361,3573.9543788022,122.375332,0.50107456,4.4306759948,0.223694,0,-6.71082,255.3, 2.2, 3.3,0,0,1024,1024,1024,1024,255.2,0,76,3.851,3.869,3.868,3.834,0,0,14.654,73.31,3573.9543788022,122.375332,14,Waypoint,
17300,2021-03-21 09:47:27,40.1849934130104,33.3282400740382,123.359584,,,3574.9386308022,46.916012,0.223694,2.81119431568,15,4,15.361,3574.9386308022,123.359584,0.50107456,4.4306759948,0.223694,0,-6.71082,255.3, 2, 2.9,0,0,1024,1024,1024,1024,255.1,0,76,3.851,3.869,3.868,3.834,0,0,14.654,73.31,3574.9386308022,123.359584,14,Waypoint,
17400,2021-03-21 09:47:27,40.1849935010261,33.3282399887642,124.343836,,,3575.9228828022,46.916012,0.223694,2.78541019412,15,4,15.361,3575.9228828022,124.343836,0.50107456,4.4306759948,0.223694,0,-6.71082,255.3, 1.9, 3.1,0,0,1024,1024,1024,1024,255.1,0,76,3.851,3.869,3.868,3.834,0,0,14.654,73.31,3575.9228828022,124.343836,14,Waypoint,
17500,2021-03-21 09:47:27,40.1849935354661,33.3282399436222,125.328088,,,3576.9071348022,46.916012,0.223694,2.7761975954,15,4,15.361,3576.9071348022,125.328088,0.50107456,4.4306759948,0.223694,0,-6.71082,255.2, 2.1, 3.3,0,0,1024,1024,1024,1024,255.2,0,76,3.851,3.869,3.868,3.834,0,0,14.654,73.31,3576.9071348022,125.328088,14,Waypoint,
17600,2021-03-21 09:47:27,40.1849933394446,33.328239992227,126.31234,,,3577.8913868022,46.916012,0.223694,2.84251649516,15,4,15.361,3577.8913868022,126.31234,0.50107456,4.4306759948,0.223694,0,-6.71082,255.3, 2.2, 3.5,0,0,1024,1024,1024,1024,255.2,0,76,3.851,3.869,3.868,3.834,0,0,14.654,73.31,3577.8913868022,126.31234,14,Waypoint,
17700,2021-03-21 09:47:27,40.1849933169086,33.3282400168464,126.968508,,,3578.5475548022,46.916012,0.223694,2.8489502224,15,4,15.312,3578.5475548022,126.968508,0.50107456,4.4306759948,0.223694,0,-6.71082,255.3, 2.3, 3.7,0,0,1024,1024,1024,1024,255.2,0,75,3.84,3.858,3.865,3.831,0,0,14.526,73.31,3578.5475548022,126.968508,14,Waypoint,
17800,2021-03-21 09:47:27,40.1849933406912,33.3282400061533,128.280844,,,3579.8598908022,46.916012,0.223694,2.84118447412,15,4,15.312,3579.8598908022,128.280844,0.50107456,4.4306759948,0.223694,0,-6.934514,255.3, 2.5, 3.7,0,0,1024,1024,1024,1024,255.2,0,75,3.84,3.858,3.865,3.831,0,0,14.526,73.31,3579.8598908022,128.280844,14,Waypoint,
17900,2021-03-21 09:47:27,40.1849933641481,33.3282399899604,129.265096,,,3580.8441428022,46.916012,0.223694,2.83389444764,15,4,15.312,3580.8441428022,129.265096,0.50107456,4.4306759948,0.223694,0,-6.71082,255.3, 2.7, 3.7,0,0,1024,1024,1024,1024,255.2,0,75,3.84,3.858,3.865,3.831,0,0,14.526,73.31,3580.8441428022,129.265096,14,Waypoint,
18000,2021-03-21 09:47:28,40.1849933919766,33.3282399649115,129.921264,,,3581.5003108022,46.916012,0.223694,2.82564313504,15,4,15.312,3581.5003108022,129.921264,0.50107456,4.4306759948,0.223694,0,-6.71082,255.3, 2.5, 3.5,0,0,1024,1024,1024,1024,255.2,0,75,3.84,3.858,3.865,3.831,0,0,14.526,73.31,3581.5003108022,129.921264,14,Waypoint,
18100,2021-03-21 09:47:28,40.1849934118794,33.3282399892603,131.2336,,,3582.8126468022,46.916012,0.223694,2.81699812164,15,4,15.312,3582.8126468022,131.2336,0.50107456,4.4306759948,0.223694,0,-6.71082,255.3, 2.4, 3.4,0,0,1024,1024,1024,1024,255.1,0,75,3.84,3.858,3.865,3.831,0,0,14.526,73.31,3582.8126468022,131.2336,14,Waypoint,
18200,2021-03-21 09:47:28,40.184993405842,33.3282400927222,132.217852,,,3583.7968988022,46.916012,0.223694,2.81257883016,15,4,15.312,3583.7968988022,132.217852,0.50107456,4.4306759948,0.223694,0,-6.71082,255.3, 2.3, 3.6,0,0,1024,1024,1024,1024,255.2,0,75,3.84,3.858,3.865,3.831,0,0,14.526,73.31,3583.7968988022,132.217852,14,Waypoint,
18300,2021-03-21 09:47:28,40.184993394929,33.3282401779494,132.87402,,,3584.4530668022,46.916012,0,2.811269775,15,4,15.312,3584.4530668022,132.87402,0.50107456,4.4306759948,0,0,-6.71082,255.3, 2, 3.7,0,0,1024,1024,1024,1024,255.1,0,75,3.84,3.858,3.865,3.831,0,0,14.526,73.31,3584.4530668022,132.87402,14,Waypoint,
