time(millisecond),datetime(utc),latitude,longitude,height_above_takeoff(feet),height_above_ground_at_drone_location(feet),ground_elevation_at_drone_location(feet),altitude_above_seaLevel(feet),height_sonar(feet),speed(mph),distance(feet),satellites,gpslevel,voltage(v),max_altitude(feet),max_ascent(feet),max_speed(mph),max_distance(feet), xSpeed(mph), ySpeed(mph), zSpeed(mph), compass_heading(degrees), pitch(degrees), roll(degrees),isPhoto,isVideo,rc_elevator,rc_aileron,rc_throttle,rc_rudder,gimbal_heading(degrees),gimbal_pitch(degrees),battery_percent,voltageCell1,voltageCell2,voltageCell3,voltageCell4,voltageCell5,voltageCell6,current(A),battery_temperature(f),altitude(feet),ascent(feet),flycStateRaw,flycState,message
0,,40.1849400659701,33.3283017684432,0,Available with any HD 360 subscription,Available with any HD 360 subscription,3452.211826022,0.328084,0,0,8,4,0,3452.211826022,0,0,0,0,0,0,149.3, 0.5, -0.2,0,0,1024,1024,1024,1024,149.1,0,98,4.12,4.134,4.135,4.134,0,0,0,62.51,3452.211826022,0,41,Motors_Started,
100,,40.1849400063569,33.3283017815696,0,,,3452.211826022,0.328084,0,0.0220554469,8,4,0,3452.211826022,0,0,0.0220554469,0,0,0,149.1, 0.5, -0.2,0,0,1024,1024,1024,1024,149.1,0,98,4.12,4.134,4.135,4.134,0,0,0,62.51,3452.211826022,0,41,Motors_Started,
200,,40.1849399496284,33.3283018050076,0,,,3452.211826022,0.328084,0,0.043653544704,8,4,16.33,3452.211826022,0,0,0.043653544704,0,0,0,149, 0.5, -0.2,0,0,1024,1024,1024,1024,149.1,0,98,4.12,4.134,4.135,4.134,0,0,1.41,62.51,3452.211826022,0,41,Motors_Started,Setting new Return-To-Home altitude to 150m (492 ft). Data Recorder File Index is 373. Setting new Maximum Flight Altitude to 500m (1640 ft)
300,,40.1849398929488,33.3283018542311,0,,,3452.211826022,0.328084,0,0.067503939168,8,4,16.33,3452.211826022,0,0,0.067503939168,0,0,0,149.3, 0.5, -0.2,0,0,1024,1024,1024,1024,149.1,0,98,4.12,4.134,4.135,4.134,0,0,1.41,62.51,3452.211826022,0,41,Motors_Started,
400,,40.1849397127631,33.3283019563066,0,,,3452.211826022,0.328084,0,0.139099741984,8,4,16.33,3452.211826022,0,0,0.139099741984,0,0,0,149.5, 0.5, -0.1,0,0,1024,1024,1024,1024,149.1,0,98,4.12,4.134,4.135,4.134,0,0,1.41,62.51,3452.211826022,0,41,Motors_Started,
500,2021-04-13 09:06:06,40.1849396591319,33.3283020193125,0,,,3452.211826022,0.328084,0,0.164080385828,8,4,16.33,3452.211826022,0,0,0.164080385828,0,0,0,149.4, 0.5, -0.1,0,0,1024,1024,1024,1024,149.1,0,98,4.12,4.134,4.135,4.134,0,0,1.41,62.51,3452.211826022,0,41,Motors_Started,
600,2021-04-13 09:06:06,40.1849396083464,33.3283020609636,0,,,3452.211826022,0.328084,0,0.18580873298,8,4,16.33,3452.211826022,0,0,0.18580873298,0,0,0,149, 0.5, -0.2,0,0,1024,1024,1024,1024,149.1,0,98,4.12,4.134,4.135,4.134,0,0,1.41,62.51,3452.211826022,0,41,Motors_Started,
700,2021-04-13 09:06:06,40.1849395574299,33.3283020743494,0,,,3452.211826022,0.328084,0,0.204194888424,8,4,16.33,3452.211826022,0,0,0.204194888424,0,0,0,149.1, 0.5, -0.2,0,0,1024,1024,1024,1024,149.1,0,98,4.12,4.134,4.135,4.134,0,0,1.41,62.51,3452.211826022,0,41,Motors_Started,
800,2021-04-13 09:06:06,40.1849395299596,33.3283020801032,0,,,3452.211826022,0.328084,0,0.213988851992,8,4,16.33,3452.211826022,0,0,0.213988851992,0,0,0,149.3, 0.4, -0.2,0,0,1024,1024,1024,1024,149.1,0,98,4.12,4.134,4.135,4.134,0,0,1.41,62.51,3452.211826022,0,41,Motors_Started,
900,2021-04-13 09:06:06,40.184939599539,33.328301954006,0,,,3452.211826022,0.328084,0,0.177863522752,8,4,16.33,3452.211826022,0,0,0.213988851992,0,0,0,149.3, 0.5, -0.2,0,0,1024,1024,1024,1024,149.1,0,98,4.12,4.134,4.135,4.134,0,0,1.41,62.51,3452.211826022,0,41,Motors_Started,
1000,2021-04-13 09:06:06,40.1849396132855,33.3283019455837,0,,,3452.211826022,0.328084,0,0.172384191868,8,4,16.33,3452.211826022,0,0,0.213988851992,0,0,0,149.2, 0.5, -0.1,0,0,1024,1024,1024,1024,149.1,0,98,4.12,4.134,4.135,4.134,0,0,1.41,62.51,3452.211826022,0,41,Motors_Started,
1100,2021-04-13 09:06:06,40.1849396359363,33.3283019380128,0,,,3452.211826022,0.328084,0,0.163862209968,8,4,16.33,3452.211826022,0,0,0.213988851992,0,0,0,149.1, 0.5, -0.1,0,0,1024,1024,1024,1024,149.1,0,98,4.12,4.134,4.135,4.134,0,0,1.41,62.51,3452.211826022,0,41,Motors_Started,
1200,2021-04-13 09:06:06,40.1849396594047,33.3283019289003,0,,,3452.211826022,0.328084,0,0.15493110732,8,4,16.511,3452.211826022,0,0,0.213988851992,0,0,0,149.1, 0.4, -0.2,0,0,1024,1024,1024,1024,149.1,0,98,3.981,4.001,3.999,3.993,0,0,4.168,62.51,3452.211826022,0,41,Motors_Started,
1300,2021-04-13 09:06:06,40.1849397800219,33.3283018423422,0,,,3452.211826022,0.328084,0,0.10634186692,8,4,16.511,3452.211826022,0,0,0.213988851992,0,0,0,149.2, 0.5, -0.1,0,0,1024,1024,1024,1024,149.1,0,98,3.981,4.001,3.999,3.993,0,0,4.168,62.51,3452.211826022,0,41,Motors_Started,
1400,2021-04-13 09:06:07,40.1849397997782,33.3283018566774,0,,,3452.211826022,0.328084,0,0.100185698744,8,4,16.511,3452.211826022,0,0,0.213988851992,0,0,0,149.1, 0.5, -0.2,0,0,1024,1024,1024,1024,149.1,0,98,3.981,4.001,3.999,3.993,0,0,4.168,62.51,3452.211826022,0,41,Motors_Started,
1500,2021-04-13 09:06:07,40.1849398166342,33.3283019070929,0,,,3452.211826022,0.328084,0,0.09883858584,8,4,16.511,3452.211826022,0,0,0.213988851992,0,0,0,149.1, 0.5, -0.2,0,0,1024,1024,1024,1024,149.1,0,98,3.981,4.001,3.999,3.993,0,0,4.168,62.51,3452.211826022,0,11,AutoTakeoff,
1600,2021-04-13 09:06:07,40.1849398315581,33.3283019450385,0,,,3452.211826022,0.328084,0,0.098678480848,8,4,16.511,3452.211826022,0,0,0.213988851992,0,0,0,149, 0.5, -0.2,0,0,1024,1024,1024,1024,149.1,0,98,3.981,4.001,3.999,3.993,0,0,4.168,62.51,3452.211826022,0,11,AutoTakeoff,
1700,2021-04-13 09:06:07,40.1849398600509,33.328302015061,0,,,3452.211826022,0.328084,0,0.101831696172,8,4,16.511,3452.211826022,0,0,0.213988851992,0,0,0,149.1, 0.5, -0.2,0,0,1024,1024,1024,1024,149.1,0,98,3.981,4.001,3.999,3.993,0,0,4.168,62.51,3452.211826022,0,11,AutoTakeoff,
1800,2021-04-13 09:06:07,40.1849398720428,33.3283020276577,0,,,3452.211826022,0.328084,0,0.101125987488,8,4,16.511,3452.211826022,0,0,0.213988851992,0,0,0,149, 0.5, -0.1,0,0,1024,1024,1024,1024,149.1,0,98,3.981,4.001,3.999,3.993,0,0,4.168,62.51,3452.211826022,0,11,AutoTakeoff,
1900,2021-04-13 09:06:07,40.1849398816628,33.3283020320941,0,,,3452.211826022,0.328084,0,0.099610895576,8,4,16.511,3452.211826022,0,0,0.213988851992,0,0,0,149, 0.4, -0.2,0,0,1024,1024,1024,1024,149.1,0,98,3.981,4.001,3.999,3.993,0,0,4.168,62.51,3452.211826022,0,11,AutoTakeoff,
2000,2021-04-13 09:06:07,40.1849398727048,33.3283020351571,0,,,3452.211826022,0.328084,0,0.102463585956,8,4,16.511,3452.211826022,0,0,0.213988851992,0,0,0,149, 0.5, -0.1,0,0,1024,1024,1024,1024,149.1,0,98,3.981,4.001,3.999,3.993,0,0,4.168,62.51,3452.211826022,0,11,AutoTakeoff,
2100,2021-04-13 09:06:07,40.1849397228488,33.3283019735521,0,,,3452.211826022,0.656168,0,0.137624020152,8,4,16.511,3452.211826022,0,0,0.213988851992,0,0,0,149, 0.4, -0.2,0,0,1024,1024,1024,1024,149.1,0,98,3.981,4.001,3.999,3.993,0,0,4.168,62.51,3452.211826022,0,11,AutoTakeoff,
2200,2021-04-13 09:06:07,40.1849397022051,33.3283019955998,0,,,3452.211826022,0.328084,0,0.14704888922,8,4,15.331,3452.211826022,0,0,0.213988851992,0,0,0,148.8, -0.4, -0.2,0,0,1024,1024,1024,1024,149.1,0,98,3.951,3.958,3.942,3.929,0,0,4.168,62.51,3452.211826022,0,11,AutoTakeoff,
2300,2021-04-13 09:06:07,40.1849397225744,33.3283020652214,0,,,3452.211826022,0.328084,0,0.15013287882,8,4,15.331,3452.211826022,0,0,0.213988851992,0,0,0,148.2, -2.4, -0.5,0,0,1024,1024,1024,1024,149.1,0,98,3.951,3.958,3.942,3.929,0,0,4.168,62.51,3452.211826022,0,11,AutoTakeoff,
2400,2021-04-13 09:06:08,40.1849396888233,33.3283021551697,0,,,3452.211826022,0.328084,0,0.174795937352,8,4,15.331,3452.211826022,0,0,0.213988851992,0,0,-0.223694,147.1, -4.1, -0.9,0,0,1024,1024,1024,1024,149.1,0,98,3.951,3.958,3.942,3.929,0,0,4.168,62.51,3452.211826022,0,11,AutoTakeoff,
2500,2021-04-13 09:06:08,40.1849395504561,33.3283022930738,0,,,3452.211826022,0.656168,0.31540854,0.238242789776,8,4,15.331,3452.211826022,0,0.31540854,0.238242789776,-0.223694,0.223694,-0.671082,147, -2.2, -0.4,0,0,1024,1024,1024,1024,149,0,98,3.951,3.958,3.942,3.929,0,0,4.168,62.51,3452.211826022,0,11,AutoTakeoff,
2600,2021-04-13 09:06:08,40.1849393734743,33.328302520435,0.328084,,,3452.539910022,0.656168,0.31540854,0.32828413124,8,4,15.331,3452.539910022,0.328084,0.31540854,0.32828413124,-0.223694,0.223694,-0.894776,146.9, 1.3, 0.5,0,0,1024,1024,1024,1024,149,0,98,3.951,3.958,3.942,3.929,0,0,4.168,62.51,3452.539910022,0.328084,11,AutoTakeoff,
2700,2021-04-13 09:06:08,40.184939206251,33.3283027269686,0.328084,,,3452.539910022,0.984252,0.31540854,0.41203085308,8,4,15.331,3452.539910022,0.328084,0.31540854,0.41203085308,-0.223694,0.223694,-1.11847,146.9, 2.5, 0.2,0,0,1024,1024,1024,1024,148.9,0,98,3.951,3.958,3.942,3.929,0,0,4.168,62.51,3452.539910022,0.328084,11,AutoTakeoff,
2800,2021-04-13 09:06:08,40.1849390605322,33.3283029110577,0.656168,,,3452.867994022,1.312336,0.31540854,0.48579725964,8,4,15.331,3452.867994022,0.656168,0.31540854,0.48579725964,-0.223694,0.223694,-1.342164,146.8, 2.3, 0,0,0,1024,1024,1024,1024,148.8,0,98,3.951,3.958,3.942,3.929,0,0,4.168,62.51,3452.867994022,0.656168,11,AutoTakeoff,
2900,2021-04-13 09:06:08,40.1849389198004,33.3283031068011,0.656168,,,3452.867994022,1.312336,0.223694,0.56038715704,8,4,15.331,3452.867994022,0.656168,0.31540854,0.56038715704,0,0.223694,-1.11847,146.7, 1.7, 0.4,0,0,1024,1024,1024,1024,148.7,0,98,3.951,3.958,3.942,3.929,0,0,4.168,62.51,3452.867994022,0.656168,11,AutoTakeoff,
3000,2021-04-13 09:06:08,40.1849388321706,33.3283034286956,0.984252,,,3453.196078022,1.312336,0,0.64559057184,8,4,15.331,3453.196078022,0.984252,0.31540854,0.64559057184,0,0,-1.11847,146.7, 1.5, 0.9,0,0,1024,1024,1024,1024,148.7,0,98,3.951,3.958,3.942,3.929,0,0,4.168,62.51,3453.196078022,0.984252,11,AutoTakeoff,
3100,2021-04-13 09:06:08,40.1849387322354,33.3283035766786,0.984252,,,3453.196078022,1.64042,0,0.70058729276,8,4,15.331,3453.196078022,0.984252,0.31540854,0.70058729276,0,0,-1.11847,146.7, 1.2, 1.4,0,0,1024,1024,1024,1024,148.6,0,98,3.951,3.958,3.942,3.929,0,0,4.168,62.51,3453.196078022,0.984252,11,AutoTakeoff,
3200,2021-04-13 09:06:08,40.1849386533161,33.3283036445001,1.312336,,,3453.524162022,1.64042,0,0.73422574528,8,4,15.777,3453.524162022,1.312336,0.31540854,0.73422574528,0,0,-0.894776,146.7, 0.9, 1.4,0,0,1024,1024,1024,1024,148.6,0,98,3.951,3.958,3.942,3.929,0,0,3.864,62.51,3453.524162022,1.312336,11,AutoTakeoff,
3300,2021-04-13 09:06:08,40.1849385952369,33.3283036188113,1.312336,,,3453.524162022,1.968504,0,0.74427167736,8,4,15.777,3453.524162022,1.312336,0.31540854,0.74427167736,0,0,-0.894776,146.8, 0.8, 0.9,0,0,1024,1024,1024,1024,148.5,0,98,3.951,3.958,3.942,3.929,0,0,3.864,62.51,3453.524162022,1.312336,11,AutoTakeoff,
3400,2021-04-13 09:06:09,40.1849386104066,33.3283033942033,1.64042,,,3453.852246022,1.968504,0,0.69812010108,8,4,15.777,3453.852246022,1.64042,0.31540854,0.74427167736,0,0,-0.894776,146.8, 0.4, 1.1,0,0,1024,1024,1024,1024,148.5,0,98,3.951,3.958,3.942,3.929,0,0,3.864,62.51,3453.852246022,1.64042,11,AutoTakeoff,
3500,2021-04-13 09:06:09,40.1849385523135,33.3283033218193,1.64042,,,3453.852246022,2.296588,0,0.70175199096,8,4,15.777,3453.852246022,1.64042,0.31540854,0.74427167736,0,0,-0.894776,146.9, 0.2, 1.3,0,0,1024,1024,1024,1024,148.4,0,98,3.951,3.958,3.942,3.929,0,0,3.864,62.51,3453.852246022,1.64042,11,AutoTakeoff,
3600,2021-04-13 09:06:09,40.1849384074415,33.3283032613663,1.968504,,,3454.180330022,2.296588,0,0.73438650644,8,4,15.777,3454.180330022,1.968504,0.31540854,0.74427167736,0,0,-0.894776,147, 0.2, 0.6,0,0,1024,1024,1024,1024,148.4,0,98,3.951,3.958,3.942,3.929,0,0,3.864,62.51,3454.180330022,1.968504,11,AutoTakeoff,
3700,2021-04-13 09:06:09,40.1849381216528,33.3283032348205,1.968504,,,3454.180330022,2.624672,0.223694,0.81870737528,8,4,15.777,3454.180330022,1.968504,0.31540854,0.81870737528,0,-0.223694,-0.894776,147.1, -0.2, -0.1,0,0,1024,1024,1024,1024,148.4,0,98,3.951,3.958,3.942,3.929,0,0,3.864,62.51,3454.180330022,1.968504,11,AutoTakeoff,
3800,2021-04-13 09:06:09,40.1849376461186,33.328302943253,1.968504,,,3454.180330022,2.624672,0.31540854,0.9416502926,8,4,15.777,3454.180330022,1.968504,0.31540854,0.9416502926,-0.223694,-0.223694,-0.894776,147.2, -0.8, -0.8,0,0,1024,1024,1024,1024,148.3,0,98,3.951,3.958,3.942,3.929,0,0,3.864,62.51,3454.180330022,1.968504,11,AutoTakeoff,
3900,2021-04-13 09:06:09,40.184937579582,33.3283027706687,2.296588,,,3454.508414022,2.624672,0.447388,0.9491962246,8,4,15.777,3454.508414022,2.296588,0.447388,0.9491962246,-0.447388,0,-0.894776,147.3, 0, -1.9,0,0,1024,1024,1024,1024,148.3,0,98,3.951,3.958,3.942,3.929,0,0,3.864,62.51,3454.508414022,2.296588,11,AutoTakeoff,
4000,2021-04-13 09:06:09,40.1849374708647,33.3283027061479,2.296588,,,3454.508414022,2.952756,0.223694,0.9822342834,8,4,15.777,3454.508414022,2.296588,0.447388,0.9822342834,-0.223694,0,-0.894776,147.5, 0.7, -2.5,0,0,1024,1024,1024,1024,148.3,0,98,3.951,3.958,3.942,3.929,0,0,3.864,62.51,3454.508414022,2.296588,11,AutoTakeoff,
4100,2021-04-13 09:06:09,40.1849372939819,33.3283027852528,2.624672,,,3454.836498022,2.952756,0.223694,1.05031827508,8,4,15.777,3454.836498022,2.624672,0.447388,1.05031827508,-0.223694,0,-0.894776,147.6, 0.8, -2.8,0,0,1024,1024,1024,1024,148.3,0,98,3.951,3.958,3.942,3.929,0,0,3.864,62.51,3454.836498022,2.624672,11,AutoTakeoff,
4200,2021-04-13 09:06:09,40.1849371605317,33.3283028481472,2.624672,,,3454.836498022,3.28084,0,1.10193901164,8,4,14.706,3454.836498022,2.624672,0.447388,1.10193901164,0,0,-1.11847,147.5, 1.4, -3.2,0,0,1024,1024,1024,1024,148.3,0,98,3.951,3.958,3.942,3.929,0,0,3.864,62.51,3454.836498022,2.624672,11,AutoTakeoff,
4300,2021-04-13 09:06:09,40.1849368914737,33.3283029447022,2.952756,,,3455.164582022,3.608924,0,1.2037237918,8,4,14.706,3455.164582022,2.952756,0.447388,1.2037237918,0,0,-1.11847,147.3, 1.4, -2.2,0,0,1024,1024,1024,1024,148.3,0,98,3.951,3.958,3.942,3.929,0,0,3.864,62.51,3455.164582022,2.952756,11,AutoTakeoff,
4400,2021-04-13 09:06:10,40.1849369075953,33.3283030674785,3.28084,,,3455.492666022,3.608924,0.31540854,1.20787733524,8,4,14.706,3455.492666022,3.28084,0.447388,1.20787733524,0.223694,0.223694,-1.11847,147.5, 1.5, 0.3,0,0,1024,1024,1024,1024,148.3,0,98,3.951,3.958,3.942,3.929,0,0,3.864,62.51,3455.492666022,3.28084,14,Waypoint,
4500,2021-04-13 09:06:10,40.184937024027,33.3283032595233,3.28084,,,3455.492666022,3.937008,0.31540854,1.18511814816,8,4,14.706,3455.492666022,3.28084,0.447388,1.20787733524,0.223694,0.223694,-1.11847,147.5, 1, 1.3,0,0,1024,1024,1024,1024,148.3,0,98,3.951,3.958,3.942,3.929,0,0,3.864,62.51,3455.492666022,3.28084,14,Waypoint,
4600,2021-04-13 09:06:10,40.184937116411,33.3283034217736,3.608924,,,3455.820750022,3.937008,0.31540854,1.17066604796,8,4,14.706,3455.820750022,3.608924,0.447388,1.20787733524,0.223694,0.223694,-1.11847,147.4, 0.3, 1.7,0,0,1024,1024,1024,1024,148.3,0,98,3.951,3.958,3.942,3.929,0,0,3.864,62.51,3455.820750022,3.608924,14,Waypoint,
4700,2021-04-13 09:06:10,40.1849371202981,33.3283036810077,3.608924,,,3455.820750022,4.265092,0.223694,1.19967851608,8,4,14.706,3455.820750022,3.608924,0.447388,1.20787733524,0.223694,0,-1.11847,147.3, 0, 2.4,0,0,1024,1024,1024,1024,148.2,0,98,3.951,3.958,3.942,3.929,0,0,3.864,62.51,3455.820750022,3.608924,14,Waypoint,
4800,2021-04-13 09:06:10,40.1849372237019,33.3283037758045,3.937008,,,3456.148834022,4.265092,0.223694,1.17831696684,8,4,14.706,3456.148834022,3.937008,0.447388,1.20787733524,0.223694,0,-1.11847,147, -0.6, 4.1,0,0,1024,1024,1024,1024,148.2,0,98,3.951,3.958,3.942,3.929,0,0,3.864,62.51,3456.148834022,3.937008,14,Waypoint,
4900,2021-04-13 09:06:10,40.184937414308,33.3283038126009,3.937008,,,3456.148834022,4.593176,0,1.12277234564,8,4,14.706,3456.148834022,3.937008,0.447388,1.20787733524,0,0,-1.11847,146.9, -0.5, 4.1,0,0,1024,1024,1024,1024,148.2,0,98,3.951,3.958,3.942,3.929,0,0,3.864,62.51,3456.148834022,3.937008,14,Waypoint,
5000,2021-04-13 09:06:10,40.1849375236307,33.3283037668034,4.265092,,,3456.476918022,4.593176,0.223694,1.08196525772,8,4,14.706,3456.476918022,4.265092,0.447388,1.20787733524,0,-0.223694,-1.11847,146.8, -1.1, 2.7,0,0,1024,1024,1024,1024,148.2,0,98,3.951,3.958,3.942,3.929,0,0,3.864,62.51,3456.476918022,4.265092,14,Waypoint,
5100,2021-04-13 09:06:10,40.1849375906709,33.3283036686164,4.265092,,,3456.476918022,4.92126,0.223694,1.04696197576,8,4,14.706,3456.476918022,4.265092,0.447388,1.20787733524,0,-0.223694,-1.342164,146.8, -2, 0.9,0,0,1024,1024,1024,1024,148.2,0,98,3.951,3.958,3.942,3.929,0,0,3.864,62.51,3456.476918022,4.265092,14,Waypoint,
5200,2021-04-13 09:06:10,40.1849375480428,33.3283035182291,4.593176,,,3456.805002022,5.249344,0.223694,1.04010502016,8,4,14.493,3456.805002022,4.593176,0.447388,1.20787733524,0,-0.223694,-1.789552,146.9, -1.7, -0.3,0,0,1024,1024,1024,1024,148.1,0,98,3.685,3.72,3.711,3.708,0,0,13.104,62.51,3456.805002022,4.593176,14,Waypoint,
5300,2021-04-13 09:06:10,40.1849374525504,33.3283033113529,4.92126,,,3457.133086022,5.577428,0.447388,1.04600397048,8,4,14.493,3457.133086022,4.92126,0.447388,1.20787733524,0,-0.447388,-2.460634,147.3, -1.5, -0.8,0,0,1024,1024,1024,1024,148.1,0,98,3.685,3.72,3.711,3.708,0,0,13.104,62.51,3457.133086022,4.92126,14,Waypoint,
5400,2021-04-13 09:06:11,40.1849373816223,33.3283030794894,5.249344,,,3457.461170022,5.905512,0.223694,1.04533795996,8,4,14.493,3457.461170022,5.249344,0.447388,1.20787733524,0,-0.223694,-3.131716,147.5, -1.5, -3,0,0,1024,1024,1024,1024,148.1,0,98,3.685,3.72,3.711,3.708,0,0,13.104,62.51,3457.461170022,5.249344,14,Waypoint,
5500,2021-04-13 09:06:11,40.1849373303059,33.328302447817,5.905512,,,3458.117338022,6.233596,0,1.01590882516,8,4,14.493,3458.117338022,5.905512,0.447388,1.20787733524,0,0,-3.802798,147.7, -2.1, -3.1,0,0,1024,1024,1024,1024,148.1,0,98,3.685,3.72,3.711,3.708,0,0,13.104,62.51,3458.117338022,5.905512,14,Waypoint,
5600,2021-04-13 09:06:11,40.1849372903907,33.3283023500469,6.56168,,,3458.773506022,6.889764,0,1.02556105644,8,4,14.493,3458.773506022,6.56168,0.447388,1.20787733524,0,0,-4.697574,147.8, -1.5, -0.7,0,0,1024,1024,1024,1024,148.1,0,98,3.685,3.72,3.711,3.708,0,0,13.104,62.51,3458.773506022,6.56168,14,Waypoint,
5700,2021-04-13 09:06:11,40.1849371230641,33.3283023928684,7.217848,,,3459.429674022,7.874016,0.223694,1.08773297444,8,4,14.493,3459.429674022,7.217848,0.447388,1.20787733524,0.223694,0,-5.368656,147.6, -0.8, 1,0,0,1024,1024,1024,1024,148.1,0,98,3.685,3.72,3.711,3.708,0,0,13.104,62.51,3459.429674022,7.217848,14,Waypoint,
5800,2021-04-13 09:06:11,40.1849370139563,33.3283024422741,7.874016,,,3460.085842022,8.530184,0.447388,1.12925528548,8,4,14.493,3460.085842022,7.874016,0.447388,1.20787733524,0.447388,0,-6.039738,147.5, -1, 0.3,0,0,1024,1024,1024,1024,148.1,0,98,3.685,3.72,3.711,3.708,0,0,13.104,62.51,3460.085842022,7.874016,14,Waypoint,
5900,2021-04-13 09:06:11,40.1849370066136,33.3283025120232,8.858268,,,3461.070094022,9.514436,0.92161928,1.13528218856,8,4,14.493,3461.070094022,8.858268,0.92161928,1.20787733524,0.894776,0.223694,-6.487126,147.4, -1.9, 0.2,0,0,1024,1024,1024,1024,148.1,0,98,3.685,3.72,3.711,3.708,0,0,13.104,62.51,3461.070094022,8.858268,14,Waypoint,
6000,2021-04-13 09:06:11,40.1849370659639,33.3283028234513,9.84252,,,3462.054346022,10.498688,0.92161928,1.13336289716,8,4,14.493,3462.054346022,9.84252,0.92161928,1.20787733524,0.894776,0.223694,-6.934514,147.4, -2.7, 1.3,0,0,1024,1024,1024,1024,148.1,0,98,3.685,3.72,3.711,3.708,0,0,13.104,62.51,3462.054346022,9.84252,14,Waypoint,
6100,2021-04-13 09:06:11,40.1849373472112,33.328302990478,11.154856,,,3463.366682022,11.48294,0.92161928,1.04879268448,8,4,14.493,3463.366682022,11.154856,0.92161928,1.20787733524,0.894776,0.223694,-7.158208,147.4, -3.5, 3.6,0,0,1024,1024,1024,1024,148.1,0,98,3.685,3.72,3.711,3.708,0,0,13.104,62.51,3463.366682022,11.154856,14,Waypoint,
6200,2021-04-13 09:06:11,40.1849375362805,33.3283031269988,12.139108,,,3464.350934022,12.795276,0.92161928,0.99761814216,8,4,14.774,3464.350934022,12.139108,0.92161928,1.20787733524,0.894776,0.223694,-7.381902,147.3, -3.6, 4.5,0,0,1024,1024,1024,1024,148.1,0,98,3.656,3.724,3.68,3.679,0,0,13.096,62.51,3464.350934022,12.139108,14,Waypoint,
6300,2021-04-13 09:06:11,40.1849375782256,33.3283032112479,13.12336,,,3465.335186022,13.779528,0.70687304,0.99275593728,8,4,14.774,3465.335186022,13.12336,0.92161928,1.20787733524,0.671082,0.223694,-7.381902,147.3, -3.5, 3.4,0,0,1024,1024,1024,1024,148.1,0,98,3.656,3.724,3.68,3.679,0,0,13.096,62.51,3465.335186022,13.12336,14,Waypoint,
6400,2021-04-13 09:06:12,40.1849376492269,33.3283033366976,14.435696,,,3466.647522022,14.76378,0.671082,0.9841535748,8,4,14.774,3466.647522022,14.435696,0.92161928,1.20787733524,0.671082,0,-7.381902,147.3, -3.9, 3.9,0,0,1024,1024,1024,1024,148.1,0,98,3.656,3.724,3.68,3.679,0,0,13.096,62.51,3466.647522022,14.435696,14,Waypoint,
6500,2021-04-13 09:06:12,40.1849376417715,33.3283032715019,15.748032,,,3467.959858022,16.076116,0.447388,0.978674572,8,4,14.774,3467.959858022,15.748032,0.92161928,1.20787733524,0.447388,0,-7.381902,147.4, -3.9, 3.9,0,0,1024,1024,1024,1024,148.1,0,98,3.656,3.724,3.68,3.679,0,0,13.096,62.51,3467.959858022,15.748032,14,Waypoint,
6600,2021-04-13 09:06:12,40.1849375692451,33.3283031812411,16.732284,,,3468.944110022,17.060368,0.223694,0.99240160656,8,4,14.774,3468.944110022,16.732284,0.92161928,1.20787733524,0.223694,0,-7.381902,147.5, -3.5, 3.2,0,0,1024,1024,1024,1024,148.1,0,98,3.656,3.724,3.68,3.679,0,0,13.096,62.51,3468.944110022,16.732284,14,Waypoint,
6700,2021-04-13 09:06:12,40.1849374044486,33.3283030632852,17.716536,,,3469.928362022,18.04462,0.223694,1.0359580384,8,4,14.774,3469.928362022,17.716536,0.92161928,1.20787733524,0.223694,0,-7.158208,147.6, -2.9, 2.6,0,0,1024,1024,1024,1024,148.1,0,98,3.656,3.724,3.68,3.679,0,0,13.096,62.51,3469.928362022,17.716536,14,Waypoint,
6800,2021-04-13 09:06:12,40.1849368798303,33.3283026620195,19.028872,,,3471.240698022,19.028872,0,1.1888451824,8,4,14.774,3471.240698022,19.028872,0.92161928,1.20787733524,0,0,-7.158208,147.6, -2.6, 2.1,0,0,1024,1024,1024,1024,148.1,0,98,3.656,3.724,3.68,3.679,0,0,13.096,62.51,3471.240698022,19.028872,14,Waypoint,
6900,2021-04-13 09:06:12,40.1849366190513,33.3283024592469,20.013124,,,3472.224950022,20.341208,0,1.2722605394,8,4,14.774,3472.224950022,20.013124,0.92161928,1.2722605394,0,0,-7.158208,147.6, -2.7, 1.5,0,0,1024,1024,1024,1024,148.1,0,98,3.656,3.724,3.68,3.679,0,0,13.096,62.51,3472.224950022,20.013124,14,Waypoint,
7000,2021-04-13 09:06:12,40.1849364368333,33.3283022650522,21.32546,,,3473.537286022,21.32546,0.223694,1.33130253604,8,4,14.774,3473.537286022,21.32546,0.92161928,1.33130253604,0.223694,0,-6.934514,147.6, -2.9, 1.3,0,0,1024,1024,1024,1024,148.1,0,98,3.656,3.724,3.68,3.679,0,0,13.096,62.51,3473.537286022,21.32546,14,Waypoint,
7100,2021-04-13 09:06:12,40.184936366881,33.3283020659327,22.309712,,,3474.521538022,22.309712,0,1.35215555508,8,4,14.774,3474.521538022,22.309712,0.92161928,1.35215555508,0,0,-6.71082,147.6, -2.6, 1.3,0,0,1024,1024,1024,1024,148.1,0,98,3.656,3.724,3.68,3.679,0,0,13.096,62.51,3474.521538022,22.309712,14,Waypoint,
7200,2021-04-13 09:06:12,40.1849360585144,33.3283014494519,23.293964,,,3475.505790022,23.293964,0,1.46481960068,8,4,13.917,3475.505790022,23.293964,0.92161928,1.46481960068,0,0,-6.71082,147.5, -2.8, 0.8,0,0,1024,1024,1024,1024,148,0,98,3.5,3.551,3.545,3.543,0,0,20.668,62.51,3475.505790022,23.293964,14,Waypoint,
7300,2021-04-13 09:06:12,40.1849359160003,33.3283012054752,24.278216,,,3476.490042022,24.278216,0,1.52222445816,8,4,13.917,3476.490042022,24.278216,0.92161928,1.52222445816,0,0,-6.71082,147.4, -3, 0,0,0,1024,1024,1024,1024,148,0,98,3.5,3.551,3.545,3.543,0,0,20.668,62.51,3476.490042022,24.278216,14,Waypoint,
7400,2021-04-13 09:06:13,40.1849358125013,33.3283010079035,25.262468,,,3477.474294022,25.262468,0,1.56628613936,8,4,13.917,3477.474294022,25.262468,0.92161928,1.56628613936,0,0,-6.487126,147.5, -3.1, -0.2,0,0,1024,1024,1024,1024,148,0,98,3.5,3.551,3.545,3.543,0,0,20.668,62.51,3477.474294022,25.262468,14,Waypoint,
7500,2021-04-13 09:06:13,40.1849357620855,33.328300861219,26.24672,,,3478.458546022,26.24672,0,1.5905020194,8,4,13.917,3478.458546022,26.24672,0.92161928,1.5905020194,0,0,-6.487126,147.5, -3, -0.5,0,0,1024,1024,1024,1024,148,0,98,3.5,3.551,3.545,3.543,0,0,20.668,62.51,3478.458546022,26.24672,14,Waypoint,
7600,2021-04-13 09:06:13,40.1849356830941,33.3283007576173,27.230972,,,3479.442798022,27.230972,0,1.6237205244,8,4,13.917,3479.442798022,27.230972,0.92161928,1.6237205244,0,0,-6.487126,147.5, -2.7, 0,0,0,1024,1024,1024,1024,148,0,98,3.5,3.551,3.545,3.543,0,0,20.668,62.51,3479.442798022,27.230972,14,Waypoint,
7700,2021-04-13 09:06:13,40.1849353555652,33.3283005372216,28.215224,,,3480.427050022,28.215224,0,1.75251974112,8,4,13.917,3480.427050022,28.215224,0.92161928,1.75251974112,0,0,-6.487126,147.4, -2.1, 0.3,0,0,1024,1024,1024,1024,148,0,98,3.5,3.551,3.545,3.543,0,0,20.668,62.51,3480.427050022,28.215224,14,Waypoint,
7800,2021-04-13 09:06:13,40.184935247649,33.3283005273136,29.199476,,,3481.411302022,29.199476,0,1.79167656652,8,4,13.917,3481.411302022,29.199476,0.92161928,1.79167656652,0,0,-6.487126,147.5, -1.8, 0.4,0,0,1024,1024,1024,1024,148,0,98,3.5,3.551,3.545,3.543,0,0,20.668,62.51,3481.411302022,29.199476,14,Waypoint,
7900,2021-04-13 09:06:13,40.1849352207361,33.3283006253234,30.183728,,,3482.395554022,30.183728,0,1.79626646168,8,4,13.917,3482.395554022,30.183728,0.92161928,1.79626646168,0,0,-6.487126,147.5, -1.8, 0.5,0,0,1024,1024,1024,1024,148,0,98,3.5,3.551,3.545,3.543,0,0,20.668,62.51,3482.395554022,30.183728,14,Waypoint,
8000,2021-04-13 09:06:13,40.1849351946204,33.32830071447,31.16798,,,3483.379806022,31.16798,0,1.80142394216,8,4,13.917,3483.379806022,31.16798,0.92161928,1.80142394216,0,0,-6.487126,147.5, -1.7, 0.6,0,0,1024,1024,1024,1024,148,0,98,3.5,3.551,3.545,3.543,0,0,20.668,62.51,3483.379806022,31.16798,14,Waypoint,
8100,2021-04-13 09:06:13,40.184935018196,33.328300885247,32.152232,,,3484.364058022,32.152232,0,1.85805780224,8,4,13.917,3484.364058022,32.152232,0.92161928,1.85805780224,0,0,-6.487126,147.4, -1.7, 0.8,0,0,1024,1024,1024,1024,148,0,98,3.5,3.551,3.545,3.543,0,0,20.668,62.51,3484.364058022,32.152232,14,Waypoint,
8200,2021-04-13 09:06:13,40.1849350233235,33.3283009630387,33.136484,,,3485.348310022,33.136484,0.223694,1.85345150288,8,4,14.424,3485.348310022,33.136484,0.92161928,1.85805780224,0.223694,0,-6.487126,147.5, -1.6, 0.6,0,0,1024,1024,1024,1024,148,0,98,3.5,3.551,3.545,3.543,0,0,13.938,62.51,3485.348310022,33.136484,14,Waypoint,
8300,2021-04-13 09:06:13,40.1849351190569,33.3283010827668,33.792652,,,3486.004478022,34.120736,0.223694,1.81497053052,8,4,14.424,3486.004478022,33.792652,0.92161928,1.85805780224,0.223694,0,-6.487126,147.5, -1.3, 0.7,0,0,1024,1024,1024,1024,148,0,98,3.5,3.551,3.545,3.543,0,0,13.938,62.51,3486.004478022,33.792652,14,Waypoint,
8400,2021-04-13 09:06:14,40.1849352390305,33.3283011956142,34.776904,,,3486.988730022,35.104988,0.223694,1.76833010908,8,4,14.424,3486.988730022,34.776904,0.92161928,1.85805780224,0.223694,0,-6.487126,147.5, -1.7, 1.5,0,0,1024,1024,1024,1024,148,0,98,3.5,3.551,3.545,3.543,0,0,13.938,62.51,3486.988730022,34.776904,14,Waypoint,
8500,2021-04-13 09:06:14,40.1849354344263,33.328301265739,35.761156,,,3487.972982022,36.08924,0.223694,1.69561685216,8,4,14.424,3487.972982022,35.761156,0.92161928,1.85805780224,0.223694,0,-6.487126,147.5, -2.3, 2.2,0,0,1024,1024,1024,1024,148,0,98,3.5,3.551,3.545,3.543,0,0,13.938,62.51,3487.972982022,35.761156,14,Waypoint,
8600,2021-04-13 09:06:14,40.1849355359825,33.3283013105926,36.745408,,,3488.957234022,37.073492,0.223694,1.65768378008,8,4,14.424,3488.957234022,36.745408,0.92161928,1.85805780224,0.223694,0,-6.71082,147.4, -3, 2.3,0,0,1024,1024,1024,1024,148,0,98,3.5,3.551,3.545,3.543,0,0,13.938,62.51,3488.957234022,36.745408,14,Waypoint,
8700,2021-04-13 09:06:14,40.1849355709721,33.3283012891363,37.72966,,,3489.941486022,38.057744,0.31540854,1.64542984268,8,4,14.424,3489.941486022,37.72966,0.92161928,1.85805780224,0.223694,0.223694,-6.487126,147.4, -3.2, 2.4,0,0,1024,1024,1024,1024,148,0,98,3.5,3.551,3.545,3.543,0,0,13.938,62.51,3489.941486022,37.72966,14,Waypoint,
8800,2021-04-13 09:06:14,40.1849356353864,33.3283013168748,38.713912,,,3490.925738022,39.041996,0.31540854,1.62138784716,8,4,14.424,3490.925738022,38.713912,0.92161928,1.85805780224,0.223694,0.223694,-6.487126,147.4, -2.8, 2.3,0,0,1024,1024,1024,1024,148,0,98,3.5,3.551,3.545,3.543,0,0,13.938,62.51,3490.925738022,38.713912,14,Waypoint,
8900,2021-04-13 09:06:14,40.18493570317,33.3283014095596,39.698164,,,3491.909990022,39.37008,0.447388,1.59490490668,8,4,14.424,3491.909990022,39.698164,0.92161928,1.85805780224,0.447388,0,-6.487126,147.4, -2.7, 1.8,0,0,1024,1024,1024,1024,148,0,98,3.5,3.551,3.545,3.543,0,0,13.938,62.51,3491.909990022,39.698164,14,Waypoint,
9000,2021-04-13 09:06:14,40.184935845356,33.3283015166888,40.682416,,,3492.894242022,39.37008,0.447388,1.5414862698,8,4,14.424,3492.894242022,40.682416,0.92161928,1.85805780224,0.447388,0,-6.487126,147.4, -2.7, 1.7,0,0,1024,1024,1024,1024,148,0,98,3.5,3.551,3.545,3.543,0,0,13.938,62.51,3492.894242022,40.682416,14,Waypoint,
9100,2021-04-13 09:06:14,40.184935993316,33.3283015949129,41.338584,,,3493.550410022,39.37008,0.223694,1.48669296096,8,4,14.424,3493.550410022,41.338584,0.92161928,1.85805780224,0.223694,0,-6.487126,147.4, -2.9, 2.1,0,0,1024,1024,1024,1024,148,0,98,3.5,3.551,3.545,3.543,0,0,13.938,62.51,3493.550410022,41.338584,14,Waypoint,
9200,2021-04-13 09:06:14,40.1849361049458,33.3283016635983,42.65092,,,3494.862746022,39.37008,0.223694,1.4454724872,8,4,14.367,3494.862746022,42.65092,0.92161928,1.85805780224,0.223694,0,-6.71082,147.3, -3, 2.3,0,0,1024,1024,1024,1024,148,0,98,3.591,3.634,3.631,3.628,0,0,13.938,62.51,3494.862746022,42.65092,14,Waypoint,
9300,2021-04-13 09:06:14,40.1849361645342,33.3283017202147,43.307088,,,3495.518914022,39.37008,0.223694,1.42350070172,8,4,14.367,3495.518914022,43.307088,0.92161928,1.85805780224,0.223694,0,-6.71082,147.3, -2.9, 2.3,0,0,1024,1024,1024,1024,148,0,98,3.591,3.634,3.631,3.628,0,0,13.938,62.51,3495.518914022,43.307088,14,Waypoint,
9400,2021-04-13 09:06:15,40.1849360760014,33.3283016968812,44.29134,,,3496.503166022,39.37008,0.223694,1.45587603084,8,4,14.367,3496.503166022,44.29134,0.92161928,1.85805780224,0.223694,0,-6.71082,147.3, -2.6, 2,0,0,1024,1024,1024,1024,148,0,98,3.591,3.634,3.631,3.628,0,0,13.938,62.51,3496.503166022,44.29134,14,Waypoint,
9500,2021-04-13 09:06:15,40.1849361040607,33.3283017629745,45.275592,,,3497.487418022,39.37008,0.223694,1.44550201476,8,4,14.367,3497.487418022,45.275592,0.92161928,1.85805780224,0.223694,0,-6.71082,147.3, -2.4, 1.9,0,0,1024,1024,1024,1024,148,0,98,3.591,3.634,3.631,3.628,0,0,13.938,62.51,3497.487418022,45.275592,14,Waypoint,
9600,2021-04-13 09:06:15,40.1849361546813,33.328301852138,46.259844,,,3498.471670022,39.37008,0.223694,1.42722117428,8,4,14.367,3498.471670022,46.259844,0.92161928,1.85805780224,0.223694,0,-6.71082,147.4, -2.5, 2.1,0,0,1024,1024,1024,1024,147.9,0,98,3.591,3.634,3.631,3.628,0,0,13.938,62.51,3498.471670022,46.259844,14,Waypoint,
9700,2021-04-13 09:06:15,40.184936244834,33.3283019803178,47.244096,,,3499.455922022,39.37008,0.223694,1.3953904646,8,4,14.367,3499.455922022,47.244096,0.92161928,1.85805780224,0.223694,0,-6.71082,147.4, -2.8, 2.5,0,0,1024,1024,1024,1024,147.9,0,98,3.591,3.634,3.631,3.628,0,0,13.938,62.51,3499.455922022,47.244096,14,Waypoint,
9800,2021-04-13 09:06:15,40.1849362551376,33.3283020282085,48.228348,,,3500.440174022,39.37008,0.223694,1.39226382408,8,4,14.367,3500.440174022,48.228348,0.92161928,1.85805780224,0.223694,0,-6.71082,147.3, -2.8, 2.6,0,0,1024,1024,1024,1024,147.9,0,98,3.591,3.634,3.631,3.628,0,0,13.938,62.51,3500.440174022,48.228348,14,Waypoint,
9900,2021-04-13 09:06:15,40.1849363765446,33.3283020640189,49.2126,,,3501.424426022,39.37008,0.50107456,1.34860240536,8,4,14.367,3501.424426022,49.2126,0.92161928,1.85805780224,0.447388,0.223694,-6.71082,147.3, -2.9, 2.8,0,0,1024,1024,1024,1024,147.9,0,98,3.591,3.634,3.631,3.628,0,0,13.938,62.51,3501.424426022,49.2126,14,Waypoint,
10000,2021-04-13 09:06:15,40.1849364926999,33.3283021192296,50.196852,,,3502.408678022,39.37008,0.50107456,1.3073655274,8,4,14.367,3502.408678022,50.196852,0.92161928,1.85805780224,0.447388,0.223694,-6.71082,147.3, -2.9, 3.1,0,0,1024,1024,1024,1024,147.9,0,98,3.591,3.634,3.631,3.628,0,0,13.938,62.51,3502.408678022,50.196852,14,Waypoint,
10100,2021-04-13 09:06:15,40.1849366127325,33.3283022099256,50.85302,,,3503.064846022,39.37008,0.223694,1.26590555232,8,4,14.367,3503.064846022,50.85302,0.92161928,1.85805780224,0.223694,0,-6.71082,147.3, -2.8, 2.9,0,0,1024,1024,1024,1024,147.9,0,98,3.591,3.634,3.631,3.628,0,0,13.938,62.51,3503.064846022,50.85302,14,Waypoint,
10200,2021-04-13 09:06:15,40.1849367754137,33.3283022162015,51.837272,,,3504.049098022,39.37008,0.223694,1.20702759768,8,4,14.301,3504.049098022,51.837272,0.92161928,1.85805780224,0.223694,0,-6.71082,147.4, -2.9, 2.9,0,0,1024,1024,1024,1024,147.9,0,98,3.571,3.611,3.602,3.601,0,0,14.818,62.51,3504.049098022,51.837272,14,Waypoint,
10300,2021-04-13 09:06:15,40.1849368178733,33.3283022520085,52.821524,,,3505.033350022,39.37008,0.223694,1.19270673108,8,4,14.301,3505.033350022,52.821524,0.92161928,1.85805780224,0.223694,0,-6.71082,147.4, -3, 2.7,0,0,1024,1024,1024,1024,147.9,0,98,3.571,3.611,3.602,3.601,0,0,14.818,62.51,3505.033350022,52.821524,14,Waypoint,
10400,2021-04-13 09:06:16,40.184936864779,33.3283022948005,53.805776,,,3506.017602022,39.37008,0.223694,1.1771325836,8,4,14.301,3506.017602022,53.805776,0.92161928,1.85805780224,0.223694,0,-6.71082,147.4, -3.1, 2.7,0,0,1024,1024,1024,1024,147.9,0,98,3.571,3.611,3.602,3.601,0,0,14.818,62.51,3506.017602022,53.805776,14,Waypoint,
10500,2021-04-13 09:06:16,40.1849369319808,33.3283023612779,54.461944,,,3506.673770022,39.37008,0.223694,1.15531171676,8,4,14.301,3506.673770022,54.461944,0.92161928,1.85805780224,0.223694,0,-6.71082,147.4, -3.2, 2.8,0,0,1024,1024,1024,1024,147.9,0,98,3.571,3.611,3.602,3.601,0,0,14.818,62.51,3506.673770022,54.461944,14,Waypoint,
10600,2021-04-13 09:06:16,40.1849368573154,33.3283023900366,55.77428,,,3507.986106022,39.37008,0.223694,1.18342851556,8,4,14.301,3507.986106022,55.77428,0.92161928,1.85805780224,0.223694,0,-6.934514,147.3, -3.4, 2.9,0,0,1024,1024,1024,1024,147.9,0,98,3.571,3.611,3.602,3.601,0,0,14.818,62.51,3507.986106022,55.77428,14,Waypoint,
10700,2021-04-13 09:06:16,40.1849368907922,33.328302439333,56.758532,,,3508.970358022,39.37008,0.223694,1.1734580428,8,4,14.301,3508.970358022,56.758532,0.92161928,1.85805780224,0.223694,0,-6.934514,147.3, -3.2, 2.8,0,0,1024,1024,1024,1024,147.9,0,98,3.571,3.611,3.602,3.601,0,0,14.818,62.51,3508.970358022,56.758532,14,Waypoint,
10800,2021-04-13 09:06:16,40.1849369323733,33.3283024873106,57.742784,,,3509.954610022,39.37008,0.223694,1.16071526024,8,4,14.301,3509.954610022,57.742784,0.92161928,1.85805780224,0.223694,0,-6.934514,147.3, -3.2, 2.8,0,0,1024,1024,1024,1024,147.9,0,98,3.571,3.611,3.602,3.601,0,0,14.818,62.51,3509.954610022,57.742784,14,Waypoint,
10900,2021-04-13 09:06:16,40.184937002652,33.3283025404863,58.727036,,,3510.938862022,39.37008,0.223694,1.13817917028,8,4,14.301,3510.938862022,58.727036,0.92161928,1.85805780224,0.223694,0,-6.934514,147.2, -3.1, 3,0,0,1024,1024,1024,1024,147.9,0,98,3.571,3.611,3.602,3.601,0,0,14.818,62.51,3510.938862022,58.727036,14,Waypoint,
11000,2021-04-13 09:06:16,40.1849370747603,33.3283025915233,59.711288,,,3511.923114022,39.37008,0.223694,1.11519360524,8,4,14.301,3511.923114022,59.711288,0.92161928,1.85805780224,0.223694,0,-6.934514,147.2, -3.1, 3.1,0,0,1024,1024,1024,1024,147.9,0,98,3.571,3.611,3.602,3.601,0,0,14.818,62.51,3511.923114022,59.711288,14,Waypoint,
11100,2021-04-13 09:06:16,40.1849372352406,33.3283025937279,60.69554,,,3512.907366022,39.37008,0,1.05809714672,8,4,14.301,3512.907366022,60.69554,0.92161928,1.85805780224,0,0,-6.934514,147.3, -3, 2.8,0,0,1024,1024,1024,1024,147.9,0,98,3.571,3.611,3.602,3.601,0,0,14.818,62.51,3512.907366022,60.69554,14,Waypoint,
11200,2021-04-13 09:06:16,40.1849372520022,33.3283026221111,61.679792,,,3513.891618022,39.37008,0,1.053887829,8,4,14.329,3513.891618022,61.679792,0.92161928,1.85805780224,0,0,-6.934514,147.3, -3.1, 2.6,0,0,1024,1024,1024,1024,147.9,0,98,3.556,3.598,3.595,3.591,0,0,14.876,62.51,3513.891618022,61.679792,14,Waypoint,
11300,2021-04-13 09:06:16,40.1849371779841,33.328302628127,62.664044,,,3514.875870022,39.37008,0.223694,1.08058402408,8,4,14.329,3514.875870022,62.664044,0.92161928,1.85805780224,0.223694,0,-6.934514,147.3, -2.9, 2.9,0,0,1024,1024,1024,1024,147.9,0,98,3.556,3.598,3.595,3.591,0,0,14.876,62.51,3514.875870022,62.664044,14,Waypoint,
11400,2021-04-13 09:06:17,40.1849371649562,33.3283026683186,63.648296,,,3515.860122022,39.37008,0.223694,1.0877460978,8,4,14.329,3515.860122022,63.648296,0.92161928,1.85805780224,0.223694,0,-6.934514,147.3, -3, 3,0,0,1024,1024,1024,1024,147.9,0,98,3.556,3.598,3.595,3.591,0,0,14.876,62.51,3515.860122022,63.648296,14,Waypoint,
11500,2021-04-13 09:06:17,40.1849372635145,33.3283028220064,64.304464,,,3516.516290022,39.37008,0.31540854,1.06380908916,8,4,14.329,3516.516290022,64.304464,0.92161928,1.85805780224,0.223694,0.223694,-6.71082,147.3, -2.9, 3.2,0,0,1024,1024,1024,1024,147.9,0,98,3.556,3.598,3.595,3.591,0,0,14.876,62.51,3516.516290022,64.304464,14,Waypoint,
11600,2021-04-13 09:06:17,40.1849373736205,33.3283029431423,65.6168,,,3517.828626022,39.37008,0.31540854,1.03543638484,8,4,14.329,3517.828626022,65.6168,0.92161928,1.85805780224,0.223694,0.223694,-6.934514,147.3, -3, 3.6,0,0,1024,1024,1024,1024,147.9,0,98,3.556,3.598,3.595,3.591,0,0,14.876,62.51,3517.828626022,65.6168,14,Waypoint,
11700,2021-04-13 09:06:17,40.1849374939454,33.3283030856476,66.601052,,,3518.812878022,39.37008,0,1.00766735508,8,4,14.329,3518.812878022,66.601052,0.92161928,1.85805780224,0,0,-6.934514,147.3, -3.4, 3.5,0,0,1024,1024,1024,1024,147.9,0,98,3.556,3.598,3.595,3.591,0,0,14.876,62.51,3518.812878022,66.601052,14,Waypoint,
11800,2021-04-13 09:06:17,40.1849375458562,33.3283032048788,67.585304,,,3519.797130022,39.37008,0,1.0028543628,8,4,14.329,3519.797130022,67.585304,0.92161928,1.85805780224,0,0,-6.934514,147.2, -3.3, 3.6,0,0,1024,1024,1024,1024,147.9,0,98,3.556,3.598,3.595,3.591,0,0,14.876,62.51,3519.797130022,67.585304,14,Waypoint,
11900,2021-04-13 09:06:17,40.1849374554266,33.3283033348932,68.241472,,,3520.453298022,39.37008,0,1.04776250072,8,4,14.329,3520.453298022,68.241472,0.92161928,1.85805780224,0,0,-6.71082,147.2, -2.7, 3.8,0,0,1024,1024,1024,1024,147.9,0,98,3.556,3.598,3.595,3.591,0,0,14.876,62.51,3520.453298022,68.241472,14,Waypoint,
12000,2021-04-13 09:06:17,40.184937387203,33.328303419459,69.225724,,,3521.437550022,39.37008,0,1.08026906344,8,4,14.329,3521.437550022,69.225724,0.92161928,1.85805780224,0,0,-6.934514,147.4, -2.2, 3.5,0,0,1024,1024,1024,1024,147.9,0,98,3.556,3.598,3.595,3.591,0,0,14.876,62.51,3521.437550022,69.225724,14,Waypoint,
12100,2021-04-13 09:06:17,40.1849373197683,33.3283035170707,70.209976,,,3522.421802022,39.37008,0.223694,1.11420935324,8,4,14.329,3522.421802022,70.209976,0.92161928,1.85805780224,0.223694,0,-6.934514,147.5, -2.3, 3.3,0,0,1024,1024,1024,1024,147.9,0,98,3.556,3.598,3.595,3.591,0,0,14.876,62.51,3522.421802022,70.209976,14,Waypoint,
12200,2021-04-13 09:06:17,40.1849373076812,33.3283035987067,71.194228,,,3523.406054022,39.37008,0.223694,1.128280876,8,4,14.311,3523.406054022,71.194228,0.92161928,1.85805780224,0.223694,0,-6.934514,147.5, -1.9, 3.7,0,0,1024,1024,1024,1024,147.9,0,98,3.548,3.598,3.595,3.594,0,0,15.032,62.51,3523.406054022,71.194228,14,Waypoint,
12300,2021-04-13 09:06:17,40.184937402387,33.3283035546015,72.17848,,,3524.390306022,39.37008,0,1.0919127646,8,4,14.311,3524.390306022,72.17848,0.92161928,1.85805780224,0,0,-6.934514,147.4, -2.2, 4.1,0,0,1024,1024,1024,1024,147.9,0,98,3.548,3.598,3.595,3.594,0,0,15.032,62.51,3524.390306022,72.17848,14,Waypoint,
12400,2021-04-13 09:06:18,40.1849374396075,33.3283035518644,73.162732,,,3525.374558022,39.37008,0,1.07949150436,8,4,14.311,3525.374558022,73.162732,0.92161928,1.85805780224,0,0,-7.158208,147.4, -3, 4.2,0,0,1024,1024,1024,1024,147.9,0,98,3.548,3.598,3.595,3.594,0,0,15.032,62.51,3525.374558022,73.162732,14,Waypoint,
12500,2021-04-13 09:06:18,40.1849373782327,33.3283034556913,74.475068,,,3526.686894022,39.37008,0,1.08755908992,8,4,14.311,3526.686894022,74.475068,0.92161928,1.85805780224,0,0,-7.158208,147.4, -3.1, 4.1,0,0,1024,1024,1024,1024,147.9,0,98,3.548,3.598,3.595,3.594,0,0,15.032,62.51,3526.686894022,74.475068,14,Waypoint,
12600,2021-04-13 09:06:18,40.1849372867137,33.3283033578316,75.45932,,,3527.671146022,39.37008,0,1.1065617152,8,4,14.311,3527.671146022,75.45932,0.92161928,1.85805780224,0,0,-6.934514,147.4, -3, 3.7,0,0,1024,1024,1024,1024,147.9,0,98,3.548,3.598,3.595,3.594,0,0,15.032,62.51,3527.671146022,75.45932,14,Waypoint,
12700,2021-04-13 09:06:18,40.1849371559643,33.3283032837931,76.443572,,,3528.655398022,39.37008,0,1.14264439352,8,4,14.311,3528.655398022,76.443572,0.92161928,1.85805780224,0,0,-6.934514,147.3, -2.7, 3.5,0,0,1024,1024,1024,1024,147.9,0,98,3.548,3.598,3.595,3.594,0,0,15.032,62.51,3528.655398022,76.443572,14,Waypoint,
12800,2021-04-13 09:06:18,40.1849367841702,33.3283030279296,77.427824,,,3529.639650022,39.37008,0,1.24776578796,8,4,14.311,3529.639650022,77.427824,0.92161928,1.85805780224,0,0,-6.934514,147.4, -2, 3.1,0,0,1024,1024,1024,1024,147.9,0,98,3.548,3.598,3.595,3.594,0,0,15.032,62.51,3529.639650022,77.427824,14,Waypoint,
12900,2021-04-13 09:06:18,40.1849367402783,33.3283031431035,78.412076,,,3530.623902022,39.37008,0,1.27243770476,8,4,14.311,3530.623902022,78.412076,0.92161928,1.85805780224,0,0,-6.934514,147.3, -1.9, 2.7,0,0,1024,1024,1024,1024,147.9,0,98,3.548,3.598,3.595,3.594,0,0,15.032,62.51,3530.623902022,78.412076,14,Waypoint,
13000,2021-04-13 09:06:18,40.1849367266865,33.3283032342157,79.068244,,,3531.280070022,39.37008,0.223694,1.28501316448,8,4,14.311,3531.280070022,79.068244,0.92161928,1.85805780224,0.223694,0,-6.934514,147.3, -2.2, 2.7,0,0,1024,1024,1024,1024,147.9,0,98,3.548,3.598,3.595,3.594,0,0,15.032,62.51,3531.280070022,79.068244,14,Waypoint,
13100,2021-04-13 09:06:18,40.1849367491684,33.3283032808289,80.052496,,,3532.264322022,39.37008,0.223694,1.28145673392,8,4,14.311,3532.264322022,80.052496,0.92161928,1.85805780224,0.223694,0,-6.934514,147.3, -2.6, 2.9,0,0,1024,1024,1024,1024,147.9,0,98,3.548,3.598,3.595,3.594,0,0,15.032,62.51,3532.264322022,80.052496,14,Waypoint,
13200,2021-04-13 09:06:18,40.1849368127335,33.3283034417422,81.036748,,,3533.248574022,39.37008,0.223694,1.27528875472,8,4,14.291,3533.248574022,81.036748,0.92161928,1.85805780224,0.223694,0,-6.934514,147.3, -3, 3.5,0,0,1024,1024,1024,1024,147.9,0,98,3.548,3.598,3.595,3.594,0,0,15.032,62.51,3533.248574022,81.036748,14,Waypoint,
13300,2021-04-13 09:06:18,40.1849367640023,33.3283034118867,82.349084,,,3534.560910022,39.37008,0,1.28887143232,8,4,14.291,3534.560910022,82.349084,0.92161928,1.85805780224,0,0,-6.934514,147.3, -3, 3.8,0,0,1024,1024,1024,1024,147.8,0,98,3.548,3.598,3.595,3.594,0,0,15.032,62.51,3534.560910022,82.349084,14,Waypoint,
13400,2021-04-13 09:06:19,40.1849367151287,33.3283033753447,83.005252,,,3535.217078022,39.37008,0,1.30201447736,8,4,14.291,3535.217078022,83.005252,0.92161928,1.85805780224,0,0,-6.934514,147.3, -2.8, 3.5,0,0,1024,1024,1024,1024,147.9,0,98,3.548,3.598,3.595,3.594,0,0,15.032,62.51,3535.217078022,83.005252,14,Waypoint,
13500,2021-04-13 09:06:19,40.1849366786479,33.3283033364937,84.317588,,,3536.529414022,39.37008,0.223694,1.31087274536,8,4,14.291,3536.529414022,84.317588,0.92161928,1.85805780224,0.223694,0,-6.934514,147.3, -2.5, 3.4,0,0,1024,1024,1024,1024,147.8,0,98,3.548,3.598,3.595,3.594,0,0,15.032,62.51,3536.529414022,84.317588,14,Waypoint,
13600,2021-04-13 09:06:19,40.1849366249967,33.3283031698189,85.30184,,,3537.513666022,39.37008,0.223694,1.31479991084,8,4,14.291,3537.513666022,85.30184,0.92161928,1.85805780224,0.223694,0,-6.934514,147.3, -2.3, 3.6,0,0,1024,1024,1024,1024,147.8,0,98,3.548,3.598,3.595,3.594,0,0,15.032,62.51,3537.513666022,85.30184,14,Waypoint,
13700,2021-04-13 09:06:19,40.1849367504431,33.3283032446275,86.286092,,,3538.497918022,39.37008,0.223694,1.27772969968,8,4,14.291,3538.497918022,86.286092,0.92161928,1.85805780224,0.223694,0,-6.71082,147.2, -2.5, 3.7,0,0,1024,1024,1024,1024,147.9,0,98,3.548,3.598,3.595,3.594,0,0,15.032,62.51,3538.497918022,86.286092,14,Waypoint,
13800,2021-04-13 09:06:19,40.1849368578785,33.3283033060699,86.94226,,,3539.154086022,39.37008,0.223694,1.24646985616,8,4,14.291,3539.154086022,86.94226,0.92161928,1.85805780224,0.223694,0,-6.263432,147.2, -2.9, 3.9,0,0,1024,1024,1024,1024,147.9,0,98,3.548,3.598,3.595,3.594,0,0,15.032,62.51,3539.154086022,86.94226,14,Waypoint,
13900,2021-04-13 09:06:19,40.1849369274973,33.3283033499866,87.926512,,,3540.138338022,39.37008,0.223694,1.22699478992,8,4,14.291,3540.138338022,87.926512,0.92161928,1.85805780224,0.223694,0,-6.039738,147.2, -3, 3.9,0,0,1024,1024,1024,1024,147.8,0,98,3.548,3.598,3.595,3.594,0,0,15.032,62.51,3540.138338022,87.926512,14,Waypoint,
14000,2021-04-13 09:06:19,40.1849370033657,33.3283034718632,88.910764,,,3541.122590022,39.37008,0,1.21408140368,8,4,14.291,3541.122590022,88.910764,0.92161928,1.85805780224,0,0,-5.816044,147.3, -3.1, 3.5,0,0,1024,1024,1024,1024,147.8,0,98,3.548,3.598,3.595,3.594,0,0,15.032,62.51,3541.122590022,88.910764,14,Waypoint,
14100,2021-04-13 09:06:19,40.1849369768636,33.3283035454903,89.566932,,,3541.778758022,39.37008,0,1.23109912076,8,4,14.291,3541.778758022,89.566932,0.92161928,1.85805780224,0,0,-5.368656,147.3, -3, 4.3,0,0,1024,1024,1024,1024,147.8,0,98,3.548,3.598,3.595,3.594,0,0,15.032,62.51,3541.778758022,89.566932,14,Waypoint,
14200,2021-04-13 09:06:19,40.1849369370404,33.3283036183333,90.551184,,,3542.763010022,39.37008,0,1.25263455452,8,4,14.345,3542.763010022,90.551184,0.92161928,1.85805780224,0,0,-5.144962,147.3, -3, 4.4,0,0,1024,1024,1024,1024,147.8,0,98,3.539,3.585,3.583,3.583,0,0,14.824,62.51,3542.763010022,90.551184,14,Waypoint,
14300,2021-04-13 09:06:19,40.1849368707114,33.3283036884013,90.879268,,,3543.091094022,39.37008,0,1.28275266572,8,4,14.345,3543.091094022,90.879268,0.92161928,1.85805780224,0,0,-4.697574,147.4, -2.3, 4.2,0,0,1024,1024,1024,1024,147.8,0,98,3.539,3.585,3.583,3.583,0,0,14.824,62.51,3543.091094022,90.879268,14,Waypoint,
14400,2021-04-13 09:06:20,40.1849368362987,33.328303726073,91.535436,,,3543.747262022,39.37008,0,1.29854991032,8,4,14.345,3543.747262022,91.535436,0.92161928,1.85805780224,0,0,-4.697574,147.4, -2.1, 4,0,0,1024,1024,1024,1024,147.8,0,98,3.539,3.585,3.583,3.583,0,0,14.824,62.51,3543.747262022,91.535436,14,Waypoint,
14500,2021-04-13 09:06:20,40.1849367585621,33.3283036437432,92.519688,,,3544.731514022,39.37008,0.223694,1.31505253552,8,4,14.345,3544.731514022,92.519688,0.92161928,1.85805780224,-0.223694,0,-4.697574,147.3, -1.9, 3.6,0,0,1024,1024,1024,1024,147.8,0,98,3.539,3.585,3.583,3.583,0,0,14.824,62.51,3544.731514022,92.519688,14,Waypoint,
14600,2021-04-13 09:06:20,40.1849367601869,33.3283036346755,93.175856,,,3545.387682022,39.37008,0.223694,1.31350397904,8,4,14.345,3545.387682022,93.175856,0.92161928,1.85805780224,-0.223694,0,-4.47388,147.3, -1.5, 3.1,0,0,1024,1024,1024,1024,147.8,0,98,3.539,3.585,3.583,3.583,0,0,14.824,62.51,3545.387682022,93.175856,14,Waypoint,
14700,2021-04-13 09:06:20,40.184936729897,33.3283036422121,93.50394,,,3545.715766022,39.37008,0.223694,1.32448823136,8,4,14.345,3545.715766022,93.50394,0.92161928,1.85805780224,-0.223694,0,-4.250186,147.3, -1.4, 2.7,0,0,1024,1024,1024,1024,147.8,0,98,3.539,3.585,3.583,3.583,0,0,14.824,62.51,3545.715766022,93.50394,14,Waypoint,
14800,2021-04-13 09:06:20,40.1849367448421,33.3283036410447,94.160108,,,3546.371934022,39.37008,0.223694,1.31935043592,8,4,14.345,3546.371934022,94.160108,0.92161928,1.85805780224,-0.223694,0,-4.026492,147.4, -1, 2.7,0,0,1024,1024,1024,1024,147.8,0,98,3.539,3.585,3.583,3.583,0,0,14.824,62.51,3546.371934022,94.160108,14,Waypoint,
14900,2021-04-13 09:06:20,40.1849368982973,33.3283035614191,94.816276,,,3547.028102022,39.37008,0,1.25915030276,8,4,14.345,3547.028102022,94.816276,0.92161928,1.85805780224,0,0,-4.026492,147.5, -1.3, 2.4,0,0,1024,1024,1024,1024,147.8,0,98,3.539,3.585,3.583,3.583,0,0,14.824,62.51,3547.028102022,94.816276,14,Waypoint,
15000,2021-04-13 09:06:20,40.1849370127903,33.328303568749,95.472444,,,3547.684270022,39.37008,0,1.22175856928,8,4,14.345,3547.684270022,95.472444,0.92161928,1.85805780224,0,0,-3.579104,147.5, -1.9, 2.6,0,0,1024,1024,1024,1024,147.8,0,98,3.539,3.585,3.583,3.583,0,0,14.824,62.51,3547.684270022,95.472444,14,Waypoint,
15100,2021-04-13 09:06:20,40.184937136561,33.3283036281579,95.800528,,,3548.012354022,39.37008,0,1.18786421124,8,4,14.345,3548.012354022,95.800528,0.92161928,1.85805780224,0,0,-3.35541,147.5, -2.3, 3,0,0,1024,1024,1024,1024,147.8,0,98,3.539,3.585,3.583,3.583,0,0,14.824,62.51,3548.012354022,95.800528,14,Waypoint,
15200,2021-04-13 09:06:20,40.1849372522164,33.3283036759567,96.456696,,,3548.668522022,39.37008,0,1.15610896088,8,4,14.298,3548.668522022,96.456696,0.92161928,1.85805780224,0,0,-3.131716,147.4, -2.3, 3.3,0,0,1024,1024,1024,1024,147.8,0,98,3.585,3.632,3.643,3.652,0,0,12.558,62.51,3548.668522022,96.456696,14,Waypoint,
15300,2021-04-13 09:06:20,40.1849373535504,33.3283036621625,96.78478,,,3548.996606022,39.37008,0,1.12159452408,8,4,14.298,3548.996606022,96.78478,0.92161928,1.85805780224,0,0,-2.908022,147.4, -2.7, 3.7,0,0,1024,1024,1024,1024,147.8,0,98,3.585,3.632,3.643,3.652,0,0,12.558,62.51,3548.996606022,96.78478,14,Waypoint,
15400,2021-04-13 09:06:21,40.1849375051259,33.3283037228376,97.440948,,,3549.652774022,39.37008,0,1.08153218684,8,4,14.298,3549.652774022,97.440948,0.92161928,1.85805780224,0,0,-2.684328,147.4, -2.9, 4.1,0,0,1024,1024,1024,1024,147.8,0,98,3.585,3.632,3.643,3.652,0,0,12.558,62.51,3549.652774022,97.440948,14,Waypoint,
15500,2021-04-13 09:06:21,40.1849377680683,33.3283038839618,97.769032,,,3549.980858022,39.37008,0,1.02498690944,8,4,14.298,3549.980858022,97.769032,0.92161928,1.85805780224,0,0,-2.460634,147.4, -3.1, 4.5,0,0,1024,1024,1024,1024,147.8,0,98,3.585,3.632,3.643,3.652,0,0,12.558,62.51,3549.980858022,97.769032,14,Waypoint,
15600,2021-04-13 09:06:21,40.1849379704721,33.3283040208071,98.097116,,,3550.308942022,39.37008,0,0.98927496604,8,4,14.298,3550.308942022,98.097116,0.92161928,1.85805780224,0,0,-2.23694,147.3, -3.2, 5.4,0,0,1024,1024,1024,1024,147.8,0,98,3.585,3.632,3.643,3.652,0,0,12.558,62.51,3550.308942022,98.097116,14,Waypoint,
15700,2021-04-13 09:06:21,40.1849381261196,33.3283041908827,98.4252,,,3550.637026022,39.37008,0,0.97817588432,8,4,14.298,3550.637026022,98.4252,0.92161928,1.85805780224,0,0,-2.013246,147.3, -2.9, 5.1,0,0,1024,1024,1024,1024,147.8,0,98,3.585,3.632,3.643,3.652,0,0,12.558,62.51,3550.637026022,98.4252,14,Waypoint,
15800,2021-04-13 09:06:21,40.1849381861367,33.3283042698236,98.753284,,,3550.965110022,39.37008,0.223694,0.97801184232,8,4,14.298,3550.965110022,98.753284,0.92161928,1.85805780224,-0.223694,0,-2.013246,147.4, -2.7, 5.2,0,0,1024,1024,1024,1024,147.8,0,98,3.585,3.632,3.643,3.652,0,0,12.558,62.51,3550.965110022,98.753284,14,Waypoint,
15900,2021-04-13 09:06:21,40.1849382526774,33.3283043945466,99.409452,,,3551.621278022,39.37008,0.223694,0.98665029404,8,4,14.298,3551.621278022,99.409452,0.92161928,1.85805780224,-0.223694,0,-1.789552,147.4, -2.7, 5.2,0,0,1024,1024,1024,1024,147.8,0,98,3.585,3.632,3.643,3.652,0,0,12.558,62.51,3551.621278022,99.409452,14,Waypoint,
16000,2021-04-13 09:06:21,40.1849382774843,33.3283044637604,99.409452,,,3551.621278022,39.37008,0.31540854,0.99508861452,8,4,14.298,3551.621278022,99.409452,0.92161928,1.85805780224,-0.223694,-0.223694,-1.565858,147.4, -2.4, 4.9,0,0,1024,1024,1024,1024,147.8,0,98,3.585,3.632,3.643,3.652,0,0,12.558,62.51,3551.621278022,99.409452,14,Waypoint,
16100,2021-04-13 09:06:21,40.1849382472978,33.3283044525204,99.737536,,,3551.949362022,39.37008,0.31540854,1.000000032,8,4,14.298,3551.949362022,99.737536,0.92161928,1.85805780224,-0.223694,-0.223694,-1.342164,147.4, -2, 4.2,0,0,1024,1024,1024,1024,147.8,0,98,3.585,3.632,3.643,3.652,0,0,12.558,62.51,3551.949362022,99.737536,14,Waypoint,
16200,2021-04-13 09:06:21,40.1849380988725,33.3283044225451,99.737536,,,3551.949362022,39.37008,0.31540854,1.03071197524,8,4,14.314,3551.949362022,99.737536,0.92161928,1.85805780224,-0.223694,-0.223694,-1.342164,147.5, -1.9, 3.6,0,0,1024,1024,1024,1024,147.8,0,98,3.585,3.632,3.643,3.652,0,0,12.558,62.51,3551.949362022,99.737536,14,Waypoint,
16300,2021-04-13 09:06:21,40.1849381420083,33.3283043505465,100.06562,,,3552.277446022,39.37008,0.223694,1.00535108204,8,4,14.314,3552.277446022,100.06562,0.92161928,1.85805780224,0,-0.223694,-1.11847,147.4, -2.5, 3.7,0,0,1024,1024,1024,1024,147.8,0,98,3.585,3.632,3.643,3.652,0,0,12.558,62.51,3552.277446022,100.06562,14,Waypoint,
16400,2021-04-13 09:06:22,40.1849382494425,33.328304294263,100.06562,,,3552.277446022,39.37008,0.223694,0.96690619892,8,4,14.314,3552.277446022,100.06562,0.92161928,1.85805780224,0,-0.223694,-0.894776,147.3, -3.2, 3.7,0,0,1024,1024,1024,1024,147.8,0,98,3.585,3.632,3.643,3.652,0,0,12.558,62.51,3552.277446022,100.06562,14,Waypoint,
16500,2021-04-13 09:06:22,40.1849384669879,33.3283042714683,100.06562,,,3552.277446022,39.37008,0.223694,0.90944556716,8,4,14.314,3552.277446022,100.06562,0.92161928,1.85805780224,0,-0.223694,-0.671082,147.3, -3.6, 3.7,0,0,1024,1024,1024,1024,147.8,0,98,3.585,3.632,3.643,3.652,0,0,12.558,62.51,3552.277446022,100.06562,14,Waypoint,
16600,2021-04-13 09:06:22,40.184938982625,33.3283042269531,100.393704,,,3552.605530022,39.37008,0,0.79108598332,8,4,14.314,3552.605530022,100.393704,0.92161928,1.85805780224,0,0,-0.671082,147.5, -2.9, 2.6,0,0,1024,1024,1024,1024,147.8,0,98,3.585,3.632,3.643,3.652,0,0,12.558,62.51,3552.605530022,100.393704,14,Waypoint,
16700,2021-04-13 09:06:22,40.1849392266571,33.3283043252298,100.721788,,,3552.933614022,39.37008,0,0.77566603532,8,4,14.314,3552.933614022,100.721788,0.92161928,1.85805780224,0,0,-0.447388,148.1, -1.9, 1.3,0,0,1024,1024,1024,1024,147.8,0,98,3.585,3.632,3.643,3.652,0,0,12.558,62.51,3552.933614022,100.721788,14,Waypoint,
16800,2021-04-13 09:06:22,40.1849394546596,33.3283044216552,100.721788,,,3552.933614022,39.37008,0,0.77243768876,8,4,14.314,3552.933614022,100.721788,0.92161928,1.85805780224,0,0,-0.223694,149.4, -1.8, 1.8,0,0,1024,1024,1024,1024,147.9,0,98,3.585,3.632,3.643,3.652,0,0,12.558,62.51,3552.933614022,100.721788,14,Waypoint,
16900,2021-04-13 09:06:22,40.1849396600341,33.328304482406,100.721788,,,3552.933614022,39.37008,0,0.77083007716,8,4,14.314,3552.933614022,100.721788,0.92161928,1.85805780224,0,0,0,151.3, -2.3, 2.6,0,0,1024,1024,1024,1024,148,0,98,3.585,3.632,3.643,3.652,0,0,12.558,62.51,3552.933614022,100.721788,14,Waypoint,
17000,2021-04-13 09:06:22,40.18493993383,33.3283045532729,100.721788,,,3552.933614022,39.37008,0,0.77771656032,8,4,14.314,3552.933614022,100.721788,0.92161928,1.85805780224,0,0,0,153.6, -2.7, 3.2,0,0,1024,1024,1024,1024,148.6,0,98,3.585,3.632,3.643,3.652,0,0,12.558,62.51,3552.933614022,100.721788,14,Waypoint,
17100,2021-04-13 09:06:22,40.1849400605873,33.3283046954803,100.721788,,,3552.933614022,39.37008,0,0.815862887,8,4,14.314,3552.933614022,100.721788,0.92161928,1.85805780224,0,0,0,156.6, -3.2, 3.2,0,0,1024,1024,1024,1024,149.8,0,98,3.585,3.632,3.643,3.652,0,0,12.558,62.51,3552.933614022,100.721788,14,Waypoint,
17200,2021-04-13 09:06:22,40.1849401990588,33.3283048412637,101.049872,,,3553.261698022,39.37008,0,0.85787076236,8,4,14.543,3553.261698022,101.049872,0.92161928,1.85805780224,0,0,0,160.2, -3.4, 3.1,0,0,1024,1024,1024,1024,151.8,0,97,3.6,3.644,3.649,3.656,0,0,11.65,64.31,3553.261698022,101.049872,14,Waypoint,
17300,2021-04-13 09:06:22,40.1849403829663,33.3283050126223,101.049872,,,3553.261698022,39.37008,0,0.91162404492,8,4,14.543,3553.261698022,101.049872,0.92161928,1.85805780224,0,0,0,164.4, -3.5, 3.3,0,0,1024,1024,1024,1024,154.8,0,97,3.6,3.644,3.649,3.656,0,0,11.65,64.31,3553.261698022,101.049872,14,Waypoint,
17400,2021-04-13 09:06:23,40.1849403728512,33.3283051784332,101.049872,,,3553.261698022,39.37008,0,0.95704727472,8,4,14.543,3553.261698022,101.049872,0.92161928,1.85805780224,0,0,0,169.2, -3.6, 3.2,0,0,1024,1024,1024,1024,158.8,0,97,3.6,3.644,3.649,3.656,0,0,11.65,64.31,3553.261698022,101.049872,14,Waypoint,
17500,2021-04-13 09:06:23,40.1849405641519,33.3283053228648,101.049872,,,3553.261698022,39.37008,0,1.0072670926,8,4,14.543,3553.261698022,101.049872,0.92161928,1.85805780224,0,0,0,174.6, -4.1, 2.9,0,0,1024,1024,1024,1024,158.8,0,97,3.6,3.644,3.649,3.656,0,0,11.65,64.31,3553.261698022,101.049872,14,Waypoint,
17600,2021-04-13 09:06:23,40.1849407397975,33.3283054362651,100.721788,,,3552.933614022,39.37008,0,1.05148625412,8,4,14.543,3553.261698022,101.049872,0.92161928,1.85805780224,0,0,0,180.6, -4.4, 2.3,0,0,1024,1024,1024,1024,163.7,0,97,3.6,3.644,3.649,3.656,0,0,11.65,64.31,3552.933614022,100.721788,14,Waypoint,
17700,2021-04-13 09:06:23,40.1849409026891,33.3283055159516,100.393704,,,3552.605530022,39.37008,0.223694,1.08824806632,8,4,14.543,3553.261698022,101.049872,0.92161928,1.85805780224,0.223694,0,0,187.2, -4.8, 1.9,0,0,1024,1024,1024,1024,169.4,0,97,3.6,3.644,3.649,3.656,0,0,11.65,64.31,3552.605530022,100.393704,14,Waypoint,
17800,2021-04-13 09:06:23,40.1849410493598,33.328305562172,100.393704,,,3552.605530022,39.37008,0,1.11664701736,8,4,14.543,3553.261698022,101.049872,0.92161928,1.85805780224,0,0,0,194.4, -4.9, 1,0,0,1024,1024,1024,1024,176,0,97,3.6,3.644,3.649,3.656,0,0,11.65,64.31,3552.605530022,100.393704,14,Waypoint,
17900,2021-04-13 09:06:23,40.1849411273484,33.3283053476762,100.721788,,,3552.933614022,39.37008,0.223694,1.07016735708,8,4,14.543,3553.261698022,101.049872,0.92161928,1.85805780224,0.223694,0,0,202, -5.4, 0.3,0,0,1024,1024,1024,1024,183.3,0,97,3.6,3.644,3.649,3.656,0,0,11.65,64.31,3552.933614022,100.721788,14,Waypoint,
18000,2021-04-13 09:06:23,40.1849412754163,33.3283053579703,100.721788,,,3552.933614022,39.37008,0.223694,1.093503972,8,4,14.543,3553.261698022,101.049872,0.92161928,1.85805780224,0.223694,0,0,210.1, -5.7, -0.4,0,0,1024,1024,1024,1024,191.2,0,97,3.6,3.644,3.649,3.656,0,0,11.65,64.31,3552.933614022,100.721788,14,Waypoint,
18100,2021-04-13 09:06:23,40.1849414476772,33.3283054029164,100.721788,,,3552.933614022,39.37008,0.223694,1.1315453118,8,4,14.543,3553.261698022,101.049872,0.92161928,1.85805780224,0.223694,0,0,218.6, -5.9, -1.3,0,0,1024,1024,1024,1024,199.7,0,97,3.6,3.644,3.649,3.656,0,0,11.65,64.31,3552.933614022,100.721788,14,Waypoint,
18200,2021-04-13 09:06:23,40.1849416132574,33.3283054371389,100.721788,,,3552.933614022,39.37008,0.223694,1.168061061,7,3,14.404,3553.261698022,101.049872,0.92161928,1.85805780224,0.223694,0,0,227.4, -5.7, -2.6,0,0,1024,1024,1024,1024,208.6,0,97,3.6,3.644,3.649,3.656,0,0,11.81,64.31,3552.933614022,100.721788,14,Waypoint,
18300,2021-04-13 09:06:23,40.1849419499097,33.3283054174513,101.049872,,,3553.261698022,39.37008,0.223694,1.2275754986,7,3,14.404,3553.261698022,101.049872,0.92161928,1.85805780224,0.223694,0,0,236.1, -5.3, -3.3,0,0,1024,1024,1024,1024,217.7,0,97,3.6,3.644,3.649,3.656,0,0,11.81,64.31,3553.261698022,101.049872,14,Waypoint,
18400,2021-04-13 09:06:24,40.1849420398152,33.3283054854122,100.393704,,,3552.605530022,39.37008,0,1.2617454472,7,3,14.404,3553.261698022,101.049872,0.92161928,1.85805780224,0,0,0,244.8, -5.1, -4.1,0,0,1024,1024,1024,1024,227.1,0,97,3.6,3.644,3.649,3.656,0,0,11.81,64.31,3552.605530022,100.393704,14,Waypoint,
18500,2021-04-13 09:06:24,40.1849419917151,33.3283056269441,100.393704,,,3552.605530022,39.37008,0,1.28465227208,7,3,14.404,3553.261698022,101.049872,0.92161928,1.85805780224,0,0,0,253.3, -4.5, -4.5,0,0,1024,1024,1024,1024,236.5,0,97,3.6,3.644,3.649,3.656,0,0,11.81,64.31,3552.605530022,100.393704,14,Waypoint,
