time(millisecond),datetime(utc),latitude,longitude,height_above_takeoff(feet),height_above_ground_at_drone_location(feet),ground_elevation_at_drone_location(feet),altitude_above_seaLevel(feet),height_sonar(feet),speed(mph),distance(feet),satellites,gpslevel,voltage(v),max_altitude(feet),max_ascent(feet),max_speed(mph),max_distance(feet), xSpeed(mph), ySpeed(mph), zSpeed(mph), compass_heading(degrees), pitch(degrees), roll(degrees),isPhoto,isVideo,rc_elevator,rc_aileron,rc_throttle,rc_rudder,gimbal_heading(degrees),gimbal_pitch(degrees),battery_percent,voltageCell1,voltageCell2,voltageCell3,voltageCell4,voltageCell5,voltageCell6,current(A),battery_temperature(f),altitude(feet),ascent(feet),flycStateRaw,flycState,message
0,,40.1849621008521,33.3282859521532,0,Available with any HD 360 subscription,Available with any HD 360 subscription,3452.0151836272,0.328084,0,0,20,5,0,3452.0151836272,0,0,0,0,0,0,260.2, 3.2, 0.7,0,0,1024,1024,1024,1024,260.4,0,95,4.005,3.997,3.983,3.977,0,0,0,51.8,3452.0151836272,0,41,Motors_Started,
100,,40.1849621370326,33.3282859216009,0,,,3452.0151836272,0.328084,0,0.015708990004,20,5,0,3452.0151836272,0,0,0.015708990004,0,0,0,260.2, 3.2, 0.7,0,0,1024,1024,1024,1024,260.4,0,95,4.005,3.997,3.983,3.977,0,0,0,51.8,3452.0151836272,0,41,Motors_Started,
200,,40.1849621298689,33.3282859269947,0,,,3452.0151836272,0.328084,0,0.0126985568368,20,5,0,3452.0151836272,0,0,0.015708990004,0,0,0,260.2, 3.2, 0.7,0,0,1024,1024,1024,1024,260.4,0,95,4.005,3.997,3.983,3.977,0,0,0,51.8,3452.0151836272,0,41,Motors_Started,
300,,40.1849619969782,33.3282860620797,0,,,3452.0151836272,0.328084,0,0.048734909696,20,5,0,3452.0151836272,0,0,0.048734909696,0,0,0,260.2, 3.2, 0.7,0,0,1024,1024,1024,1024,260.4,0,95,4.005,3.997,3.983,3.977,0,0,0,51.8,3452.0151836272,0,41,Motors_Started,Setting new Return-To-Home altitude to 201m (659 ft). Data Recorder File Index is 46. Setting new Maximum Flight Altitude to 500m (1640 ft)
400,,40.1849619799042,33.32828608164,0,,,3452.0151836272,0.328084,0,0.05700787584,20,5,0,3452.0151836272,0,0,0.05700787584,0,0,0,260.2, 3.2, 0.7,0,0,1024,1024,1024,1024,260.4,0,95,4.005,3.997,3.983,3.977,0,0,0,51.8,3452.0151836272,0,41,Motors_Started,
500,2021-03-18 08:48:55,40.1849620168313,33.328286043779,0,,,3452.0151836272,0.328084,0,0.039899607576,20,5,0,3452.0151836272,0,0,0.05700787584,0,0,0,260.2, 3.2, 0.7,0,0,1024,1024,1024,1024,260.4,0,95,4.005,3.997,3.983,3.977,0,0,0,51.8,3452.0151836272,0,41,Motors_Started,
600,2021-03-18 08:48:55,40.1849620405892,33.3282860189708,0,,,3452.0151836272,0.328084,0,0.0288146662764,20,5,0,3452.0151836272,0,0,0.05700787584,0,0,0,260.2, 3.2, 0.7,0,0,1024,1024,1024,1024,260.4,0,95,4.005,3.997,3.983,3.977,0,0,0,51.8,3452.0151836272,0,41,Motors_Started,
700,2021-03-18 08:48:55,40.1849620320369,33.3282860300234,0,,,3452.0151836272,0.328084,0,0.033188649356,20,5,0,3452.0151836272,0,0,0.05700787584,0,0,0,260.2, 3.2, 0.7,0,0,1024,1024,1024,1024,260.4,0,95,4.005,3.997,3.983,3.977,0,0,0,51.8,3452.0151836272,0,41,Motors_Started,
800,2021-03-18 08:48:55,40.1849620232987,33.3282860408125,0,,,3452.0151836272,0.328084,0,0.037567586504,20,5,0,3452.0151836272,0,0,0.05700787584,0,0,0,260.2, 3.2, 0.7,0,0,1024,1024,1024,1024,260.4,0,95,4.005,3.997,3.983,3.977,0,0,0,51.8,3452.0151836272,0,41,Motors_Started,
900,2021-03-18 08:48:55,40.1849618890498,33.3282860174806,0,,,3452.0151836272,0.328084,0,0.079392390992,20,5,0,3452.0151836272,0,0,0.079392390992,0,0,0,260.2, 3.2, 0.7,0,0,1024,1024,1024,1024,260.4,0,95,4.005,3.997,3.983,3.977,0,0,0,51.8,3452.0151836272,0,41,Motors_Started,
1000,2021-03-18 08:48:55,40.1849618688642,33.3282860245106,0,,,3452.0151836272,0.328084,0,0.087010501472,20,5,0,3452.0151836272,0,0,0.087010501472,0,0,0,260.2, 3.2, 0.7,0,0,1024,1024,1024,1024,260.4,0,95,4.005,3.997,3.983,3.977,0,0,0,51.8,3452.0151836272,0,41,Motors_Started,
1100,2021-03-18 08:48:55,40.1849619066261,33.3282861610788,0,,,3452.0151836272,0.328084,0,0.091721459628,20,5,0,3452.0151836272,0,0,0.091721459628,0,0,0,260.1, 3.2, 0.7,0,0,1024,1024,1024,1024,260.4,0,95,4.005,3.997,3.983,3.977,0,0,0,51.8,3452.0151836272,0,41,Motors_Started,
1200,2021-03-18 08:48:56,40.1849618903341,33.3282861805134,0,,,3452.0151836272,0.328084,0,0.0997539402,20,5,0,3452.0151836272,0,0,0.0997539402,0,0,0,260.2, 3.2, 0.6,0,0,1024,1024,1024,1024,260.4,0,95,4.005,3.997,3.983,3.977,0,0,0,51.8,3452.0151836272,0,11,AutoTakeoff,
1300,2021-03-18 08:48:56,40.1849617663466,33.3282861406887,0,,,3452.0151836272,0.328084,0,0.13287730084,20,5,0,3452.0151836272,0,0,0.13287730084,0,0,0,260.2, 3.2, 0.7,0,0,1024,1024,1024,1024,260.4,0,95,4.005,3.997,3.983,3.977,0,0,0,51.8,3452.0151836272,0,11,AutoTakeoff,
1400,2021-03-18 08:48:56,40.18496174007,33.3282861527827,0,,,3452.0151836272,0.328084,0,0.143017721112,20,5,0,3452.0151836272,0,0,0.143017721112,0,0,0,260.2, 3.2, 0.6,0,0,1024,1024,1024,1024,260.4,0,95,4.005,3.997,3.983,3.977,0,0,0,51.8,3452.0151836272,0,11,AutoTakeoff,
1500,2021-03-18 08:48:56,40.1849617856724,33.3282862803375,0,,,3452.0151836272,0.328084,0,0.146939309164,20,5,0,3452.0151836272,0,0,0.146939309164,0,0,0,260.1, 3.2, 0.7,0,0,1024,1024,1024,1024,260.4,0,95,4.005,3.997,3.983,3.977,0,0,0,51.8,3452.0151836272,0,11,AutoTakeoff,
1600,2021-03-18 08:48:56,40.1849617644829,33.328286301172,0,,,3452.0151836272,0.328084,0,0.156604991888,20,5,0,3452.0151836272,0,0,0.156604991888,0,0,0,260.1, 3.2, 0.6,0,0,1024,1024,1024,1024,260.4,0,95,4.005,3.997,3.983,3.977,0,0,0,51.8,3452.0151836272,0,11,AutoTakeoff,
1700,2021-03-18 08:48:56,40.1849618063224,33.328286249746,0,,,3452.0151836272,0.328084,0,0.135749348176,20,5,15.962,3452.0151836272,0,0,0.156604991888,0,0,0,260.2, 3.2, 0.6,0,0,1024,1024,1024,1024,260.4,0,95,4.005,3.997,3.983,3.977,0,0,4.119,51.8,3452.0151836272,0,11,AutoTakeoff,
1800,2021-03-18 08:48:56,40.1849617907489,33.3282862627584,0,,,3452.0151836272,0.328084,0,0.142464899572,20,5,15.962,3452.0151836272,0,0,0.156604991888,0,0,0,260.2, 3.2, 0.7,0,0,1024,1024,1024,1024,260.4,0,95,4.005,3.997,3.983,3.977,0,0,4.119,51.8,3452.0151836272,0,11,AutoTakeoff,
1900,2021-03-18 08:48:56,40.1849618256815,33.3282862294495,0,,,3452.0151836272,0.328084,0,0.126701447624,20,5,15.962,3452.0151836272,0,0,0.156604991888,0,0,0,260.1, 3, 0.6,0,0,1024,1024,1024,1024,260.4,0,95,4.005,3.997,3.983,3.977,0,0,4.119,51.8,3452.0151836272,0,11,AutoTakeoff,
2000,2021-03-18 08:48:56,40.1849618281522,33.328286258771,0,,,3452.0151836272,0.328084,0,0.13116142152,20,5,15.962,3452.0151836272,0,0,0.156604991888,0,0,0,259.3, 1.9, 0.8,0,0,1024,1024,1024,1024,260.4,0,95,4.005,3.997,3.983,3.977,0,0,4.119,51.8,3452.0151836272,0,11,AutoTakeoff,
2100,2021-03-18 08:48:56,40.1849617384415,33.3282862716298,0,,,3452.0151836272,0.328084,0,0.159415031348,20,5,15.962,3452.0151836272,0,0,0.159415031348,0,0,0,258.7, 0, 1,0,0,1024,1024,1024,1024,260.4,0,95,4.005,3.997,3.983,3.977,0,0,4.119,51.8,3452.0151836272,0,11,AutoTakeoff,
2200,2021-03-18 08:48:57,40.1849617780587,33.3282863214877,0,,,3452.0151836272,0.328084,0,0.156421921016,20,5,15.962,3452.0151836272,0,0,0.159415031348,0,0,-0.223694,259, -0.9, 1.3,0,0,1024,1024,1024,1024,260.4,0,95,4.005,3.997,3.983,3.977,0,0,4.119,51.8,3452.0151836272,0,11,AutoTakeoff,
2300,2021-03-18 08:48:57,40.18496190509,33.3282865023299,0,,,3452.0151836272,0.328084,0.223694,0.169168968668,20,5,15.962,3452.0151836272,0,0.223694,0.169168968668,0.223694,0,-0.671082,259.1, -0.2, 0.5,0,0,1024,1024,1024,1024,260.3,0,95,4.005,3.997,3.983,3.977,0,0,4.119,51.8,3452.0151836272,0,11,AutoTakeoff,
2400,2021-03-18 08:48:57,40.1849620124464,33.3282865674388,0,,,3452.0151836272,0.328084,0.223694,0.174506895348,20,5,15.962,3452.0151836272,0,0.223694,0.174506895348,0.223694,0,-0.894776,258.9, -0.4, -0.8,0,0,1024,1024,1024,1024,260.3,0,95,4.005,3.997,3.983,3.977,0,0,4.119,51.8,3452.0151836272,0,11,AutoTakeoff,
2500,2021-03-18 08:48:57,40.1849621049729,33.3282866675967,0.328084,,,3452.3432676272,0.328084,0.223694,0.199422906644,20,5,15.962,3452.3432676272,0.328084,0.223694,0.199422906644,0.223694,0,-0.894776,258.8, -0.4, -1.1,0,0,1024,1024,1024,1024,260.3,0,95,4.005,3.997,3.983,3.977,0,0,4.119,51.8,3452.3432676272,0.328084,11,AutoTakeoff,
2600,2021-03-18 08:48:57,40.1849622105192,33.3282867674539,0.328084,,,3452.3432676272,0.656168,0.223694,0.230746070376,20,5,15.962,3452.3432676272,0.328084,0.223694,0.230746070376,0.223694,0,-0.894776,258.6, -0.4, -1.3,0,0,1024,1024,1024,1024,260.3,0,95,4.005,3.997,3.983,3.977,0,0,4.119,51.8,3452.3432676272,0.328084,11,AutoTakeoff,
2700,2021-03-18 08:48:57,40.18496228446,33.3282870227779,0.328084,,,3452.3432676272,0.656168,0.31540854,0.305844169892,20,5,15.232,3452.3432676272,0.328084,0.31540854,0.305844169892,0.223694,0.223694,-0.894776,258.5, -0.5, -1.7,0,0,1024,1024,1024,1024,260.2,0,95,3.824,3.818,3.801,3.789,0,0,6.833,51.8,3452.3432676272,0.328084,11,AutoTakeoff,
2800,2021-03-18 08:48:57,40.1849623795,33.3282872269452,0.656168,,,3452.6713516272,0.984252,0.31540854,0.36958334516,20,5,15.232,3452.6713516272,0.656168,0.31540854,0.36958334516,0.223694,0.223694,-0.894776,258.5, -1.6, -1.5,0,0,1024,1024,1024,1024,260.2,0,95,3.824,3.818,3.801,3.789,0,0,6.833,51.8,3452.6713516272,0.656168,11,AutoTakeoff,
2900,2021-03-18 08:48:57,40.1849624671082,33.3282873796055,0.984252,,,3452.9994356272,0.984252,0.50107456,0.4197178612,20,5,15.232,3452.9994356272,0.984252,0.50107456,0.4197178612,0.223694,0.447388,-0.894776,258.6, -3.1, -1.1,0,0,1024,1024,1024,1024,260.2,0,95,3.824,3.818,3.801,3.789,0,0,6.833,51.8,3452.9994356272,0.984252,11,AutoTakeoff,
3000,2021-03-18 08:48:57,40.1849625827559,33.3282876478882,0.984252,,,3452.9994356272,1.312336,0.50107456,0.5042979164,20,5,15.232,3452.9994356272,0.984252,0.50107456,0.5042979164,0.223694,0.447388,-0.894776,258.7, -4.4, -1.4,0,0,1024,1024,1024,1024,260.2,0,95,3.824,3.818,3.801,3.789,0,0,6.833,51.8,3452.9994356272,0.984252,11,AutoTakeoff,
3100,2021-03-18 08:48:57,40.1849624032933,33.3282881452379,0.984252,,,3452.9994356272,1.312336,0.50107456,0.62116471804,20,5,15.232,3452.9994356272,0.984252,0.50107456,0.62116471804,0.223694,0.447388,-0.894776,258.8, -5.2, -1.9,0,0,1024,1024,1024,1024,260.1,0,95,3.824,3.818,3.801,3.789,0,0,6.833,51.8,3452.9994356272,0.984252,11,AutoTakeoff,
3200,2021-03-18 08:48:58,40.1849625950393,33.3282884614973,1.312336,,,3453.3275196272,1.64042,0.31540854,0.72229989188,20,5,15.232,3453.3275196272,1.312336,0.50107456,0.72229989188,0.223694,0.223694,-1.11847,259, -5.3, -2.1,0,0,1024,1024,1024,1024,260.1,0,95,3.824,3.818,3.801,3.789,0,0,6.833,51.8,3453.3275196272,1.312336,11,AutoTakeoff,
3300,2021-03-18 08:48:58,40.184962715117,33.3282887294144,1.64042,,,3453.6556036272,1.64042,0.31540854,0.80590225676,20,5,15.232,3453.6556036272,1.64042,0.50107456,0.80590225676,0.223694,0.223694,-1.11847,259, -5.6, -2.5,0,0,1024,1024,1024,1024,260.1,0,95,3.824,3.818,3.801,3.789,0,0,6.833,51.8,3453.6556036272,1.64042,11,AutoTakeoff,
3400,2021-03-18 08:48:58,40.1849628308041,33.3282890131939,1.968504,,,3453.9836876272,1.64042,0.50107456,0.89380908372,20,5,15.232,3453.9836876272,1.968504,0.50107456,0.89380908372,0.223694,0.447388,-1.11847,259.2, -5.9, -2.8,0,0,1024,1024,1024,1024,260.1,0,95,3.824,3.818,3.801,3.789,0,0,6.833,51.8,3453.9836876272,1.968504,11,AutoTakeoff,
3500,2021-03-18 08:48:58,40.184962757953,33.328289481726,1.968504,,,3453.9836876272,1.968504,0.50107456,1.01259517676,20,5,15.232,3453.9836876272,1.968504,0.50107456,1.01259517676,0.223694,0.447388,-1.11847,259.1, -6.4, -2.9,0,0,1024,1024,1024,1024,260.1,0,95,3.824,3.818,3.801,3.789,0,0,6.833,51.8,3453.9836876272,1.968504,11,AutoTakeoff,
3600,2021-03-18 08:48:58,40.1849628367954,33.3282898024464,2.296588,,,3454.3117716272,2.296588,0.50107456,1.10627956296,20,5,15.232,3454.3117716272,2.296588,0.50107456,1.10627956296,0.223694,0.447388,-1.11847,259, -7.2, -2.4,0,0,1024,1024,1024,1024,260,0,95,3.824,3.818,3.801,3.789,0,0,6.833,51.8,3454.3117716272,2.296588,11,AutoTakeoff,
3700,2021-03-18 08:48:58,40.1849630561882,33.3282901815138,2.296588,,,3454.3117716272,2.296588,0.50107456,1.22930778212,20,5,15.232,3454.3117716272,2.296588,0.50107456,1.22930778212,0.223694,0.447388,-1.11847,259.1, -8.2, -2.6,0,0,1024,1024,1024,1024,260,0,95,3.824,3.818,3.801,3.789,0,0,6.833,51.8,3454.3117716272,2.296588,11,AutoTakeoff,
3800,2021-03-18 08:48:58,40.1849631358569,33.3282904883663,2.624672,,,3454.6398556272,2.624672,0.50107456,1.31957353304,20,5,15.232,3454.6398556272,2.624672,0.50107456,1.31957353304,0.223694,0.447388,-0.894776,259.1, -8.2, -2.6,0,0,1024,1024,1024,1024,260,0,95,3.807,3.809,3.79,3.778,0,0,6.833,51.8,3454.6398556272,2.624672,11,AutoTakeoff,
3900,2021-03-18 08:48:58,40.1849631773642,33.3282909085494,2.624672,,,3454.6398556272,2.624672,0.447388,1.4362533268,20,5,15.232,3454.6398556272,2.624672,0.50107456,1.4362533268,0,0.447388,-0.894776,259.1, -8.5, -2.5,0,0,1024,1024,1024,1024,260,0,95,3.807,3.809,3.79,3.778,0,0,6.833,51.8,3454.6398556272,2.624672,11,AutoTakeoff,
4000,2021-03-18 08:48:58,40.1849631951821,33.3282911801039,2.952756,,,3454.9679396272,2.624672,0.223694,1.510908841,19,5,15.232,3454.9679396272,2.952756,0.50107456,1.510908841,0,0.223694,-0.894776,259.1, -8.2, -1.9,0,0,1024,1024,1024,1024,260,0,95,3.807,3.809,3.79,3.778,0,0,6.833,51.8,3454.9679396272,2.952756,11,AutoTakeoff,
4100,2021-03-18 08:48:58,40.1849630667443,33.3282912957719,2.952756,,,3454.9679396272,2.952756,0.223694,1.5305610726,19,5,15.232,3454.9679396272,2.952756,0.50107456,1.5305610726,0,0.223694,-0.894776,259, -7.5, -1.1,0,0,1024,1024,1024,1024,260,0,95,3.807,3.809,3.79,3.778,0,0,6.833,51.8,3454.9679396272,2.952756,11,AutoTakeoff,
4200,2021-03-18 08:48:59,40.1849630414902,33.3282914566561,2.952756,,,3454.9679396272,2.952756,0,1.57219821304,19,5,15.232,3454.9679396272,2.952756,0.50107456,1.57219821304,0,0,-1.11847,259, -7, -1,0,0,1024,1024,1024,1024,260,0,95,3.807,3.809,3.79,3.778,0,0,6.833,51.8,3454.9679396272,2.952756,11,AutoTakeoff,
4300,2021-03-18 08:48:59,40.1849634682602,33.328291735539,3.28084,,,3455.2960236272,3.28084,0,1.68745412224,19,5,15.232,3455.2960236272,3.28084,0.50107456,1.68745412224,0,0,-1.11847,258.8, -6.7, -1.9,0,0,1024,1024,1024,1024,259.9,0,95,3.807,3.809,3.79,3.778,0,0,6.833,51.8,3455.2960236272,3.28084,11,AutoTakeoff,
4400,2021-03-18 08:48:59,40.1849634927135,33.3282918695656,3.28084,,,3455.2960236272,3.28084,0,1.72578089512,20,5,15.232,3455.2960236272,3.28084,0.50107456,1.72578089512,0,0,-1.11847,258.8, -7.2, -2.9,0,0,1024,1024,1024,1024,259.9,0,95,3.807,3.809,3.79,3.778,0,0,6.833,51.8,3455.2960236272,3.28084,11,AutoTakeoff,
4500,2021-03-18 08:48:59,40.184963432152,33.3282918751432,3.608924,,,3455.6241076272,3.608924,0,1.7208990052,20,5,15.232,3455.6241076272,3.608924,0.50107456,1.72578089512,0,0,-0.894776,258.8, -5.7, -2,0,0,1024,1024,1024,1024,259.9,0,95,3.807,3.809,3.79,3.778,0,0,6.833,51.8,3455.6241076272,3.608924,14,Waypoint,
4600,2021-03-18 08:48:59,40.1849634718616,33.3282920415841,3.608924,,,3455.6241076272,3.608924,0.223694,1.76949480728,19,5,15.232,3455.6241076272,3.608924,0.50107456,1.76949480728,0,0.223694,-1.11847,258.7, -3.5, -1.8,0,0,1024,1024,1024,1024,259.9,0,95,3.807,3.809,3.79,3.778,0,0,6.833,51.8,3455.6241076272,3.608924,14,Waypoint,
4700,2021-03-18 08:48:59,40.1849635110907,33.3282919715087,3.937008,,,3455.9521916272,3.937008,0.223694,1.75491147348,19,5,15.232,3455.9521916272,3.937008,0.50107456,1.76949480728,0,0.223694,-1.11847,258.7, -4.7, -1.5,0,0,1024,1024,1024,1024,259.9,0,95,3.807,3.809,3.79,3.778,0,0,6.833,51.8,3455.9521916272,3.937008,14,Waypoint,
4800,2021-03-18 08:48:59,40.1849635613492,33.3282922321286,4.265092,,,3456.2802756272,3.937008,0.223694,1.8297408722,20,5,15.014,3456.2802756272,4.265092,0.50107456,1.8297408722,0,0.223694,-1.11847,259.1, -5.6, -1.4,0,0,1024,1024,1024,1024,259.8,0,95,3.786,3.779,3.788,3.661,0,0,8.379,51.8,3456.2802756272,4.265092,14,Waypoint,
4900,2021-03-18 08:48:59,40.1849637199713,33.3282923394279,4.265092,,,3456.2802756272,4.265092,0.31540854,1.8757874616,20,5,15.014,3456.2802756272,4.265092,0.50107456,1.8757874616,0.223694,0.223694,-1.11847,259.2, -6.7, -2.3,0,0,1024,1024,1024,1024,259.8,0,95,3.786,3.779,3.788,3.661,0,0,8.379,51.8,3456.2802756272,4.265092,14,Waypoint,
5000,2021-03-18 08:48:59,40.1849637920512,33.3282925999658,4.593176,,,3456.6083596272,4.593176,0.31540854,1.95299546932,20,5,15.014,3456.6083596272,4.593176,0.50107456,1.95299546932,0.223694,0.223694,-1.11847,259, -7.4, -2.2,0,0,1024,1024,1024,1024,259.8,0,95,3.786,3.779,3.788,3.661,0,0,8.379,51.8,3456.6083596272,4.593176,14,Waypoint,
5100,2021-03-18 08:48:59,40.1849639978125,33.3282928123997,4.593176,,,3456.6083596272,4.593176,0.50107456,2.03357289972,20,5,15.014,3456.6083596272,4.593176,0.50107456,2.03357289972,0.223694,0.447388,-0.894776,259.1, -7.5, -1.9,0,0,1024,1024,1024,1024,259.8,0,95,3.786,3.779,3.788,3.661,0,0,8.379,51.8,3456.6083596272,4.593176,14,Waypoint,
5200,2021-03-18 08:49:00,40.1849641835825,33.3282931077923,4.92126,,,3456.9364436272,4.92126,0.50107456,2.13435702368,20,5,15.014,3456.9364436272,4.92126,0.50107456,2.13435702368,0.223694,0.447388,-1.11847,259.1, -7.4, -2.2,0,0,1024,1024,1024,1024,259.8,0,95,3.786,3.779,3.788,3.661,0,0,8.379,51.8,3456.9364436272,4.92126,14,Waypoint,
5300,2021-03-18 08:49:00,40.1849643009479,33.3282933789603,4.92126,,,3456.9364436272,4.92126,0.50107456,2.22027238076,20,5,15.014,3456.9364436272,4.92126,0.50107456,2.22027238076,0.223694,0.447388,-1.565858,259.3, -7.3, -1.8,0,0,1024,1024,1024,1024,259.7,0,95,3.786,3.779,3.788,3.661,0,0,8.379,51.8,3456.9364436272,4.92126,14,Waypoint,
5400,2021-03-18 08:49:00,40.1849644362132,33.3282936466936,5.249344,,,3457.2645276272,5.249344,0.31540854,2.30777238356,20,5,15.014,3457.2645276272,5.249344,0.50107456,2.30777238356,0.223694,0.223694,-2.460634,259.2, -7.3, -2.9,0,0,1024,1024,1024,1024,259.7,0,95,3.786,3.779,3.788,3.661,0,0,8.379,51.8,3457.2645276272,5.249344,14,Waypoint,
5500,2021-03-18 08:49:00,40.1849648974359,33.3282935062432,5.905512,,,3457.9206956272,5.905512,0.31540854,2.3397638544,20,5,15.014,3457.9206956272,5.905512,0.50107456,2.3397638544,0.223694,0.223694,-3.35541,259.3, -7.7, -4,0,0,1024,1024,1024,1024,259.7,0,95,3.786,3.779,3.788,3.661,0,0,8.379,51.8,3457.9206956272,5.905512,14,Waypoint,
5600,2021-03-18 08:49:00,40.1849650295983,33.3282937069466,6.233596,,,3458.2487796272,6.233596,0.31540854,2.41121070708,20,5,15.014,3458.2487796272,6.233596,0.50107456,2.41121070708,0.223694,0.223694,-4.026492,259.4, -8, -4.3,0,0,1024,1024,1024,1024,259.7,0,95,3.786,3.779,3.788,3.661,0,0,8.379,51.8,3458.2487796272,6.233596,14,Waypoint,
5700,2021-03-18 08:49:00,40.1849648523175,33.3282939150968,6.889764,,,3458.9049476272,7.217848,0.223694,2.43599417244,20,5,15.014,3458.9049476272,6.889764,0.50107456,2.43599417244,0,0.223694,-4.921268,259.5, -8.3, -3.6,0,0,1024,1024,1024,1024,259.6,0,95,3.786,3.779,3.788,3.661,0,0,8.379,51.8,3458.9049476272,6.889764,14,Waypoint,
5800,2021-03-18 08:49:00,40.184964874005,33.3282940443355,7.874016,,,3459.8891996272,7.874016,0.223694,2.47208997412,20,5,14.495,3459.8891996272,7.874016,0.50107456,2.47208997412,0,0.223694,-5.59235,259.3, -7.3, -3.3,0,0,1024,1024,1024,1024,259.6,0,95,3.587,3.595,3.587,3.579,0,0,10.524,51.8,3459.8891996272,7.874016,14,Waypoint,
5900,2021-03-18 08:49:00,40.1849651795456,33.3282937696567,8.530184,,,3460.5453676272,8.858268,0,2.45147317556,20,5,14.495,3460.5453676272,8.530184,0.50107456,2.47208997412,0,0,-6.487126,259.3, -6.8, -2.4,0,0,1024,1024,1024,1024,259.6,0,95,3.587,3.595,3.587,3.579,0,0,10.524,51.8,3460.5453676272,8.530184,14,Waypoint,
6000,2021-03-18 08:49:00,40.1849651280129,33.3282938505871,9.514436,,,3461.5296196272,9.84252,0.223694,2.46305454076,20,5,14.495,3461.5296196272,9.514436,0.50107456,2.47208997412,0,0.223694,-6.71082,259.3, -7.2, -1.7,0,0,1024,1024,1024,1024,259.6,0,95,3.587,3.595,3.587,3.579,0,0,10.524,51.8,3461.5296196272,9.514436,14,Waypoint,
6100,2021-03-18 08:49:00,40.1849653047825,33.3282943824756,10.498688,,,3462.5138716272,10.826772,0.31540854,2.62450467716,20,5,14.495,3462.5138716272,10.498688,0.50107456,2.62450467716,-0.223694,0.223694,-6.71082,259.2, -8.1, -1.5,0,0,1024,1024,1024,1024,259.6,0,95,3.587,3.595,3.587,3.579,0,0,10.524,51.8,3462.5138716272,10.498688,14,Waypoint,
6200,2021-03-18 08:49:01,40.1849652499962,33.3282945399966,11.811024,,,3463.8262076272,11.811024,0.31540854,2.65517725032,20,5,14.495,3463.8262076272,11.811024,0.50107456,2.65517725032,-0.223694,0.223694,-6.934514,259.1, -8.7, -0.7,0,0,1024,1024,1024,1024,259.6,0,95,3.587,3.595,3.587,3.579,0,0,10.524,51.8,3463.8262076272,11.811024,14,Waypoint,
6300,2021-03-18 08:49:01,40.1849652510166,33.3282946534663,12.795276,,,3464.8104596272,12.795276,0.31540854,2.68388460032,20,5,14.495,3464.8104596272,12.795276,0.50107456,2.68388460032,-0.223694,0.223694,-6.934514,259, -8.6, -0.1,0,0,1024,1024,1024,1024,259.5,0,95,3.587,3.595,3.587,3.579,0,0,10.524,51.8,3464.8104596272,12.795276,14,Waypoint,
6400,2021-03-18 08:49:01,40.1849652198852,33.3282947918681,13.779528,,,3465.7947116272,13.779528,0.31540854,2.71401255404,20,5,14.495,3465.7947116272,13.779528,0.50107456,2.71401255404,-0.223694,0.223694,-7.158208,259.2, -8.4, -0.2,0,0,1024,1024,1024,1024,259.5,0,95,3.587,3.595,3.587,3.579,0,0,10.524,51.8,3465.7947116272,13.779528,14,Waypoint,
6500,2021-03-18 08:49:01,40.1849650000666,33.3282948303624,14.76378,,,3466.7789636272,14.76378,0.223694,2.69123696276,20,5,14.495,3466.7789636272,14.76378,0.50107456,2.71401255404,0,0.223694,-7.381902,259.1, -8.7, -0.2,0,0,1024,1024,1024,1024,259.5,0,95,3.587,3.595,3.587,3.579,0,0,10.524,51.8,3466.7789636272,14.76378,14,Waypoint,
6600,2021-03-18 08:49:01,40.1849649849569,33.3282949396486,16.076116,,,3468.0912996272,15.748032,0.223694,2.71713263288,20,5,14.495,3468.0912996272,16.076116,0.50107456,2.71713263288,0,0.223694,-7.158208,259.2, -9.1, -0.5,0,0,1024,1024,1024,1024,259.5,0,95,3.587,3.595,3.587,3.579,0,0,10.524,51.8,3468.0912996272,16.076116,14,Waypoint,
6700,2021-03-18 08:49:01,40.1849647153183,33.3282953658843,17.060368,,,3469.0755516272,16.732284,0,2.79191938068,20,5,14.495,3469.0755516272,17.060368,0.50107456,2.79191938068,0,0,-7.158208,259.2, -9.2, -0.3,0,0,1024,1024,1024,1024,259.5,0,95,3.587,3.595,3.587,3.579,0,0,10.524,51.8,3469.0755516272,17.060368,14,Waypoint,
6800,2021-03-18 08:49:01,40.1849647017707,33.3282954638247,18.04462,,,3470.0598036272,17.716536,0,2.81592200612,20,5,14.495,3470.0598036272,18.04462,0.50107456,2.81592200612,0,0,-7.158208,259.1, -9.1, -0.5,0,0,1024,1024,1024,1024,259.5,0,95,3.587,3.595,3.587,3.579,0,0,10.524,51.8,3470.0598036272,18.04462,14,Waypoint,
6900,2021-03-18 08:49:01,40.1849648875728,33.328295852868,19.028872,,,3471.0440556272,18.700788,0,2.94098762692,20,5,14.776,3471.0440556272,19.028872,0.50107456,2.94098762692,0,0,-7.158208,259.1, -9.1, -1.2,0,0,1024,1024,1024,1024,259.5,0,95,3.7,3.703,3.691,3.682,0,0,9.861,51.98,3471.0440556272,19.028872,14,Waypoint,
7000,2021-03-18 08:49:01,40.184964900464,33.3282959464105,20.341208,,,3472.3563916272,19.68504,0,2.96708342828,20,5,14.776,3472.3563916272,20.341208,0.50107456,2.96708342828,0,0,-6.934514,259.1, -8.9, -1,0,0,1024,1024,1024,1024,259.5,0,95,3.7,3.703,3.691,3.682,0,0,9.861,51.98,3472.3563916272,20.341208,14,Waypoint,
7100,2021-03-18 08:49:01,40.1849646378806,33.3282960189704,21.32546,,,3473.3406436272,20.669292,0,2.95468185308,20,5,14.776,3473.3406436272,21.32546,0.50107456,2.96708342828,0,0,-6.934514,259, -8.7, -0.6,0,0,1024,1024,1024,1024,259.5,0,95,3.7,3.703,3.691,3.682,0,0,9.861,51.98,3473.3406436272,21.32546,14,Waypoint,
7200,2021-03-18 08:49:02,40.1849646414804,33.3282960830765,22.309712,,,3474.3248956272,21.653544,0,2.9720637434,20,5,14.776,3474.3248956272,22.309712,0.50107456,2.9720637434,0,0,-6.71082,259, -8.6, -0.7,0,0,1024,1024,1024,1024,259.5,0,95,3.7,3.703,3.691,3.682,0,0,9.861,51.98,3474.3248956272,22.309712,14,Waypoint,
7300,2021-03-18 08:49:02,40.184964687015,33.3282960862039,23.293964,,,3475.3091476272,22.637796,0,2.97811361236,20,5,14.776,3475.3091476272,23.293964,0.50107456,2.97811361236,0,0,-6.71082,259, -8.3, -1.1,0,0,1024,1024,1024,1024,259.4,0,95,3.7,3.703,3.691,3.682,0,0,9.861,51.98,3475.3091476272,23.293964,14,Waypoint,
7400,2021-03-18 08:49:02,40.1849647002876,33.3282961229463,24.278216,,,3476.2933996272,23.293964,0,2.98936361272,20,5,14.776,3476.2933996272,24.278216,0.50107456,2.98936361272,0,0,-6.71082,259, -8.2, -1,0,0,1024,1024,1024,1024,259.4,0,95,3.7,3.703,3.691,3.682,0,0,9.861,51.98,3476.2933996272,24.278216,14,Waypoint,
7500,2021-03-18 08:49:02,40.1849644298675,33.3282963690044,25.262468,,,3477.2776516272,24.278216,0,3.02530193408,20,5,14.776,3477.2776516272,25.262468,0.50107456,3.02530193408,0,0,-6.71082,259, -8.4, -0.8,0,0,1024,1024,1024,1024,259.4,0,95,3.7,3.703,3.691,3.682,0,0,9.861,51.98,3477.2776516272,25.262468,14,Waypoint,
7600,2021-03-18 08:49:02,40.1849644262007,33.3282964207912,26.24672,,,3478.2619036272,25.262468,0,3.03878290564,20,5,14.776,3478.2619036272,26.24672,0.50107456,3.03878290564,0,0,-6.71082,259, -8.7, -1.2,0,0,1024,1024,1024,1024,259.4,0,95,3.7,3.703,3.691,3.682,0,0,9.861,51.98,3478.2619036272,26.24672,14,Waypoint,
7700,2021-03-18 08:49:02,40.1849646224468,33.3282962509945,27.230972,,,3479.2461556272,26.24672,0,3.01444235368,20,5,14.776,3479.2461556272,27.230972,0.50107456,3.03878290564,0,0,-6.487126,259, -8.6, -1.6,0,0,1024,1024,1024,1024,259.4,0,95,3.7,3.703,3.691,3.682,0,0,9.861,51.98,3479.2461556272,27.230972,14,Waypoint,
7800,2021-03-18 08:49:02,40.18496463431,33.3282962691565,28.215224,,,3480.2304076272,26.902888,0,3.02058408616,20,5,14.776,3480.2304076272,28.215224,0.50107456,3.03878290564,0,0,-6.487126,258.9, -8.3, -1.3,0,0,1024,1024,1024,1024,259.4,0,95,3.7,3.703,3.691,3.682,0,0,9.861,51.98,3480.2304076272,28.215224,14,Waypoint,
7900,2021-03-18 08:49:02,40.1849644686711,33.328296481725,29.199476,,,3481.2146596272,27.88714,0,3.05943579344,20,5,14.782,3481.2146596272,29.199476,0.50107456,3.05943579344,0,0,-6.487126,259, -8.5, -0.9,0,0,1024,1024,1024,1024,259.4,0,95,3.716,3.706,3.687,3.673,0,0,8.476,51.98,3481.2146596272,29.199476,14,Waypoint,
8000,2021-03-18 08:49:02,40.1849644627018,33.3282965024062,30.183728,,,3482.1989116272,28.543308,0,3.0643537726,20,5,14.782,3482.1989116272,30.183728,0.50107456,3.0643537726,0,0,-6.487126,259, -8.5, -0.7,0,0,1024,1024,1024,1024,259.4,0,95,3.716,3.706,3.687,3.673,0,0,8.476,51.98,3482.1989116272,30.183728,14,Waypoint,
8100,2021-03-18 08:49:02,40.1849646248174,33.328296533802,31.16798,,,3483.1831636272,29.52756,0,3.08985902276,20,5,14.782,3483.1831636272,31.16798,0.50107456,3.08985902276,0,0,-6.71082,259, -8.5, -0.9,0,0,1024,1024,1024,1024,259.4,0,95,3.716,3.706,3.687,3.673,0,0,8.476,51.98,3483.1831636272,31.16798,14,Waypoint,
8200,2021-03-18 08:49:03,40.1849646581903,33.3282965396595,32.152232,,,3484.1674156272,30.511812,0,3.09506899668,20,5,14.782,3484.1674156272,32.152232,0.50107456,3.09506899668,0,0,-6.71082,259.1, -8.6, -1.6,0,0,1024,1024,1024,1024,259.4,0,95,3.716,3.706,3.687,3.673,0,0,8.476,51.98,3484.1674156272,32.152232,14,Waypoint,
8300,2021-03-18 08:49:03,40.1849643598495,33.3282964132112,33.136484,,,3485.1516676272,31.496064,0,3.03008211796,20,5,14.782,3485.1516676272,33.136484,0.50107456,3.09506899668,0,0,-6.71082,259, -8.2, -1.7,0,0,1024,1024,1024,1024,259.4,0,95,3.716,3.706,3.687,3.673,0,0,8.476,51.98,3485.1516676272,33.136484,14,Waypoint,
8400,2021-03-18 08:49:03,40.1849642559868,33.3282964812541,34.120736,,,3486.1359196272,32.152232,0,3.03831046468,20,5,14.782,3486.1359196272,34.120736,0.50107456,3.09506899668,0,0,-6.71082,259.1, -7.9, -1.6,0,0,1024,1024,1024,1024,259.4,0,95,3.716,3.706,3.687,3.673,0,0,8.476,51.98,3486.1359196272,34.120736,14,Waypoint,
8500,2021-03-18 08:49:03,40.1849642578962,33.3282964393282,35.104988,,,3487.1201716272,33.136484,0,3.02720482128,20,5,14.782,3487.1201716272,35.104988,0.50107456,3.09506899668,0,0,-6.71082,259.1, -7.9, -1.7,0,0,1024,1024,1024,1024,259.4,0,95,3.716,3.706,3.687,3.673,0,0,8.476,51.98,3487.1201716272,35.104988,14,Waypoint,
8600,2021-03-18 08:49:03,40.1849642625486,33.3282964049353,36.08924,,,3488.1044236272,34.120736,0,3.01839248504,20,5,14.782,3488.1044236272,36.08924,0.50107456,3.09506899668,0,0,-6.487126,259.1, -7.9, -1.8,0,0,1024,1024,1024,1024,259.4,0,95,3.716,3.706,3.687,3.673,0,0,8.476,51.98,3488.1044236272,36.08924,14,Waypoint,
8700,2021-03-18 08:49:03,40.1849641290951,33.3282963985543,37.073492,,,3489.0886756272,35.104988,0,3.00431111976,20,5,14.782,3489.0886756272,37.073492,0.50107456,3.09506899668,0,0,-6.487126,259.1, -8, -1.8,0,0,1024,1024,1024,1024,259.4,0,95,3.716,3.706,3.687,3.673,0,0,8.476,51.98,3489.0886756272,37.073492,14,Waypoint,
8800,2021-03-18 08:49:03,40.1849641255733,33.3282963706245,38.057744,,,3490.0729276272,36.08924,0,2.99645022712,20,5,14.782,3490.0729276272,38.057744,0.50107456,3.09506899668,0,0,-6.487126,259, -8.1, -1.9,0,0,1024,1024,1024,1024,259.4,0,95,3.716,3.706,3.687,3.673,0,0,8.476,51.98,3490.0729276272,38.057744,14,Waypoint,
8900,2021-03-18 08:49:03,40.1849644569507,33.3282961548361,39.041996,,,3491.0571796272,37.073492,0,2.9708990452,20,5,14.782,3491.0571796272,39.041996,0.50107456,3.09506899668,0,0,-6.487126,259.1, -8, -2.3,0,0,1024,1024,1024,1024,259.4,0,95,3.716,3.706,3.687,3.673,0,0,8.476,51.98,3491.0571796272,39.041996,14,Waypoint,
9000,2021-03-18 08:49:03,40.1849644554252,33.3282961360455,40.026248,,,3492.0414316272,37.401576,0,2.96572516052,20,5,14.782,3492.0414316272,40.026248,0.50107456,3.09506899668,0,0,-6.487126,259.1, -8.2, -2,0,0,1024,1024,1024,1024,259.4,0,95,3.714,3.714,3.7,3.692,0,0,8.476,51.98,3492.0414316272,40.026248,14,Waypoint,
9100,2021-03-18 08:49:03,40.1849642188068,33.3282961258986,41.0105,,,3493.0256836272,37.401576,0,2.93915035652,20,5,14.782,3493.0256836272,41.0105,0.50107456,3.09506899668,0,0,-6.487126,259, -8.3, -1.7,0,0,1024,1024,1024,1024,259.4,0,95,3.714,3.714,3.7,3.692,0,0,8.476,51.98,3493.0256836272,41.0105,14,Waypoint,
9200,2021-03-18 08:49:04,40.1849641782614,33.3282961338129,41.994752,,,3494.0099356272,37.401576,0,2.93742791552,20,5,14.782,3494.0099356272,41.994752,0.50107456,3.09506899668,0,0,-6.487126,259, -8.5, -1.3,0,0,1024,1024,1024,1024,259.4,0,95,3.714,3.714,3.7,3.692,0,0,8.476,51.98,3494.0099356272,41.994752,14,Waypoint,
9300,2021-03-18 08:49:04,40.1849644409606,33.328296270324,42.979004,,,3494.9941876272,37.401576,0,3.00006243196,20,5,14.782,3494.9941876272,42.979004,0.50107456,3.09506899668,0,0,-6.487126,259, -8.7, -1.3,0,0,1024,1024,1024,1024,259.4,0,95,3.714,3.714,3.7,3.692,0,0,8.476,51.98,3494.9941876272,42.979004,14,Waypoint,
9400,2021-03-18 08:49:04,40.1849644112622,33.3282963156142,43.963256,,,3495.9784396272,37.401576,0,3.00911426952,20,5,14.782,3495.9784396272,43.963256,0.50107456,3.09506899668,0,0,-6.487126,259, -8.9, -1,0,0,1024,1024,1024,1024,259.4,0,95,3.714,3.714,3.7,3.692,0,0,8.476,51.98,3495.9784396272,43.963256,14,Waypoint,
9500,2021-03-18 08:49:04,40.1849642300395,33.3282963648685,44.947508,,,3496.9626916272,37.401576,0,3.00452437436,20,5,14.782,3496.9626916272,44.947508,0.50107456,3.09506899668,0,0,-6.71082,259, -9, -0.7,0,0,1024,1024,1024,1024,259.3,0,95,3.714,3.714,3.7,3.692,0,0,8.476,51.98,3496.9626916272,44.947508,14,Waypoint,
9600,2021-03-18 08:49:04,40.1849641851144,33.328296399644,45.93176,,,3497.9469436272,37.401576,0,3.00970482072,20,5,14.782,3497.9469436272,45.93176,0.50107456,3.09506899668,0,0,-6.71082,259, -9.2, -0.8,0,0,1024,1024,1024,1024,259.3,0,95,3.714,3.714,3.7,3.692,0,0,8.476,51.98,3497.9469436272,45.93176,14,Waypoint,
9700,2021-03-18 08:49:04,40.1849645491675,33.328296501346,46.916012,,,3498.9311956272,37.401576,0,3.07309064952,20,5,14.782,3498.9311956272,46.916012,0.50107456,3.09506899668,0,0,-6.71082,259.1, -9.3, -1.2,0,0,1024,1024,1024,1024,259.3,0,95,3.714,3.714,3.7,3.692,0,0,8.476,51.98,3498.9311956272,46.916012,14,Waypoint,
9800,2021-03-18 08:49:04,40.1849645457836,33.3282965331341,47.900264,,,3499.9154476272,37.401576,0,3.08121072852,19,5,14.782,3499.9154476272,47.900264,0.50107456,3.09506899668,0,0,-6.487126,259.2, -9.3, -1.2,0,0,1024,1024,1024,1024,259.3,0,95,3.714,3.714,3.7,3.692,0,0,8.476,51.98,3499.9154476272,47.900264,14,Waypoint,
9900,2021-03-18 08:49:04,40.1849647404053,33.3282965648879,48.884516,,,3500.8996996272,37.401576,0,3.11092857724,19,5,14.782,3500.8996996272,48.884516,0.50107456,3.11092857724,0,0,-6.71082,259.1, -9.1, -1.4,0,0,1024,1024,1024,1024,259.3,0,95,3.714,3.714,3.7,3.692,0,0,8.476,51.98,3500.8996996272,48.884516,14,Waypoint,
10000,2021-03-18 08:49:04,40.1849647473801,33.3282965930777,49.868768,,,3501.8839516272,37.401576,0,3.11918645152,19,5,14.819,3501.8839516272,49.868768,0.50107456,3.11918645152,0,0,-6.71082,259.1, -9.4, -1.5,0,0,1024,1024,1024,1024,259.3,0,95,3.705,3.698,3.675,3.658,0,0,8.396,52.16,3501.8839516272,49.868768,14,Waypoint,
10100,2021-03-18 08:49:04,40.1849645739399,33.3282968130762,50.85302,,,3502.8682036272,37.401576,0,3.15889773888,19,5,14.819,3502.8682036272,50.85302,0.50107456,3.15889773888,0,0,-6.71082,259.1, -9.7, -1.2,0,0,1024,1024,1024,1024,259.3,0,95,3.705,3.698,3.675,3.658,0,0,8.396,52.16,3502.8682036272,50.85302,14,Waypoint,
10200,2021-03-18 08:49:05,40.184964559526,33.3282968790904,51.837272,,,3503.8524556272,37.401576,0,3.17504603336,19,5,14.819,3503.8524556272,51.837272,0.50107456,3.17504603336,0,0,-6.487126,259.1, -10.2, -1.1,0,0,1024,1024,1024,1024,259.3,0,95,3.705,3.698,3.675,3.658,0,0,8.396,52.16,3503.8524556272,51.837272,14,Waypoint,
10300,2021-03-18 08:49:05,40.1849645411924,33.3282969849107,52.821524,,,3504.8367076272,37.401576,0,3.20148632292,19,5,14.819,3504.8367076272,52.821524,0.50107456,3.20148632292,0,0,-6.487126,259, -10.5, -0.8,0,0,1024,1024,1024,1024,259.3,0,95,3.705,3.698,3.675,3.658,0,0,8.396,52.16,3504.8367076272,52.821524,14,Waypoint,
10400,2021-03-18 08:49:05,40.1849645252777,33.328297093773,53.477692,,,3505.4928756272,37.401576,0,3.22904537892,20,5,14.819,3505.4928756272,53.477692,0.50107456,3.22904537892,0,0,-6.487126,259, -10.6, -0.3,0,0,1024,1024,1024,1024,259.3,0,95,3.705,3.698,3.675,3.658,0,0,8.396,52.16,3505.4928756272,53.477692,14,Waypoint,
10500,2021-03-18 08:49:05,40.1849645407845,33.3282973304676,54.461944,,,3506.4771276272,37.401576,0,3.2940617852,20,5,14.819,3506.4771276272,54.461944,0.50107456,3.2940617852,0,0,-6.71082,259, -11, -0.6,0,0,1024,1024,1024,1024,259.3,0,95,3.705,3.698,3.675,3.658,0,0,8.396,52.16,3506.4771276272,54.461944,14,Waypoint,
10600,2021-03-18 08:49:05,40.1849645296984,33.328297406094,55.446196,,,3507.4613796272,37.401576,0,3.3132875076,20,5,14.819,3507.4613796272,55.446196,0.50107456,3.3132875076,0,0,-6.71082,259.1, -11.4, -0.8,0,0,1024,1024,1024,1024,259.3,0,95,3.705,3.698,3.675,3.658,0,0,8.396,52.16,3507.4613796272,55.446196,14,Waypoint,
10700,2021-03-18 08:49:05,40.1849638008198,33.3282973374457,56.430448,,,3508.4456316272,37.401576,0,3.23349091712,20,5,14.819,3508.4456316272,56.430448,0.50107456,3.3132875076,0,0,-6.487126,259, -11, -0.2,0,0,1024,1024,1024,1024,259.3,0,95,3.705,3.698,3.675,3.658,0,0,8.396,52.16,3508.4456316272,56.430448,14,Waypoint,
10800,2021-03-18 08:49:05,40.18496377526,33.3282973600827,57.4147,,,3509.4298836272,37.401576,0,3.2379102086,20,5,14.819,3509.4298836272,57.4147,0.50107456,3.3132875076,0,0,-6.487126,259, -10.8, -0.2,0,0,1024,1024,1024,1024,259.3,0,95,3.705,3.698,3.675,3.658,0,0,8.396,52.16,3509.4298836272,57.4147,14,Waypoint,
10900,2021-03-18 08:49:05,40.1849644510327,33.328297374959,58.398952,,,3510.4141356272,37.401576,0,3.2973426252,20,5,14.819,3510.4141356272,58.398952,0.50107456,3.3132875076,0,0,-6.487126,259.1, -10.8, -1.2,0,0,1024,1024,1024,1024,259.3,0,95,3.705,3.698,3.675,3.658,0,0,8.396,52.16,3510.4141356272,58.398952,14,Waypoint,
11000,2021-03-18 08:49:05,40.1849644877619,33.3282973725274,59.383204,,,3511.3983876272,37.401576,0,3.300196956,19,5,14.737,3511.3983876272,59.383204,0.50107456,3.3132875076,0,0,-6.487126,259.2, -10.8, -1.7,0,0,1024,1024,1024,1024,259.3,0,95,3.664,3.66,3.645,3.622,0,0,8.772,52.34,3511.3983876272,59.383204,14,Waypoint,
11100,2021-03-18 08:49:05,40.184964368651,33.3282973450853,60.367456,,,3512.3826396272,37.401576,0,3.2815945932,19,5,14.737,3512.3826396272,60.367456,0.50107456,3.3132875076,0,0,-6.487126,259.1, -10.8, -1.5,0,0,1024,1024,1024,1024,259.3,0,95,3.664,3.66,3.645,3.622,0,0,8.772,52.34,3512.3826396272,60.367456,14,Waypoint,
11200,2021-03-18 08:49:06,40.1849643884737,33.3282973238574,61.351708,,,3513.3668916272,37.401576,0,3.27771007864,20,5,14.737,3513.3668916272,61.351708,0.50107456,3.3132875076,0,0,-6.487126,259.2, -10.6, -1.4,0,0,1024,1024,1024,1024,259.3,0,95,3.664,3.66,3.645,3.622,0,0,8.772,52.34,3513.3668916272,61.351708,14,Waypoint,
11300,2021-03-18 08:49:06,40.1849642037287,33.3282974085116,62.33596,,,3514.3511436272,37.401576,0,3.28412084,20,5,14.737,3514.3511436272,62.33596,0.50107456,3.3132875076,0,0,-6.71082,259.1, -10.9, -1.4,0,0,1024,1024,1024,1024,259.3,0,95,3.664,3.66,3.645,3.622,0,0,8.772,52.34,3514.3511436272,62.33596,14,Waypoint,
11400,2021-03-18 08:49:06,40.1849642327689,33.3282974017641,63.320212,,,3515.3353956272,37.401576,0,3.2848098164,20,5,14.737,3515.3353956272,63.320212,0.50107456,3.3132875076,0,0,-6.71082,259.1, -11.2, -1.7,0,0,1024,1024,1024,1024,259.3,0,95,3.664,3.66,3.645,3.622,0,0,8.772,52.34,3515.3353956272,63.320212,14,Waypoint,
11500,2021-03-18 08:49:06,40.1849644088852,33.3282974073077,64.304464,,,3516.3196476272,37.401576,0,3.3020998432,20,5,14.737,3516.3196476272,64.304464,0.50107456,3.3132875076,0,0,-6.71082,259.2, -11.7, -2.1,0,0,1024,1024,1024,1024,259.3,0,95,3.664,3.66,3.645,3.622,0,0,8.772,52.34,3516.3196476272,64.304464,14,Waypoint,
11600,2021-03-18 08:49:06,40.1849644516231,33.3282974151974,64.960632,,,3516.9758156272,37.401576,0,3.308235014,20,5,14.737,3516.9758156272,64.960632,0.50107456,3.3132875076,0,0,-6.487126,259.2, -11.9, -2.2,0,0,1024,1024,1024,1024,259.3,0,95,3.664,3.66,3.645,3.622,0,0,8.772,52.34,3516.9758156272,64.960632,14,Waypoint,
11700,2021-03-18 08:49:06,40.1849641156704,33.3282973121822,65.944884,,,3517.9600676272,37.401576,0,3.25061690192,20,5,14.737,3517.9600676272,65.944884,0.50107456,3.3132875076,0,0,-6.487126,259.1, -11.7, -1.7,0,0,1024,1024,1024,1024,259.3,0,95,3.664,3.66,3.645,3.622,0,0,8.772,52.34,3517.9600676272,65.944884,14,Waypoint,
11800,2021-03-18 08:49:06,40.1849641194113,33.3282972986199,66.601052,,,3518.6162356272,37.401576,0,3.2472441984,20,5,14.737,3518.6162356272,66.601052,0.50107456,3.3132875076,0,0,-6.487126,259.2, -11.6, -1.4,0,0,1024,1024,1024,1024,259.3,0,95,3.664,3.66,3.645,3.622,0,0,8.772,52.34,3518.6162356272,66.601052,14,Waypoint,
11900,2021-03-18 08:49:06,40.1849642407705,33.328297450982,67.585304,,,3519.6004876272,37.401576,0,3.2988190032,20,5,14.737,3519.6004876272,67.585304,0.50107456,3.3132875076,0,0,-6.71082,259.1, -11.8, -1.5,0,0,1024,1024,1024,1024,259.3,0,95,3.664,3.66,3.645,3.622,0,0,8.772,52.34,3519.6004876272,67.585304,14,Waypoint,
12000,2021-03-18 08:49:06,40.184964260612,33.3282974253345,68.569556,,,3520.5847396272,37.401576,0,3.2936024676,19,5,14.737,3520.5847396272,68.569556,0.50107456,3.3132875076,0,0,-6.71082,259.1, -11.8, -1.7,0,0,1024,1024,1024,1024,259.3,0,95,3.664,3.66,3.645,3.622,0,0,8.772,52.34,3520.5847396272,68.569556,14,Waypoint,
12100,2021-03-18 08:49:06,40.1849643694213,33.3282971915929,69.553808,,,3521.5689916272,37.401576,0,3.2402888176,19,5,14.383,3521.5689916272,69.553808,0.50107456,3.3132875076,0,0,-6.934514,259.1, -11.5, -1.9,0,0,1024,1024,1024,1024,259.3,0,94,3.605,3.601,3.579,3.561,0,0,10.622,52.52,3521.5689916272,69.553808,14,Waypoint,
12200,2021-03-18 08:49:07,40.1849643877024,33.3282971205669,70.53806,,,3522.5532436272,37.401576,0,3.22287083804,20,5,14.383,3522.5532436272,70.53806,0.50107456,3.3132875076,0,0,-6.934514,259.2, -11.3, -1.9,0,0,1024,1024,1024,1024,259.3,0,94,3.605,3.601,3.579,3.561,0,0,10.622,52.52,3522.5532436272,70.53806,14,Waypoint,
12300,2021-03-18 08:49:07,40.1849644807862,33.3282971084916,71.850396,,,3523.8655796272,37.401576,0,3.22858934216,20,5,14.383,3523.8655796272,71.850396,0.50107456,3.3132875076,0,0,-6.934514,259.1, -11.1, -1.9,0,0,1024,1024,1024,1024,259.3,0,94,3.605,3.601,3.579,3.561,0,0,10.622,52.52,3523.8655796272,71.850396,14,Waypoint,
12400,2021-03-18 08:49:07,40.1849644847596,33.3282970323215,72.834648,,,3524.8498316272,37.401576,0,3.20853684808,20,5,14.383,3524.8498316272,72.834648,0.50107456,3.3132875076,0,0,-6.934514,259.2, -11.2, -1.9,0,0,1024,1024,1024,1024,259.3,0,94,3.605,3.601,3.579,3.561,0,0,10.622,52.52,3524.8498316272,72.834648,14,Waypoint,
12500,2021-03-18 08:49:07,40.1849643868005,33.3282969503925,73.8189,,,3525.8340836272,37.401576,0,3.17699485232,20,5,14.383,3525.8340836272,73.8189,0.50107456,3.3132875076,0,0,-6.934514,259.1, -11.3, -1.9,0,0,1024,1024,1024,1024,259.3,0,94,3.605,3.601,3.579,3.561,0,0,10.622,52.52,3525.8340836272,73.8189,14,Waypoint,
12600,2021-03-18 08:49:07,40.1849643814538,33.3282968916213,74.803152,,,3526.8183356272,37.401576,0,3.16067595416,20,5,14.383,3526.8183356272,74.803152,0.50107456,3.3132875076,0,0,-6.934514,259.1, -11.5, -1.7,0,0,1024,1024,1024,1024,259.3,0,94,3.605,3.601,3.579,3.561,0,0,10.622,52.52,3526.8183356272,74.803152,14,Waypoint,
12700,2021-03-18 08:49:07,40.1849645011495,33.3282967492147,75.787404,,,3527.8025876272,37.401576,0,3.13432096644,20,5,14.383,3527.8025876272,75.787404,0.50107456,3.3132875076,0,0,-6.934514,259.1, -11.5, -1.8,0,0,1024,1024,1024,1024,259.3,0,94,3.605,3.601,3.579,3.561,0,0,10.622,52.52,3527.8025876272,75.787404,14,Waypoint,
12800,2021-03-18 08:49:07,40.1849645127576,33.3282966721315,76.771656,,,3528.7868396272,37.401576,0,3.11488855112,20,5,14.383,3528.7868396272,76.771656,0.50107456,3.3132875076,0,0,-6.934514,259.1, -11.4, -1.8,0,0,1024,1024,1024,1024,259.3,0,94,3.605,3.601,3.579,3.561,0,0,10.622,52.52,3528.7868396272,76.771656,14,Waypoint,
12900,2021-03-18 08:49:07,40.1849648125278,33.3282960641822,77.755908,,,3529.7710916272,37.401576,0,2.98714576488,20,5,14.383,3529.7710916272,77.755908,0.50107456,3.3132875076,0,0,-6.934514,259.2, -10.9, -2.2,0,0,1024,1024,1024,1024,259.3,0,94,3.605,3.601,3.579,3.561,0,0,10.622,52.52,3529.7710916272,77.755908,14,Waypoint,
13000,2021-03-18 08:49:07,40.1849648364985,33.3282959461547,78.412076,,,3530.4272596272,37.401576,0,2.95906177448,20,5,14.383,3530.4272596272,78.412076,0.50107456,3.3132875076,0,0,-6.71082,259.1, -10.6, -2.4,0,0,1024,1024,1024,1024,259.3,0,94,3.605,3.601,3.579,3.561,0,0,10.622,52.52,3530.4272596272,78.412076,14,Waypoint,
13100,2021-03-18 08:49:07,40.1849647594184,33.3282958644332,79.396328,,,3531.4115116272,37.401576,0,2.92819563176,20,5,14.368,3531.4115116272,79.396328,0.50107456,3.3132875076,0,0,-6.934514,259.1, -10.6, -2.2,0,0,1024,1024,1024,1024,259.3,0,94,3.604,3.604,3.588,3.572,0,0,10.535,52.52,3531.4115116272,79.396328,14,Waypoint,
13200,2021-03-18 08:49:08,40.1849647582979,33.3282957762052,80.708664,,,3532.7238476272,37.401576,0,2.90486557852,20,5,14.368,3532.7238476272,80.708664,0.50107456,3.3132875076,0,0,-6.934514,259.1, -10.7, -2.1,0,0,1024,1024,1024,1024,259.3,0,94,3.604,3.604,3.588,3.572,0,0,10.535,52.52,3532.7238476272,80.708664,14,Waypoint,
13300,2021-03-18 08:49:08,40.1849648275705,33.3282959029247,81.692916,,,3533.7080996272,37.401576,0,2.9466208292,20,5,14.368,3533.7080996272,81.692916,0.50107456,3.3132875076,0,0,-6.934514,259.1, -11.1, -2.2,0,0,1024,1024,1024,1024,259.3,0,94,3.604,3.604,3.588,3.572,0,0,10.535,52.52,3533.7080996272,81.692916,14,Waypoint,
13400,2021-03-18 08:49:08,40.1849648112343,33.3282958402818,82.677168,,,3534.6923516272,37.401576,0,2.92817266588,20,5,14.368,3534.6923516272,82.677168,0.50107456,3.3132875076,0,0,-6.934514,259.2, -11.2, -2,0,0,1024,1024,1024,1024,259.3,0,94,3.604,3.604,3.588,3.572,0,0,10.535,52.52,3534.6923516272,82.677168,14,Waypoint,
13500,2021-03-18 08:49:08,40.1849647325599,33.3282959027187,83.66142,,,3535.6766036272,37.401576,0,2.93504602568,20,5,14.368,3535.6766036272,83.66142,0.50107456,3.3132875076,0,0,-6.71082,259.2, -11.2, -1.6,0,0,1024,1024,1024,1024,259.3,0,94,3.604,3.604,3.588,3.572,0,0,10.535,52.52,3535.6766036272,83.66142,14,Waypoint,
13600,2021-03-18 08:49:08,40.1849647018562,33.3282958317495,84.317588,,,3536.3327716272,37.401576,0,2.91269038192,20,5,14.368,3536.3327716272,84.317588,0.50107456,3.3132875076,0,0,-6.71082,259.1, -10.9, -1.5,0,0,1024,1024,1024,1024,259.3,0,94,3.604,3.604,3.588,3.572,0,0,10.535,52.52,3536.3327716272,84.317588,14,Waypoint,
13700,2021-03-18 08:49:08,40.1849645379528,33.3282956224795,85.30184,,,3537.3170236272,37.401576,0,2.83830717744,20,5,14.368,3537.3170236272,85.30184,0.50107456,3.3132875076,0,0,-6.934514,259.1, -10.4, -1.4,0,0,1024,1024,1024,1024,259.3,0,94,3.604,3.604,3.588,3.572,0,0,10.535,52.52,3537.3170236272,85.30184,14,Waypoint,
13800,2021-03-18 08:49:08,40.1849644957772,33.3282955299412,86.614176,,,3538.6293596272,37.401576,0,2.80899943372,20,5,14.368,3538.6293596272,86.614176,0.50107456,3.3132875076,0,0,-6.934514,259.1, -10.5, -1.3,0,0,1024,1024,1024,1024,259.3,0,94,3.604,3.604,3.588,3.572,0,0,10.535,52.52,3538.6293596272,86.614176,14,Waypoint,
13900,2021-03-18 08:49:08,40.1849639395253,33.3282953356876,87.598428,,,3539.6136116272,37.401576,0,2.70015428588,20,5,14.368,3539.6136116272,87.598428,0.50107456,3.3132875076,0,0,-6.934514,259.1, -10.4, -0.6,0,0,1024,1024,1024,1024,259.3,0,94,3.604,3.604,3.588,3.572,0,0,10.535,52.52,3539.6136116272,87.598428,14,Waypoint,
14000,2021-03-18 08:49:08,40.1849638842401,33.3282952401609,88.58268,,,3540.5978636272,37.401576,0,2.66938328752,20,5,14.368,3540.5978636272,88.58268,0.50107456,3.3132875076,0,0,-6.934514,259, -10.5, -0.7,0,0,1024,1024,1024,1024,259.3,0,94,3.604,3.604,3.588,3.572,0,0,10.535,52.52,3540.5978636272,88.58268,14,Waypoint,
14100,2021-03-18 08:49:08,40.1849645622884,33.3282949731372,89.566932,,,3541.5821156272,37.401576,0,2.67000008544,20,5,14.368,3541.5821156272,89.566932,0.50107456,3.3132875076,0,0,-6.934514,259.1, -10.5, -1.8,0,0,1024,1024,1024,1024,259.3,0,94,3.604,3.604,3.588,3.572,0,0,10.535,52.52,3541.5821156272,89.566932,14,Waypoint,
14200,2021-03-18 08:49:09,40.1849645786551,33.3282948701608,90.551184,,,3542.5663676272,37.401576,0,2.64502305052,20,5,14.368,3542.5663676272,90.551184,0.50107456,3.3132875076,0,0,-6.934514,259.2, -10.3, -2.2,0,0,1024,1024,1024,1024,259.3,0,94,3.601,3.604,3.585,3.57,0,0,10.535,52.52,3542.5663676272,90.551184,14,Waypoint,
14300,2021-03-18 08:49:09,40.1849642010657,33.3282949868613,91.535436,,,3543.5506196272,37.401576,0,2.63226386376,20,5,14.368,3543.5506196272,91.535436,0.50107456,3.3132875076,0,0,-6.934514,259.1, -10.4, -1.9,0,0,1024,1024,1024,1024,259.3,0,94,3.601,3.604,3.585,3.57,0,0,10.535,52.52,3543.5506196272,91.535436,14,Waypoint,
14400,2021-03-18 08:49:09,40.1849641899273,33.3282949242199,92.519688,,,3544.5348716272,37.401576,0,2.61437672408,20,5,14.368,3544.5348716272,92.519688,0.50107456,3.3132875076,0,0,-6.934514,259.1, -10.6, -1.7,0,0,1024,1024,1024,1024,259.3,0,94,3.601,3.604,3.585,3.57,0,0,10.535,52.52,3544.5348716272,92.519688,14,Waypoint,
14500,2021-03-18 08:49:09,40.1849644078628,33.3282949841232,93.50394,,,3545.5191236272,37.401576,0,2.65448499308,20,5,14.368,3545.5191236272,93.50394,0.50107456,3.3132875076,0,0,-6.934514,259.2, -10.9, -2,0,0,1024,1024,1024,1024,259.3,0,94,3.601,3.604,3.585,3.57,0,0,10.535,52.52,3545.5191236272,93.50394,14,Waypoint,
14600,2021-03-18 08:49:09,40.1849644139514,33.3282949419159,94.488192,,,3546.5033756272,37.401576,0,2.64403879852,20,5,14.368,3546.5033756272,94.488192,0.50107456,3.3132875076,0,0,-6.934514,259.1, -11.2, -2.4,0,0,1024,1024,1024,1024,259.3,0,94,3.601,3.604,3.585,3.57,0,0,10.535,52.52,3546.5033756272,94.488192,14,Waypoint,
14700,2021-03-18 08:49:09,40.1849640958876,33.3282949599245,95.472444,,,3547.4876276272,37.401576,0,2.61413722276,20,5,14.368,3547.4876276272,95.472444,0.50107456,3.3132875076,0,0,-6.934514,259.1, -11, -1.6,0,0,1024,1024,1024,1024,259.3,0,94,3.601,3.604,3.585,3.57,0,0,10.535,52.52,3547.4876276272,95.472444,14,Waypoint,
14800,2021-03-18 08:49:09,40.1849640731499,33.3282949036626,96.456696,,,3548.4718796272,37.401576,0,2.5967684558,20,5,14.368,3548.4718796272,96.456696,0.50107456,3.3132875076,0,0,-6.934514,259.1, -10.7, -1.4,0,0,1024,1024,1024,1024,259.3,0,94,3.601,3.604,3.585,3.57,0,0,10.535,52.52,3548.4718796272,96.456696,14,Waypoint,
14900,2021-03-18 08:49:09,40.1849639549357,33.3282948192744,97.440948,,,3549.4561316272,37.401576,0,2.56245415024,20,5,14.368,3549.4561316272,97.440948,0.50107456,3.3132875076,0,0,-6.934514,259.1, -10.7, -1.5,0,0,1024,1024,1024,1024,259.3,0,94,3.601,3.604,3.585,3.57,0,0,10.535,52.52,3549.4561316272,97.440948,14,Waypoint,
15000,2021-03-18 08:49:09,40.1849639340975,33.3282947490953,98.753284,,,3550.7684676272,37.401576,0,2.54158144616,20,5,14.368,3550.7684676272,98.753284,0.50107456,3.3132875076,0,0,-6.934514,259.1, -10.7, -1.5,0,0,1024,1024,1024,1024,259.3,0,94,3.601,3.604,3.585,3.57,0,0,10.535,52.52,3550.7684676272,98.753284,14,Waypoint,
15100,2021-03-18 08:49:09,40.1849640095785,33.3282946633592,99.737536,,,3551.7527196272,37.401576,0,2.52598761364,20,5,14.368,3551.7527196272,99.737536,0.50107456,3.3132875076,0,0,-6.934514,259.1, -10.8, -1.7,0,0,1024,1024,1024,1024,259.3,0,94,3.601,3.604,3.585,3.57,0,0,10.535,52.52,3551.7527196272,99.737536,14,Waypoint,
15200,2021-03-18 08:49:10,40.1849640061479,33.3282945987875,100.721788,,,3552.7369716272,37.401576,0,2.50834325612,20,5,14.36,3552.7369716272,100.721788,0.50107456,3.3132875076,0,0,-6.934514,259.1, -10.8, -1.9,0,0,1024,1024,1024,1024,259.3,0,94,3.607,3.609,3.588,3.571,0,0,10.535,52.52,3552.7369716272,100.721788,14,Waypoint,
15300,2021-03-18 08:49:10,40.1849639187881,33.3282944293898,101.70604,,,3553.7212236272,37.401576,0,2.45420611528,20,5,14.36,3553.7212236272,101.70604,0.50107456,3.3132875076,0,0,-6.934514,259.1, -10.7, -1.8,0,0,1024,1024,1024,1024,259.3,0,94,3.607,3.609,3.588,3.571,0,0,10.535,52.52,3553.7212236272,101.70604,14,Waypoint,
15400,2021-03-18 08:49:10,40.1849639029521,33.3282943631122,102.690292,,,3554.7054756272,37.401576,0,2.4348590018,20,5,14.36,3554.7054756272,102.690292,0.50107456,3.3132875076,0,0,-6.934514,259.1, -10.7, -1.9,0,0,1024,1024,1024,1024,259.3,0,94,3.607,3.609,3.588,3.571,0,0,10.535,52.52,3554.7054756272,102.690292,14,Waypoint,
15500,2021-03-18 08:49:10,40.1849633247165,33.3282943888791,103.674544,,,3555.6897276272,37.401576,0,2.39360571964,20,5,14.36,3555.6897276272,103.674544,0.50107456,3.3132875076,0,0,-6.71082,259, -10.8, -1,0,0,1024,1024,1024,1024,259.3,0,94,3.607,3.609,3.588,3.571,0,0,10.535,52.52,3555.6897276272,103.674544,14,Waypoint,
15600,2021-03-18 08:49:10,40.1849632908218,33.3282943381784,104.658796,,,3556.6739796272,37.401576,0,2.37743445928,20,5,14.36,3556.6739796272,104.658796,0.50107456,3.3132875076,0,0,-6.71082,259.1, -10.6, -0.8,0,0,1024,1024,1024,1024,259.3,0,94,3.607,3.609,3.588,3.571,0,0,10.535,52.52,3556.6739796272,104.658796,14,Waypoint,
15700,2021-03-18 08:49:10,40.1849637450362,33.3282944742838,105.643048,,,3557.6582316272,37.401576,0,2.44997055084,20,5,14.36,3557.6582316272,105.643048,0.50107456,3.3132875076,0,0,-6.71082,259.1, -10.9, -1.5,0,0,1024,1024,1024,1024,259.2,0,94,3.607,3.609,3.588,3.571,0,0,10.535,52.52,3557.6582316272,105.643048,14,Waypoint,
15800,2021-03-18 08:49:10,40.1849637613068,33.3282944202874,106.955384,,,3558.9705676272,37.401576,0,2.43684719084,20,5,14.36,3558.9705676272,106.955384,0.50107456,3.3132875076,0,0,-6.71082,259.2, -10.9, -1.8,0,0,1024,1024,1024,1024,259.2,0,94,3.607,3.609,3.588,3.571,0,0,10.535,52.52,3558.9705676272,106.955384,14,Waypoint,
15900,2021-03-18 08:49:10,40.1849636722523,33.3282943241774,107.939636,,,3559.9548196272,37.401576,0,2.40294955196,20,5,14.36,3559.9548196272,107.939636,0.50107456,3.3132875076,0,0,-6.71082,259.1, -10.6, -2.1,0,0,1024,1024,1024,1024,259.2,0,94,3.607,3.609,3.588,3.571,0,0,10.535,52.52,3559.9548196272,107.939636,14,Waypoint,
16000,2021-03-18 08:49:10,40.1849636669013,33.3282942553889,108.923888,,,3560.9390716272,37.401576,0,2.38386818652,20,5,14.36,3560.9390716272,108.923888,0.50107456,3.3132875076,0,0,-6.71082,259.2, -10.3, -2,0,0,1024,1024,1024,1024,259.2,0,94,3.607,3.609,3.588,3.571,0,0,10.535,52.52,3560.9390716272,108.923888,14,Waypoint,
16100,2021-03-18 08:49:10,40.184963661344,33.3282944773706,109.90814,,,3561.9233236272,37.401576,0,2.44350729604,20,5,14.36,3561.9233236272,109.90814,0.50107456,3.3132875076,0,0,-6.71082,259.1, -10.5, -1.7,0,0,1024,1024,1024,1024,259.2,0,94,3.607,3.609,3.588,3.571,0,0,10.535,52.52,3561.9233236272,109.90814,14,Waypoint,
16200,2021-03-18 08:49:11,40.1849637761691,33.3282946869167,110.892392,,,3562.9075756272,37.401576,0,2.51021661576,20,5,14.347,3562.9075756272,110.892392,0.50107456,3.3132875076,0,0,-6.934514,259.1, -10.6, -1.6,0,0,1024,1024,1024,1024,259.2,0,94,3.602,3.601,3.58,3.563,0,0,9.906,52.88,3562.9075756272,110.892392,14,Waypoint,
16300,2021-03-18 08:49:11,40.1849637737534,33.3282946822188,112.204728,,,3564.2199116272,37.401576,0,2.50873039524,20,5,14.347,3564.2199116272,112.204728,0.50107456,3.3132875076,0,0,-6.71082,259.1, -11.2, -1.6,0,0,1024,1024,1024,1024,259.2,0,94,3.602,3.601,3.58,3.563,0,0,9.906,52.88,3564.2199116272,112.204728,14,Waypoint,
16400,2021-03-18 08:49:11,40.1849637854491,33.3282946618155,113.18898,,,3565.2041636272,37.401576,0,2.50425861032,20,5,14.347,3565.2041636272,113.18898,0.50107456,3.3132875076,0,0,-6.71082,259.1, -11.3, -1.6,0,0,1024,1024,1024,1024,259.2,0,94,3.602,3.601,3.58,3.563,0,0,9.906,52.88,3565.2041636272,113.18898,14,Waypoint,
16500,2021-03-18 08:49:11,40.1849642454224,33.3282942521641,114.173232,,,3566.1884156272,37.401576,0,2.44221464508,20,5,14.347,3566.1884156272,114.173232,0.50107456,3.3132875076,0,0,-6.71082,259.2, -11, -2.3,0,0,1024,1024,1024,1024,259.2,0,94,3.602,3.601,3.58,3.563,0,0,9.906,52.88,3566.1884156272,114.173232,14,Waypoint,
16600,2021-03-18 08:49:11,40.1849642791464,33.3282942063077,114.8294,,,3566.8445836272,37.401576,0,2.43410112776,20,5,14.347,3566.8445836272,114.8294,0.50107456,3.3132875076,0,0,-6.71082,259.1, -10.9, -2.4,0,0,1024,1024,1024,1024,259.2,0,94,3.602,3.601,3.58,3.563,0,0,9.906,52.88,3566.8445836272,114.8294,14,Waypoint,
16700,2021-03-18 08:49:11,40.1849644980375,33.3282941512914,115.813652,,,3567.8288356272,37.401576,0,2.44700467148,20,5,14.347,3567.8288356272,115.813652,0.50107456,3.3132875076,0,0,-6.487126,259.2, -11.2, -2.6,0,0,1024,1024,1024,1024,259.2,0,94,3.602,3.601,3.58,3.563,0,0,9.906,52.88,3567.8288356272,115.813652,14,Waypoint,
16800,2021-03-18 08:49:11,40.1849645146608,33.3282941205344,116.797904,,,3568.8130876272,37.401576,0,2.44118118048,20,5,14.347,3568.8130876272,116.797904,0.50107456,3.3132875076,0,0,-6.487126,259.1, -10.9, -2.4,0,0,1024,1024,1024,1024,259.2,0,94,3.602,3.601,3.58,3.563,0,0,9.906,52.88,3568.8130876272,116.797904,14,Waypoint,
16900,2021-03-18 08:49:11,40.1849644884168,33.3282940950191,117.782156,,,3569.7973396272,37.401576,0,2.43110244,20,5,14.347,3569.7973396272,117.782156,0.50107456,3.3132875076,0,0,-6.487126,259.2, -10.7, -1.8,0,0,1024,1024,1024,1024,259.2,0,94,3.602,3.601,3.58,3.563,0,0,9.906,52.88,3569.7973396272,117.782156,14,Waypoint,
17000,2021-03-18 08:49:11,40.1849644726595,33.3282940698831,118.766408,,,3570.7815916272,37.401576,0,2.42250335836,20,5,14.347,3570.7815916272,118.766408,0.50107456,3.3132875076,0,0,-6.487126,259.1, -10.9, -1.4,0,0,1024,1024,1024,1024,259.2,0,94,3.602,3.601,3.58,3.563,0,0,9.906,52.88,3570.7815916272,118.766408,14,Waypoint,
17100,2021-03-18 08:49:11,40.1849646334801,33.3282935557037,120.078744,,,3572.0939276272,37.401576,0,2.31203419472,20,5,14.347,3572.0939276272,120.078744,0.50107456,3.3132875076,0,0,-6.71082,259.1, -10.6, -1.7,0,0,1024,1024,1024,1024,259.2,0,94,3.602,3.601,3.58,3.563,0,0,9.906,52.88,3572.0939276272,120.078744,14,Waypoint,
17200,2021-03-18 08:49:12,40.1849646223978,33.3282934847499,121.062996,,,3573.0781796272,37.401576,0,2.2922900996,20,5,14.347,3573.0781796272,121.062996,0.50107456,3.3132875076,0,0,-6.71082,259.2, -10.3, -1.9,0,0,1024,1024,1024,1024,259.2,0,94,3.602,3.601,3.58,3.563,0,0,9.906,52.88,3573.0781796272,121.062996,14,Waypoint,
17300,2021-03-18 08:49:12,40.1849645464505,33.3282934624832,122.047248,,,3574.0624316272,37.401576,0,2.27560046652,20,5,14.283,3574.0624316272,122.047248,0.50107456,3.3132875076,0,0,-6.71082,259.1, -10, -2,0,0,1024,1024,1024,1024,259.2,0,94,3.583,3.586,3.574,3.559,0,0,10.025,53.06,3574.0624316272,122.047248,14,Waypoint,
17400,2021-03-18 08:49:12,40.1849645153438,33.3282934096273,123.0315,,,3575.0466836272,37.401576,0,2.25760177828,20,5,14.283,3575.0466836272,123.0315,0.50107456,3.3132875076,0,0,-6.71082,259.1, -10.4, -1.8,0,0,1024,1024,1024,1024,259.2,0,94,3.583,3.586,3.574,3.559,0,0,10.025,53.06,3575.0466836272,123.0315,14,Waypoint,
17500,2021-03-18 08:49:12,40.1849642007568,33.3282937175598,124.015752,,,3576.0309356272,37.401576,0,2.29606634644,20,5,14.283,3576.0309356272,124.015752,0.50107456,3.3132875076,0,0,-6.487126,259.1, -11.1, -1.6,0,0,1024,1024,1024,1024,259.2,0,94,3.583,3.586,3.574,3.559,0,0,10.025,53.06,3576.0309356272,124.015752,14,Waypoint,
17600,2021-03-18 08:49:12,40.1849641379175,33.3282937327237,125.000004,,,3577.0151876272,37.401576,0,2.29251319672,20,5,14.283,3577.0151876272,125.000004,0.50107456,3.3132875076,0,0,-6.487126,259.2, -10.8, -1.5,0,0,1024,1024,1024,1024,259.2,0,94,3.583,3.586,3.574,3.559,0,0,10.025,53.06,3577.0151876272,125.000004,14,Waypoint,
17700,2021-03-18 08:49:12,40.1849641921909,33.3282941801413,125.984256,,,3577.9994396272,37.401576,0,2.41700467052,20,5,14.283,3577.9994396272,125.984256,0.50107456,3.3132875076,0,0,-6.487126,259, -11.3, -0.8,0,0,1024,1024,1024,1024,259.2,0,94,3.583,3.586,3.574,3.559,0,0,10.025,53.06,3577.9994396272,125.984256,14,Waypoint,
17800,2021-03-18 08:49:12,40.184964110702,33.3282942097806,127.296592,,,3579.3117756272,37.401576,0.223694,2.41565624528,20,5,14.283,3579.3117756272,127.296592,0.50107456,3.3132875076,-0.223694,0,-6.71082,259.1, -11.4, -0.4,0,0,1024,1024,1024,1024,259.2,0,94,3.583,3.586,3.574,3.559,0,0,10.025,53.06,3579.3117756272,127.296592,14,Waypoint,
17900,2021-03-18 08:49:12,40.1849635448167,33.3282941540853,128.280844,,,3580.2960276272,37.401576,0.223694,2.34605978636,20,5,14.283,3580.2960276272,128.280844,0.50107456,3.3132875076,-0.223694,0,-6.71082,259, -11.1, 0.3,0,0,1024,1024,1024,1024,259.2,0,94,3.583,3.586,3.574,3.559,0,0,10.025,53.06,3580.2960276272,128.280844,14,Waypoint,
18000,2021-03-18 08:49:12,40.1849634460683,33.3282941419981,129.59318,,,3581.6083636272,37.401576,0,2.3349410196,19,5,14.283,3581.6083636272,129.59318,0.50107456,3.3132875076,0,0,-6.71082,259, -10.8, 0.4,0,0,1024,1024,1024,1024,259.2,0,94,3.583,3.586,3.574,3.559,0,0,10.025,53.06,3581.6083636272,129.59318,14,Waypoint,
18100,2021-03-18 08:49:12,40.1849636741579,33.3282941374092,130.577432,,,3582.5926156272,37.401576,0,2.35259850048,19,5,14.283,3582.5926156272,130.577432,0.50107456,3.3132875076,0,0,-6.487126,259.1, -10.8, 0.1,0,0,1024,1024,1024,1024,259.2,0,94,3.583,3.586,3.574,3.559,0,0,10.025,53.06,3582.5926156272,130.577432,14,Waypoint,
18200,2021-03-18 08:49:13,40.1849636371372,33.3282941025188,131.2336,,,3583.2487836272,37.401576,0,2.339895088,20,5,14.283,3583.2487836272,131.2336,0.50107456,3.3132875076,0,0,-6.263432,259.1, -10.6, -0.1,0,0,1024,1024,1024,1024,259.2,0,94,3.583,3.586,3.574,3.559,0,0,10.025,53.06,3583.2487836272,131.2336,14,Waypoint,
18300,2021-03-18 08:49:13,40.1849638763865,33.3282937195282,132.217852,,,3584.2330356272,37.401576,0,2.25985571536,20,5,14.36,3584.2330356272,132.217852,0.50107456,3.3132875076,0,0,-6.263432,259.1, -10.1, -0.7,0,0,1024,1024,1024,1024,259.2,0,94,3.604,3.607,3.583,3.544,0,0,9.84,53.24,3584.2330356272,132.217852,14,Waypoint,
18400,2021-03-18 08:49:13,40.1849638589794,33.3282936759752,133.202104,,,3585.2172876272,37.401576,0,2.2464075522,20,5,14.36,3585.2172876272,133.202104,0.50107456,3.3132875076,0,0,-6.487126,259, -10.1, -1,0,0,1024,1024,1024,1024,259.2,0,94,3.604,3.607,3.583,3.544,0,0,9.84,53.24,3585.2172876272,133.202104,14,Waypoint,
