time(millisecond),datetime(utc),latitude,longitude,height_above_takeoff(feet),height_above_ground_at_drone_location(feet),ground_elevation_at_drone_location(feet),altitude_above_seaLevel(feet),height_sonar(feet),speed(mph),distance(feet),satellites,gpslevel,voltage(v),max_altitude(feet),max_ascent(feet),max_speed(mph),max_distance(feet), xSpeed(mph), ySpeed(mph), zSpeed(mph), compass_heading(degrees), pitch(degrees), roll(degrees),isPhoto,isVideo,rc_elevator,rc_aileron,rc_throttle,rc_rudder,gimbal_heading(degrees),gimbal_pitch(degrees),battery_percent,voltageCell1,voltageCell2,voltageCell3,voltageCell4,voltageCell5,voltageCell6,current(A),battery_temperature(f),altitude(feet),ascent(feet),flycStateRaw,flycState,message
245400,,40.1849147411863,33.3283478796193,0,Available with any HD 360 subscription,Available with any HD 360 subscription,3452.4841613325,0.656168,0,0,17,5,0,3452.4841613325,0,0,0,0,0,0,271.9, -0.1, 0,0,0,1024,1024,1024,1024,271.8,0,54,3.851,3.851,3.855,3.852,0,0,0,93.11,3452.4841613325,0,41,Motors_Started,
245500,,40.1849146347118,33.328347883856,0,,,3452.4841613325,0.328084,0,0.038865158724,17,5,0,3452.4841613325,0,0,0.038865158724,0,0,0,271.9, -0.1, 0,0,0,1024,1024,1024,1024,271.8,0,54,3.851,3.851,3.855,3.852,0,0,0,93.11,3452.4841613325,0,41,Motors_Started,
245600,,40.1849146378036,33.3283478281282,0,,,3452.4841613325,0.328084,0,0.040357284756,17,5,15.327,3452.4841613325,0,0,0.040357284756,0,0,0,272, -0.1, 0,0,0,1024,1024,1024,1024,271.8,0,54,3.851,3.851,3.855,3.852,0,0,1.468,93.11,3452.4841613325,0,41,Motors_Started,Setting new Return-To-Home altitude to 150m (492 ft). Data Recorder File Index is 382. Setting new Maximum Flight Altitude to 500m (1640 ft)
245700,,40.1849146433008,33.328347790547,0,,,3452.4841613325,0.328084,0,3.6947507744,17,5,15.327,3452.4841613325,0,0,3.6947507744,0,0,0,272, -0.1, 0,0,0,1024,1024,1024,1024,271.8,0,54,3.851,3.851,3.855,3.852,0,0,1.468,93.11,3452.4841613325,0,41,Motors_Started,
245800,2021-04-16 08:29:29,40.184914653548,33.3283477814906,0,,,3452.4841613325,0.328084,0,3.6916995932,17,5,15.327,3452.4841613325,0,0,3.6947507744,0,0,0,271.9, -0.1, 0,0,0,1024,1024,1024,1024,271.7,0,54,3.851,3.851,3.855,3.852,0,0,1.468,93.11,3452.4841613325,0,41,Motors_Started,
245900,2021-04-16 08:29:29,40.1849146899972,33.3283477812075,0,,,3452.4841613325,0.328084,0,3.689632664,16,5,15.327,3452.4841613325,0,0,3.6947507744,0,0,0,271.8, -0.1, 0,0,0,1024,1024,1024,1024,271.8,0,54,3.851,3.851,3.855,3.852,0,0,1.468,93.11,3452.4841613325,0,41,Motors_Started,
246000,2021-04-16 08:29:30,40.1849146996429,33.3283477385486,0,,,3452.4841613325,0.328084,0,3.6773623224,16,5,15.327,3452.4841613325,0,0,3.6947507744,0,0,0,271.7, -0.1, 0,0,0,1024,1024,1024,1024,271.8,0,54,3.851,3.851,3.855,3.852,0,0,1.468,93.11,3452.4841613325,0,41,Motors_Started,
246100,2021-04-16 08:29:30,40.1849147084953,33.328347712342,0,,,3452.4841613325,0.328084,0,3.6696851568,16,5,15.327,3452.4841613325,0,0,3.6947507744,0,0,0,271.7, 0, 0,0,0,1024,1024,1024,1024,271.8,0,54,3.851,3.851,3.855,3.852,0,0,1.468,93.11,3452.4841613325,0,41,Motors_Started,
246200,2021-04-16 08:29:30,40.1849147157639,33.3283477067234,0,,,3452.4841613325,0.328084,0,3.6677494612,16,5,15.327,3452.4841613325,0,0,3.6947507744,0,0,0,271.8, 0, 0,0,0,1024,1024,1024,1024,271.8,0,54,3.851,3.851,3.855,3.852,0,0,1.468,93.11,3452.4841613325,0,41,Motors_Started,
246300,2021-04-16 08:29:30,40.184914732672,33.3283477169067,0,,,3452.4841613325,0.328084,0,3.6696851568,16,5,15.327,3452.4841613325,0,0,3.6947507744,0,0,0,271.9, -0.1, 0,0,0,1024,1024,1024,1024,271.8,0,54,3.851,3.851,3.855,3.852,0,0,1.468,93.11,3452.4841613325,0,41,Motors_Started,
246400,2021-04-16 08:29:30,40.1849147388243,33.32834767495,0,,,3452.4841613325,0.328084,0,3.6577757076,16,5,15.327,3452.4841613325,0,0,3.6947507744,0,0,0,271.9, 0, 0,0,0,1024,1024,1024,1024,271.8,0,54,3.851,3.851,3.855,3.852,0,0,1.468,93.11,3452.4841613325,0,41,Motors_Started,
246500,2021-04-16 08:29:30,40.1849147451174,33.3283476303936,0,,,3452.4841613325,0.328084,0,3.6451444736,16,5,15.327,3452.4841613325,0,0,3.6947507744,0,0,0,271.9, 0, 0,0,0,1024,1024,1024,1024,271.8,0,54,3.851,3.851,3.855,3.852,0,0,1.468,93.11,3452.4841613325,0,41,Motors_Started,
246600,2021-04-16 08:29:30,40.1849147497031,33.3283475710597,0,,,3452.4841613325,0.328084,0,3.6285434232,16,5,15.279,3452.4841613325,0,0,3.6947507744,0,0,0,271.9, -0.1, 0,0,0,1024,1024,1024,1024,271.8,0,54,3.851,3.851,3.855,3.852,0,0,1.468,93.11,3452.4841613325,0,41,Motors_Started,
246700,2021-04-16 08:29:30,40.184914731182,33.3283475197508,0,,,3452.4841613325,0.328084,0,3.6153544464,15,5,15.279,3452.4841613325,0,0,3.6947507744,0,0,0,272, 0, 0,0,0,1024,1024,1024,1024,271.8,0,54,3.851,3.851,3.855,3.852,0,0,1.468,93.11,3452.4841613325,0,41,Motors_Started,
246800,2021-04-16 08:29:30,40.184914734949,33.328347510243,0,,,3452.4841613325,0.328084,0,3.612532924,15,5,15.279,3452.4841613325,0,0,3.6947507744,0,0,0,271.9, 0, 0,0,0,1024,1024,1024,1024,271.8,0,54,3.851,3.851,3.855,3.852,0,0,1.468,93.11,3452.4841613325,0,41,Motors_Started,
246900,2021-04-16 08:29:30,40.1849147392973,33.3283474928434,0,,,3452.4841613325,0.328084,0,3.6075132388,15,5,15.279,3452.4841613325,0,0,3.6947507744,0,0,0,271.9, 0, 0,0,0,1024,1024,1024,1024,271.8,0,54,3.851,3.851,3.855,3.852,0,0,1.468,93.11,3452.4841613325,0,11,AutoTakeoff,
247000,2021-04-16 08:29:31,40.1849147428921,33.3283474484706,0,,,3452.4841613325,0.328084,0,3.5950788552,15,5,15.279,3452.4841613325,0,0,3.6947507744,0,0,0,271.9, 0, 0,0,0,1024,1024,1024,1024,271.8,0,54,3.851,3.851,3.855,3.852,0,0,1.468,93.11,3452.4841613325,0,11,AutoTakeoff,
247100,2021-04-16 08:29:31,40.1849147464613,33.3283474030536,0,,,3452.4841613325,0.328084,0,3.5823820044,15,5,15.279,3452.4841613325,0,0,3.6947507744,0,0,0,271.8, 0, 0,0,0,1024,1024,1024,1024,271.8,0,54,3.851,3.851,3.855,3.852,0,0,1.468,93.11,3452.4841613325,0,11,AutoTakeoff,
247200,2021-04-16 08:29:31,40.1849147222646,33.3283472988269,0,,,3452.4841613325,0.328084,0,3.5549213736,15,5,15.279,3452.4841613325,0,0,3.6947507744,0,0,0,272, 0, -0.1,0,0,1024,1024,1024,1024,271.8,0,54,3.851,3.851,3.855,3.852,0,0,1.468,93.11,3452.4841613325,0,11,AutoTakeoff,
247300,2021-04-16 08:29:31,40.1849147044537,33.3283472624244,0,,,3452.4841613325,0.328084,0,3.5458662552,15,5,15.279,3452.4841613325,0,0,3.6947507744,0,0,0,272, 0, 0,0,0,1024,1024,1024,1024,271.8,0,54,3.851,3.851,3.855,3.852,0,0,1.468,93.11,3452.4841613325,0,11,AutoTakeoff,
247400,2021-04-16 08:29:31,40.1849146533456,33.3283472527765,0,,,3452.4841613325,0.328084,0,3.5460302972,15,5,15.279,3452.4841613325,0,0,3.6947507744,0,0,0,271.9, 0, 0,0,0,1024,1024,1024,1024,271.8,0,54,3.851,3.851,3.855,3.852,0,0,1.468,93.11,3452.4841613325,0,11,AutoTakeoff,
247500,2021-04-16 08:29:31,40.1849146355807,33.3283472374076,0,,,3452.4841613325,0.328084,0,3.542815074,15,5,15.279,3452.4841613325,0,0,3.6947507744,0,0,0,271.9, 0.2, 0,0,0,1024,1024,1024,1024,271.8,0,54,3.851,3.851,3.855,3.852,0,0,1.468,93.11,3452.4841613325,0,11,AutoTakeoff,
247600,2021-04-16 08:29:31,40.1849146758688,33.3283472251389,0,,,3452.4841613325,0.328084,0,3.5371720292,15,5,15.148,3452.4841613325,0,0,3.6947507744,0,0,0,271.9, 0.2, 0,0,0,1024,1024,1024,1024,271.8,0,54,3.825,3.822,3.827,3.828,0,0,3.742,93.11,3452.4841613325,0,11,AutoTakeoff,
247700,2021-04-16 08:29:31,40.1849147088062,33.3283472229091,0,,,3452.4841613325,0.328084,0,3.5347113992,15,5,15.148,3452.4841613325,0,0,3.6947507744,0,0,0,271.7, 0.8, 0,0,0,1024,1024,1024,1024,271.8,0,54,3.825,3.822,3.827,3.828,0,0,3.742,93.11,3452.4841613325,0,11,AutoTakeoff,
247800,2021-04-16 08:29:31,40.1849147302876,33.3283472911789,0,,,3452.4841613325,0.328084,0,3.5523951268,15,5,15.148,3452.4841613325,0,0,3.6947507744,0,0,0,271.2, 2.1, 0,0,0,1024,1024,1024,1024,271.8,0,54,3.825,3.822,3.827,3.828,0,0,3.742,93.11,3452.4841613325,0,11,AutoTakeoff,
247900,2021-04-16 08:29:31,40.1849147310143,33.328347368445,0,,,3452.4841613325,0.328084,0,3.57365497,15,5,15.148,3452.4841613325,0,0,3.6947507744,0,0,-0.447388,270.8, 3, 0.4,0,0,1024,1024,1024,1024,271.7,0,54,3.825,3.822,3.827,3.828,0,0,3.742,93.11,3452.4841613325,0,11,AutoTakeoff,
248000,2021-04-16 08:29:32,40.1849146352033,33.3283475515228,0,,,3452.4841613325,0.656168,0.223694,3.6293308248,15,5,15.148,3452.4841613325,0,0.223694,3.6947507744,0,0.223694,-0.894776,270.9, 1.4, -0.3,0,0,1024,1024,1024,1024,271.7,0,54,3.825,3.822,3.827,3.828,0,0,3.742,93.11,3452.4841613325,0,11,AutoTakeoff,
248100,2021-04-16 08:29:32,40.1849146408465,33.3283476877639,0,,,3452.4841613325,0.656168,0.223694,3.6665683588,15,5,15.148,3452.4841613325,0,0.223694,3.6947507744,0,0.223694,-1.11847,270.9, -0.4, -0.3,0,0,1024,1024,1024,1024,271.7,0,54,3.825,3.822,3.827,3.828,0,0,3.742,93.11,3452.4841613325,0,11,AutoTakeoff,
248200,2021-04-16 08:29:32,40.1849146936759,33.3283478383494,0.328084,,,3452.8122453325,0.984252,0.223694,3.705216654,15,5,15.148,3452.8122453325,0.328084,0.223694,3.705216654,0,0.223694,-1.342164,271, -1.4, -0.5,0,0,1024,1024,1024,1024,271.7,0,54,3.825,3.822,3.827,3.828,0,0,3.742,93.11,3452.8122453325,0.328084,11,AutoTakeoff,
248300,2021-04-16 08:29:32,40.1849147340753,33.3283479664422,0.656168,,,3453.1403293325,0.984252,0.223694,3.7384515632,13,4,15.148,3453.1403293325,0.656168,0.223694,3.7384515632,0,0.223694,-1.342164,270.9, -2, -0.4,0,0,1024,1024,1024,1024,271.7,0,54,3.825,3.822,3.827,3.828,0,0,3.742,93.11,3453.1403293325,0.656168,11,AutoTakeoff,
248400,2021-04-16 08:29:32,40.1849148346423,33.3283481969579,0.656168,,,3453.1403293325,1.312336,0.223694,3.797244216,13,4,15.148,3453.1403293325,0.656168,0.223694,3.797244216,0,0.223694,-1.342164,270.7, -2, -0.4,0,0,1024,1024,1024,1024,271.7,0,54,3.825,3.822,3.827,3.828,0,0,3.742,93.11,3453.1403293325,0.656168,11,AutoTakeoff,
248500,2021-04-16 08:29:32,40.1849148043724,33.3283483125872,0.984252,,,3453.4684133325,1.64042,0,3.8306103588,13,4,15.148,3453.4684133325,0.984252,0.223694,3.8306103588,0,0,-1.11847,270.5, -1.8, -0.5,0,0,1024,1024,1024,1024,271.7,0,54,3.825,3.822,3.827,3.828,0,0,3.742,93.11,3453.4684133325,0.984252,11,AutoTakeoff,
248600,2021-04-16 08:29:32,40.1849147037364,33.3283484350292,0.984252,,,3453.4684133325,1.64042,0,3.8693570792,13,4,15.25,3453.4684133325,0.984252,0.223694,3.8693570792,0,0,-1.11847,270.4, -1.3, 0,0,0,1024,1024,1024,1024,271.7,0,54,3.727,3.735,3.738,3.724,0,0,11.842,93.11,3453.4684133325,0.984252,11,AutoTakeoff,
248700,2021-04-16 08:29:32,40.1849146124147,33.3283484885384,1.312336,,,3453.7964973325,1.968504,0,3.8888124604,14,4,15.25,3453.7964973325,1.312336,0.223694,3.8888124604,0,0,-1.11847,270.3, -1, 0.5,0,0,1024,1024,1024,1024,271.6,0,54,3.727,3.735,3.738,3.724,0,0,11.842,93.11,3453.7964973325,1.312336,11,AutoTakeoff,
248800,2021-04-16 08:29:32,40.1849145407143,33.328348476208,1.312336,,,3453.7964973325,1.968504,0,3.8893045864,14,4,15.25,3453.7964973325,1.312336,0.223694,3.8893045864,0,0,-1.11847,270.3, -0.3, 0.1,0,0,1024,1024,1024,1024,271.6,0,54,3.727,3.735,3.738,3.724,0,0,11.842,93.11,3453.7964973325,1.312336,11,AutoTakeoff,
248900,2021-04-16 08:29:32,40.184914200376,33.3283485723817,1.64042,,,3454.1245813325,2.296588,0,3.9364830656,14,4,15.25,3454.1245813325,1.64042,0.223694,3.9364830656,0,0,-0.894776,270.3, 0, -0.4,0,0,1024,1024,1024,1024,271.6,0,54,3.727,3.735,3.738,3.724,0,0,11.842,93.11,3454.1245813325,1.64042,11,AutoTakeoff,
249000,2021-04-16 08:29:33,40.1849141787035,33.3283485717104,1.64042,,,3454.1245813325,2.296588,0,3.9377625932,14,4,15.25,3454.1245813325,1.64042,0.223694,3.9377625932,0,0,-0.894776,270.3, 0, -1,0,0,1024,1024,1024,1024,271.5,0,54,3.727,3.735,3.738,3.724,0,0,11.842,93.11,3454.1245813325,1.64042,11,AutoTakeoff,
249100,2021-04-16 08:29:33,40.1849141630189,33.3283485791145,1.968504,,,3454.4526653325,2.624672,0,3.9408465828,14,4,15.25,3454.4526653325,1.968504,0.223694,3.9408465828,0,0,-0.894776,270.5, 0.1, -1.5,0,0,1024,1024,1024,1024,271.5,0,54,3.727,3.735,3.738,3.724,0,0,11.842,93.11,3454.4526653325,1.968504,11,AutoTakeoff,
249200,2021-04-16 08:29:33,40.1849141465189,33.3283485942549,1.968504,,,3454.4526653325,2.624672,0,3.9460959268,14,4,15.25,3454.4526653325,1.968504,0.223694,3.9460959268,0,0,-0.894776,270.6, 0, -1.9,0,0,1024,1024,1024,1024,271.5,0,54,3.727,3.735,3.738,3.724,0,0,11.842,93.11,3454.4526653325,1.968504,11,AutoTakeoff,
249300,2021-04-16 08:29:33,40.1849140227934,33.3283486120385,2.296588,,,3454.7807493325,2.952756,0,3.9596129876,13,4,15.25,3454.7807493325,2.296588,0.223694,3.9596129876,0,0,-0.894776,270.7, -0.5, -1.2,0,0,1024,1024,1024,1024,271.5,0,54,3.727,3.735,3.738,3.724,0,0,11.842,93.11,3454.7807493325,2.296588,11,AutoTakeoff,
249400,2021-04-16 08:29:33,40.184913914451,33.3283486480654,2.296588,,,3454.7807493325,2.952756,0,3.9774279488,13,4,15.25,3454.7807493325,2.296588,0.223694,3.9774279488,0,0,-0.894776,270.8, -0.3, -1,0,0,1024,1024,1024,1024,271.5,0,54,3.727,3.735,3.738,3.724,0,0,11.842,93.11,3454.7807493325,2.296588,11,AutoTakeoff,
249500,2021-04-16 08:29:33,40.1849138488017,33.3283486331857,2.624672,,,3455.1088333325,3.28084,0,3.9783793924,14,4,15.25,3455.1088333325,2.624672,0.223694,3.9783793924,0,0,-1.11847,270.8, -0.2, -1.1,0,0,1024,1024,1024,1024,271.5,0,54,3.727,3.735,3.738,3.724,0,0,11.842,93.11,3455.1088333325,2.624672,11,AutoTakeoff,
249600,2021-04-16 08:29:33,40.1849138387867,33.3283485445143,2.624672,,,3455.1088333325,3.608924,0,3.9550198116,14,4,14.877,3455.1088333325,2.624672,0.223694,3.9783793924,0,0,-1.11847,270.8, -0.3, -0.9,0,0,1024,1024,1024,1024,271.5,0,54,3.727,3.735,3.738,3.724,0,0,11.842,93.11,3455.1088333325,2.624672,11,AutoTakeoff,
249700,2021-04-16 08:29:33,40.184913805655,33.3283484511576,2.952756,,,3455.4369173325,3.608924,0,3.9322179736,14,4,14.877,3455.4369173325,2.952756,0.223694,3.9783793924,0,0,-1.11847,270.8, -0.5, -1.1,0,0,1024,1024,1024,1024,271.5,0,54,3.727,3.735,3.738,3.724,0,0,11.842,93.11,3455.4369173325,2.952756,14,Waypoint,
249800,2021-04-16 08:29:33,40.1849137278048,33.3283483450557,2.952756,,,3455.4369173325,3.937008,0,3.9097114112,14,4,14.877,3455.4369173325,2.952756,0.223694,3.9783793924,0,0,-0.894776,270.7, -0.3, -0.6,0,0,1024,1024,1024,1024,271.5,0,54,3.727,3.735,3.738,3.724,0,0,11.842,93.11,3455.4369173325,2.952756,14,Waypoint,
249900,2021-04-16 08:29:33,40.1849136446137,33.3283482708688,3.28084,,,3455.7650013325,3.937008,0,3.8966208596,15,4,14.877,3455.7650013325,3.28084,0.223694,3.9783793924,0,0,-0.894776,270.7, -0.5, -0.1,0,0,1024,1024,1024,1024,271.5,0,54,3.727,3.735,3.738,3.724,0,0,11.842,93.11,3455.7650013325,3.28084,14,Waypoint,
250000,2021-04-16 08:29:34,40.1849135574496,33.3283482450812,3.28084,,,3455.7650013325,4.265092,0,3.8972770276,15,4,14.877,3455.7650013325,3.28084,0.223694,3.9783793924,0,0,-0.894776,270.6, -0.9, -0.3,0,0,1024,1024,1024,1024,271.4,0,54,3.727,3.735,3.738,3.724,0,0,11.842,93.11,3455.7650013325,3.28084,14,Waypoint,
250100,2021-04-16 08:29:34,40.1849133685963,33.3283484460337,3.608924,,,3456.0930853325,4.265092,0,3.9687665312,14,4,14.877,3456.0930853325,3.608924,0.223694,3.9783793924,0,0,-0.894776,270.5, -0.7, 0.2,0,0,1024,1024,1024,1024,271.4,0,54,3.727,3.735,3.738,3.724,0,0,11.842,93.11,3456.0930853325,3.608924,14,Waypoint,
250200,2021-04-16 08:29:34,40.1849132641408,33.3283485783563,3.608924,,,3456.0930853325,4.593176,0,4.014271782,14,4,14.877,3456.0930853325,3.608924,0.223694,4.014271782,0,0,-1.11847,270.4, -0.4, 0.3,0,0,1024,1024,1024,1024,271.4,0,54,3.727,3.735,3.738,3.724,0,0,11.842,93.11,3456.0930853325,3.608924,14,Waypoint,
250300,2021-04-16 08:29:34,40.1849131987625,33.3283486969287,3.937008,,,3456.4211693325,4.593176,0,4.0524607596,15,4,14.877,3456.4211693325,3.937008,0.223694,4.0524607596,0,0,-1.11847,270.4, -0.4, 0.2,0,0,1024,1024,1024,1024,271.4,0,54,3.727,3.735,3.738,3.724,0,0,11.842,93.11,3456.4211693325,3.937008,14,Waypoint,
250400,2021-04-16 08:29:34,40.1849131761385,33.3283487770286,3.937008,,,3456.4211693325,4.92126,0,4.0761812328,15,4,14.877,3456.4211693325,3.937008,0.223694,4.0761812328,0,0,-1.342164,270.4, -0.7, -0.1,0,0,1024,1024,1024,1024,271.4,0,54,3.727,3.735,3.738,3.724,0,0,11.842,93.11,3456.4211693325,3.937008,14,Waypoint,
250500,2021-04-16 08:29:34,40.1849131731218,33.3283488285463,4.265092,,,3456.7492533325,5.249344,0,4.0903216532,16,4,14.877,3456.7492533325,4.265092,0.223694,4.0903216532,0,0,-1.789552,270.2, -1, -0.4,0,0,1024,1024,1024,1024,271.4,0,54,3.727,3.735,3.738,3.724,0,0,11.842,93.11,3456.7492533325,4.265092,14,Waypoint,
250600,2021-04-16 08:29:34,40.1849132946043,33.3283489429548,4.593176,,,3457.0773373325,5.577428,0,4.109580184,16,4,14.682,3457.0773373325,4.593176,0.223694,4.109580184,0,0,-2.460634,269.9, -0.9, -0.7,0,0,1024,1024,1024,1024,271.3,0,54,3.713,3.719,3.724,3.707,0,0,12.982,93.11,3457.0773373325,4.593176,14,Waypoint,
250700,2021-04-16 08:29:34,40.1849133472318,33.3283489185309,5.249344,,,3457.7335053325,5.905512,0,4.0981300524,16,4,14.682,3457.7335053325,5.249344,0.223694,4.109580184,0,0,-3.131716,269.8, -0.4, -0.8,0,0,1024,1024,1024,1024,271.3,0,54,3.713,3.719,3.724,3.707,0,0,12.982,93.11,3457.7335053325,5.249344,14,Waypoint,
250800,2021-04-16 08:29:34,40.1849134541312,33.3283488462024,5.577428,,,3458.0615893325,6.56168,0,4.0689633848,16,4,14.682,3458.0615893325,5.577428,0.223694,4.109580184,0,0,-4.026492,270, 0, -0.6,0,0,1024,1024,1024,1024,271.3,0,54,3.713,3.719,3.724,3.707,0,0,12.982,93.11,3458.0615893325,5.577428,14,Waypoint,
250900,2021-04-16 08:29:34,40.18491355549,33.3283487815358,6.233596,,,3458.7177573325,6.889764,0,4.0426182396,16,4,14.682,3458.7177573325,6.233596,0.223694,4.109580184,0,0,-4.697574,270.3, 0.4, -0.4,0,0,1024,1024,1024,1024,271.3,0,54,3.713,3.719,3.724,3.707,0,0,12.982,93.11,3458.7177573325,6.233596,14,Waypoint,
251000,2021-04-16 08:29:35,40.1849139143771,33.3283485840099,6.889764,,,3459.3739253325,7.874016,0,3.95997388,16,4,14.682,3459.3739253325,6.889764,0.223694,4.109580184,0,0,-5.59235,270.4, 0.2, -0.2,0,0,1024,1024,1024,1024,271.3,0,54,3.713,3.719,3.724,3.707,0,0,12.982,93.11,3459.3739253325,6.889764,14,Waypoint,
251100,2021-04-16 08:29:35,40.1849139884815,33.328348504245,7.874016,,,3460.3581773325,8.530184,0,3.9326772912,16,4,14.682,3460.3581773325,7.874016,0.223694,4.109580184,0,0,-6.263432,270.4, -0.2, -1,0,0,1024,1024,1024,1024,271.2,0,54,3.713,3.719,3.724,3.707,0,0,12.982,93.11,3460.3581773325,7.874016,14,Waypoint,
251200,2021-04-16 08:29:35,40.1849140172911,33.3283483634925,8.858268,,,3461.3424293325,9.514436,0,3.8921261088,16,4,14.682,3461.3424293325,8.858268,0.223694,4.109580184,0,0,-6.71082,270.5, -0.6, -1.7,0,0,1024,1024,1024,1024,271.2,0,54,3.713,3.719,3.724,3.707,0,0,12.982,93.11,3461.3424293325,8.858268,14,Waypoint,
251300,2021-04-16 08:29:35,40.184914044101,33.3283482646629,9.84252,,,3462.3266813325,10.826772,0,3.8631891,16,4,14.682,3462.3266813325,9.84252,0.223694,4.109580184,0,0,-6.934514,270.6, -0.6, -1.2,0,0,1024,1024,1024,1024,271.2,0,54,3.713,3.719,3.724,3.707,0,0,12.982,93.11,3462.3266813325,9.84252,14,Waypoint,
251400,2021-04-16 08:29:35,40.1849140492546,33.328348096804,11.154856,,,3463.6390173325,11.811024,0.223694,3.8169620644,16,4,14.682,3463.6390173325,11.154856,0.223694,4.109580184,0,0.223694,-7.158208,270.6, -0.2, -0.5,0,0,1024,1024,1024,1024,271.2,0,54,3.713,3.719,3.724,3.707,0,0,12.982,93.11,3463.6390173325,11.154856,14,Waypoint,
251500,2021-04-16 08:29:35,40.1849141373961,33.3283480813567,12.139108,,,3464.6232693325,12.795276,0.223694,3.8063649512,17,4,14.682,3464.6232693325,12.139108,0.223694,4.109580184,0,0.223694,-7.158208,270.6, -0.5, -0.8,0,0,1024,1024,1024,1024,271.2,0,54,3.713,3.719,3.724,3.707,0,0,12.982,93.11,3464.6232693325,12.139108,14,Waypoint,
251600,2021-04-16 08:29:35,40.1849142895979,33.3283480620847,13.12336,,,3465.6075213325,13.779528,0.31540854,3.7907153444,17,4,14.816,3465.6075213325,13.12336,0.31540854,4.109580184,0.223694,0.223694,-7.158208,270.6, -1, -1.7,0,0,1024,1024,1024,1024,271.2,0,54,3.713,3.719,3.724,3.707,0,0,12.982,93.11,3465.6075213325,13.12336,14,Waypoint,
251700,2021-04-16 08:29:35,40.1849144894853,33.3283480521144,14.107612,,,3466.5917733325,14.76378,0.31540854,3.7754922468,18,4,14.816,3466.5917733325,14.107612,0.31540854,4.109580184,0.223694,0.223694,-7.158208,270.7, -1.4, -2.6,0,0,1024,1024,1024,1024,271.2,0,54,3.713,3.719,3.724,3.707,0,0,12.982,93.11,3466.5917733325,14.107612,14,Waypoint,
251800,2021-04-16 08:29:35,40.1849151248465,33.328347941602,15.419948,,,3467.9041093325,16.076116,0.31540854,3.7143701976,18,4,14.816,3467.9041093325,15.419948,0.31540854,4.109580184,0.223694,0.223694,-7.158208,270.7, -1.5, -2.9,0,0,1024,1024,1024,1024,271.2,0,54,3.713,3.719,3.724,3.707,0,0,12.982,93.11,3467.9041093325,15.419948,14,Waypoint,
251900,2021-04-16 08:29:35,40.1849153425919,33.3283479195859,16.4042,,,3468.8883613325,17.060368,0.31540854,3.7010171788,18,4,14.816,3468.8883613325,16.4042,0.31540854,4.109580184,0.223694,0.223694,-6.934514,270.7, -1.6, -3.1,0,0,1024,1024,1024,1024,271.2,0,54,3.713,3.719,3.724,3.707,0,0,12.982,93.11,3468.8883613325,16.4042,14,Waypoint,
252000,2021-04-16 08:29:36,40.1849155032692,33.3283478827222,17.388452,,,3469.8726133325,18.04462,0.223694,3.6864830576,18,4,14.816,3469.8726133325,17.388452,0.31540854,4.109580184,0.223694,0,-6.934514,270.7, -1.5, -3.4,0,0,1024,1024,1024,1024,271.2,0,54,3.713,3.719,3.724,3.707,0,0,12.982,93.11,3469.8726133325,17.388452,14,Waypoint,
252100,2021-04-16 08:29:36,40.1849156837114,33.3283478307112,18.372704,,,3470.8568653325,19.028872,0.223694,3.668307204,17,4,14.816,3470.8568653325,18.372704,0.31540854,4.109580184,0.223694,0,-6.934514,270.6, -1.4, -3.5,0,0,1024,1024,1024,1024,271.2,0,54,3.713,3.719,3.724,3.707,0,0,12.982,93.11,3470.8568653325,18.372704,14,Waypoint,
252200,2021-04-16 08:29:36,40.1849159320161,33.3283477536582,19.68504,,,3472.1692013325,20.013124,0.223694,3.6436352872,17,4,14.816,3472.1692013325,19.68504,0.31540854,4.109580184,0.223694,0,-6.934514,270.6, -1.1, -3.5,0,0,1024,1024,1024,1024,271.2,0,54,3.713,3.719,3.724,3.707,0,0,12.982,93.11,3472.1692013325,19.68504,14,Waypoint,
252300,2021-04-16 08:29:36,40.1849164203584,33.3283475281976,20.669292,,,3473.1534533325,21.32546,0,3.5810696684,17,4,14.816,3473.1534533325,20.669292,0.31540854,4.109580184,0,0,-6.934514,270.6, -0.8, -3.9,0,0,1024,1024,1024,1024,271.2,0,54,3.713,3.719,3.724,3.707,0,0,12.982,93.11,3473.1534533325,20.669292,14,Waypoint,
252400,2021-04-16 08:29:36,40.1849166098686,33.3283474407805,21.981628,,,3474.4657893325,22.309712,0,3.559219274,17,4,14.816,3474.4657893325,21.981628,0.31540854,4.109580184,0,0,-6.934514,270.5, -0.6, -4.1,0,0,1024,1024,1024,1024,271.2,0,54,3.713,3.719,3.724,3.707,0,0,12.982,93.11,3474.4657893325,21.981628,14,Waypoint,
252500,2021-04-16 08:29:36,40.184916695791,33.3283473925157,22.96588,,,3475.4500413325,23.293964,0,3.5473426332,17,4,14.816,3475.4500413325,22.96588,0.31540854,4.109580184,0,0,-6.934514,270.5, -0.7, -3.7,0,0,1024,1024,1024,1024,271.2,0,54,3.713,3.719,3.724,3.707,0,0,12.982,93.11,3475.4500413325,22.96588,14,Waypoint,
252600,2021-04-16 08:29:36,40.1849166330987,33.3283473997909,23.950132,,,3476.4342933325,24.278216,0,3.5481956516,17,4,14.35,3476.4342933325,23.950132,0.31540854,4.109580184,0,0,-6.934514,270.5, -0.9, -3.4,0,0,1024,1024,1024,1024,271.2,0,54,3.638,3.644,3.645,3.625,0,0,17.702,93.11,3476.4342933325,23.950132,14,Waypoint,
252700,2021-04-16 08:29:36,40.1849163986993,33.3283474430664,25.262468,,,3477.7466293325,25.262468,0,3.5571523448,15,4,14.35,3477.7466293325,25.262468,0.31540854,4.109580184,0,0,-6.934514,270.6, -1.1, -3,0,0,1024,1024,1024,1024,271.1,0,54,3.638,3.644,3.645,3.625,0,0,17.702,93.11,3477.7466293325,25.262468,14,Waypoint,
252800,2021-04-16 08:29:36,40.184916381038,33.3283474529245,26.574804,,,3479.0589653325,26.574804,0.223694,3.5597442084,15,4,14.35,3479.0589653325,26.574804,0.31540854,4.109580184,-0.223694,0,-6.934514,270.6, -1.1, -2.6,0,0,1024,1024,1024,1024,271.1,0,54,3.638,3.644,3.645,3.625,0,0,17.702,93.11,3479.0589653325,26.574804,14,Waypoint,
252900,2021-04-16 08:29:36,40.1849162943999,33.3283475002027,27.559056,,,3480.0432173325,27.559056,0.223694,3.572342634,16,4,14.35,3480.0432173325,27.559056,0.31540854,4.109580184,-0.223694,0,-6.934514,270.6, -1, -2.4,0,0,1024,1024,1024,1024,271.1,0,54,3.638,3.644,3.645,3.625,0,0,17.702,93.11,3480.0432173325,27.559056,14,Waypoint,
253000,2021-04-16 08:29:37,40.1849161115843,33.3283476043117,28.543308,,,3481.0274693325,28.543308,0,3.6010827924,16,4,14.35,3481.0274693325,28.543308,0.31540854,4.109580184,0,0,-6.934514,270.6, -1.1, -2.2,0,0,1024,1024,1024,1024,271.1,0,54,3.638,3.644,3.645,3.625,0,0,17.702,93.11,3481.0274693325,28.543308,14,Waypoint,
253100,2021-04-16 08:29:37,40.1849156418974,33.3283478445019,30.183728,,,3482.6678893325,29.52756,0,3.67290038,16,4,14.35,3482.6678893325,30.183728,0.31540854,4.109580184,0,0,-6.934514,270.6, -1.3, -1.9,0,0,1024,1024,1024,1024,271.1,0,54,3.638,3.644,3.645,3.625,0,0,17.702,93.11,3482.6678893325,30.183728,14,Waypoint,
253200,2021-04-16 08:29:37,40.1849155702003,33.3283479095091,31.16798,,,3483.6521413325,30.511812,0,3.692421378,16,4,14.35,3483.6521413325,31.16798,0.31540854,4.109580184,0,0,-6.71082,270.7, -1.6, -1.8,0,0,1024,1024,1024,1024,271.1,0,54,3.638,3.644,3.645,3.625,0,0,17.702,93.11,3483.6521413325,31.16798,14,Waypoint,
253300,2021-04-16 08:29:37,40.184915542036,33.3283479547733,32.152232,,,3484.6363933325,31.496064,0,3.7056431632,17,4,14.35,3484.6363933325,32.152232,0.31540854,4.109580184,0,0,-6.71082,270.7, -1.6, -2.1,0,0,1024,1024,1024,1024,271.1,0,54,3.638,3.644,3.645,3.625,0,0,17.702,93.11,3484.6363933325,32.152232,14,Waypoint,
253400,2021-04-16 08:29:37,40.1849155752285,33.3283479710924,33.136484,,,3485.6206453325,32.480316,0,3.7094489376,17,4,14.35,3485.6206453325,33.136484,0.31540854,4.109580184,0,0,-6.487126,270.7, -1.4, -2.3,0,0,1024,1024,1024,1024,271.1,0,54,3.638,3.644,3.645,3.625,0,0,17.702,93.11,3485.6206453325,33.136484,14,Waypoint,
253500,2021-04-16 08:29:37,40.1849154080989,33.3283479733221,34.44882,,,3486.9329813325,33.464568,0,3.7141077304,17,4,14.35,3486.9329813325,34.44882,0.31540854,4.109580184,0,0,-6.487126,270.7, -1.2, -2.1,0,0,1024,1024,1024,1024,271.1,0,54,3.638,3.644,3.645,3.625,0,0,17.702,93.11,3486.9329813325,34.44882,14,Waypoint,
253600,2021-04-16 08:29:37,40.1849152748356,33.3283480151583,35.433072,,,3487.9172333325,34.44882,0,3.7296261036,17,4,14.613,3487.9172333325,35.433072,0.31540854,4.109580184,0,0,-6.263432,270.7, -1.2, -2,0,0,1024,1024,1024,1024,271.1,0,54,3.673,3.682,3.687,3.668,0,0,14.738,93.11,3487.9172333325,35.433072,14,Waypoint,
253700,2021-04-16 08:29:37,40.1849151792166,33.3283480585473,36.417324,,,3488.9014853325,35.433072,0,3.7448492012,16,4,14.613,3488.9014853325,36.417324,0.31540854,4.109580184,0,0,-6.039738,270.7, -1.4, -1.9,0,0,1024,1024,1024,1024,271.1,0,54,3.673,3.682,3.687,3.668,0,0,14.738,93.11,3488.9014853325,36.417324,14,Waypoint,
253800,2021-04-16 08:29:37,40.1849151423494,33.3283481055914,37.401576,,,3489.8857373325,36.08924,0,3.7592192804,16,4,14.613,3489.8857373325,37.401576,0.31540854,4.109580184,0,0,-6.039738,270.7, -1.4, -1.7,0,0,1024,1024,1024,1024,271.1,0,54,3.673,3.682,3.687,3.668,0,0,14.738,93.11,3489.8857373325,37.401576,14,Waypoint,
253900,2021-04-16 08:29:37,40.1849150895345,33.3283481480596,38.057744,,,3490.5419053325,37.073492,0,3.7729331916,17,4,14.613,3490.5419053325,38.057744,0.31540854,4.109580184,0,0,-6.039738,270.6, -1.3, -1.7,0,0,1024,1024,1024,1024,271.1,0,54,3.673,3.682,3.687,3.668,0,0,14.738,93.11,3490.5419053325,38.057744,14,Waypoint,
254000,2021-04-16 08:29:38,40.1849148598417,33.3283482241064,39.041996,,,3491.5261573325,38.057744,0,3.8035762372,17,4,14.613,3491.5261573325,39.041996,0.31540854,4.109580184,0,0,-5.816044,270.6, -1.3, -1.8,0,0,1024,1024,1024,1024,271.1,0,54,3.673,3.682,3.687,3.668,0,0,14.738,93.11,3491.5261573325,39.041996,14,Waypoint,
254100,2021-04-16 08:29:38,40.1849148330725,33.3283482490166,40.026248,,,3492.5104093325,38.713912,0,3.8117127204,17,4,14.613,3492.5104093325,40.026248,0.31540854,4.109580184,0,0,-5.816044,270.6, -1.3, -1.9,0,0,1024,1024,1024,1024,271.1,0,54,3.673,3.682,3.687,3.668,0,0,14.738,93.11,3492.5104093325,40.026248,14,Waypoint,
254200,2021-04-16 08:29:38,40.184914928334,33.3283482369385,40.682416,,,3493.1665773325,39.698164,0,3.8041011716,17,4,14.613,3493.1665773325,40.682416,0.31540854,4.109580184,0,0,-5.816044,270.6, -1.3, -2.1,0,0,1024,1024,1024,1024,271.1,0,54,3.673,3.682,3.687,3.668,0,0,14.738,93.11,3493.1665773325,40.682416,14,Waypoint,
254300,2021-04-16 08:29:38,40.1849150451912,33.3283482148074,41.666668,,,3494.1508293325,40.682416,0,3.793143166,17,4,14.613,3494.1508293325,41.666668,0.31540854,4.109580184,0,0,-5.816044,270.6, -1.2, -2.3,0,0,1024,1024,1024,1024,271.1,0,54,3.673,3.682,3.687,3.668,0,0,14.738,93.11,3494.1508293325,41.666668,14,Waypoint,
254400,2021-04-16 08:29:38,40.1849154877546,33.3283480580175,42.322836,,,3494.8069973325,41.0105,0,3.7356300408,17,4,14.613,3494.8069973325,42.322836,0.31540854,4.109580184,0,0,-5.816044,270.6, -1.2, -2.6,0,0,1024,1024,1024,1024,271.1,0,54,3.673,3.682,3.687,3.668,0,0,14.738,93.11,3494.8069973325,42.322836,14,Waypoint,
254500,2021-04-16 08:29:38,40.1849155967061,33.3283480272855,43.307088,,,3495.7912493325,41.0105,0,3.7246392268,16,5,14.613,3495.7912493325,43.307088,0.31540854,4.109580184,0,0,-6.039738,270.6, -1.1, -3,0,0,1024,1024,1024,1024,271.1,0,54,3.673,3.682,3.687,3.668,0,0,14.738,93.11,3495.7912493325,43.307088,14,Waypoint,
254600,2021-04-16 08:29:38,40.1849156538893,33.3283479995021,43.963256,,,3496.4474173325,41.0105,0,3.7158137672,16,5,14.654,3496.4474173325,43.963256,0.31540854,4.109580184,0,0,-6.039738,270.6, -1, -3,0,0,1024,1024,1024,1024,271.1,0,54,3.673,3.682,3.687,3.668,0,0,12.756,93.11,3496.4474173325,43.963256,14,Waypoint,
254700,2021-04-16 08:29:38,40.1849156991873,33.3283479640092,44.947508,,,3497.4316693325,41.0105,0,3.7051510372,17,5,14.654,3497.4316693325,44.947508,0.31540854,4.109580184,0,0,-6.039738,270.6, -0.8, -3,0,0,1024,1024,1024,1024,271.1,0,54,3.673,3.682,3.687,3.668,0,0,12.756,93.11,3497.4316693325,44.947508,14,Waypoint,
254800,2021-04-16 08:29:38,40.184915717984,33.3283478165182,45.93176,,,3498.4159213325,41.0105,0,3.6637796448,17,5,14.654,3498.4159213325,45.93176,0.31540854,4.109580184,0,0,-6.039738,270.6, -0.8, -3,0,0,1024,1024,1024,1024,271.1,0,54,3.673,3.682,3.687,3.668,0,0,12.756,93.11,3498.4159213325,45.93176,14,Waypoint,
254900,2021-04-16 08:29:38,40.1849157199032,33.3283478245698,46.587928,,,3499.0720893325,41.0105,0,3.6659778076,16,5,14.654,3499.0720893325,46.587928,0.31540854,4.109580184,0,0,-6.039738,270.6, -0.9, -2.9,0,0,1024,1024,1024,1024,271.1,0,54,3.673,3.682,3.687,3.668,0,0,12.756,93.11,3499.0720893325,46.587928,14,Waypoint,
255000,2021-04-16 08:29:39,40.1849156769981,33.3283479372293,47.57218,,,3500.0563413325,41.0105,0,3.6980644228,16,5,14.654,3500.0563413325,47.57218,0.31540854,4.109580184,0,0,-6.263432,270.6, -0.9, -2.8,0,0,1024,1024,1024,1024,271,0,54,3.673,3.682,3.687,3.668,0,0,12.756,93.11,3500.0563413325,47.57218,14,Waypoint,
255100,2021-04-16 08:29:39,40.1849156440295,33.3283480369726,48.556432,,,3501.0405933325,41.0105,0,3.7264436888,17,5,14.654,3501.0405933325,48.556432,0.31540854,4.109580184,0,0,-6.263432,270.6, -1.1, -2.6,0,0,1024,1024,1024,1024,271,0,54,3.673,3.682,3.687,3.668,0,0,12.756,93.11,3501.0405933325,48.556432,14,Waypoint,
255200,2021-04-16 08:29:39,40.1849155289241,33.3283483221721,49.2126,,,3501.6967613325,41.0105,0.223694,3.8081366048,17,5,14.654,3501.6967613325,49.2126,0.31540854,4.109580184,0,0.223694,-6.263432,270.6, -1.3, -2.5,0,0,1024,1024,1024,1024,271,0,54,3.673,3.682,3.687,3.668,0,0,12.756,93.11,3501.6967613325,49.2126,14,Waypoint,
255300,2021-04-16 08:29:39,40.1849154942794,33.3283484377439,50.196852,,,3502.6810133325,41.0105,0.223694,3.8410762384,17,5,14.654,3502.6810133325,50.196852,0.31540854,4.109580184,0,0.223694,-6.263432,270.6, -1.8, -2.2,0,0,1024,1024,1024,1024,271,0,54,3.673,3.682,3.687,3.668,0,0,12.756,93.11,3502.6810133325,50.196852,14,Waypoint,
255400,2021-04-16 08:29:39,40.1849154239404,33.3283486131008,50.85302,,,3503.3371813325,41.0105,0,3.891568366,17,5,14.654,3503.3371813325,50.85302,0.31540854,4.109580184,0,0,-6.487126,270.6, -1.9, -2.2,0,0,1024,1024,1024,1024,271,0,54,3.673,3.682,3.687,3.668,0,0,12.756,93.11,3503.3371813325,50.85302,14,Waypoint,
255500,2021-04-16 08:29:39,40.1849153785956,33.3283487362085,51.837272,,,3504.3214333325,41.0105,0,3.9269686296,17,5,14.654,3504.3214333325,51.837272,0.31540854,4.109580184,0,0,-6.487126,270.6, -1.8, -2.2,0,0,1024,1024,1024,1024,271,0,54,3.673,3.682,3.687,3.668,0,0,12.756,93.11,3504.3214333325,51.837272,14,Waypoint,
255600,2021-04-16 08:29:39,40.1849153648641,33.3283487988976,52.821524,,,3505.3056853325,41.0105,0,3.9447507824,17,5,14.591,3505.3056853325,52.821524,0.31540854,4.109580184,0,0,-6.487126,270.6, -1.8, -2.4,0,0,1024,1024,1024,1024,271,0,54,3.69,3.695,3.699,3.684,0,0,12.756,93.11,3505.3056853325,52.821524,14,Waypoint,
255700,2021-04-16 08:29:39,40.1849153001538,33.3283490139898,53.477692,,,3505.9618533325,41.0105,0,4.0063321492,17,5,14.591,3505.9618533325,53.477692,0.31540854,4.109580184,0,0,-6.487126,270.6, -1.9, -2.5,0,0,1024,1024,1024,1024,271,0,54,3.69,3.695,3.699,3.684,0,0,12.756,93.11,3505.9618533325,53.477692,14,Waypoint,
255800,2021-04-16 08:29:39,40.1849153210801,33.328349046314,54.461944,,,3506.9461053325,41.0105,0,4.0147310996,17,5,14.591,3506.9461053325,54.461944,0.31540854,4.109580184,0,0,-6.71082,270.6, -1.9, -2.5,0,0,1024,1024,1024,1024,271,0,54,3.69,3.695,3.699,3.684,0,0,12.756,93.11,3506.9461053325,54.461944,14,Waypoint,
255900,2021-04-16 08:29:39,40.1849153426831,33.3283490485354,55.118112,,,3507.6022733325,41.0105,0,4.0147310996,17,5,14.591,3507.6022733325,55.118112,0.31540854,4.109580184,0,0,-6.71082,270.6, -1.6, -2.6,0,0,1024,1024,1024,1024,271,0,54,3.69,3.695,3.699,3.684,0,0,12.756,93.11,3507.6022733325,55.118112,14,Waypoint,
256000,2021-04-16 08:29:40,40.1849153641325,33.328349019607,56.102364,,,3508.5865253325,41.0105,0,4.0061352988,17,5,14.591,3508.5865253325,56.102364,0.31540854,4.109580184,0,0,-6.71082,270.6, -1.4, -2.7,0,0,1024,1024,1024,1024,271,0,54,3.69,3.695,3.699,3.684,0,0,12.756,93.11,3508.5865253325,56.102364,14,Waypoint,
256100,2021-04-16 08:29:40,40.1849154412341,33.3283489470178,57.086616,,,3509.5707773325,41.0105,0,3.9839896288,17,5,14.591,3509.5707773325,57.086616,0.31540854,4.109580184,0,0,-6.71082,270.6, -1.5, -2.7,0,0,1024,1024,1024,1024,271,0,54,3.69,3.695,3.699,3.684,0,0,12.756,93.11,3509.5707773325,57.086616,14,Waypoint,
256200,2021-04-16 08:29:40,40.1849154419432,33.3283489234754,58.070868,,,3510.5550293325,41.0105,0,3.9774279488,17,5,14.591,3510.5550293325,58.070868,0.31540854,4.109580184,0,0,-6.934514,270.6, -1.5, -2.7,0,0,1024,1024,1024,1024,271,0,54,3.69,3.695,3.699,3.684,0,0,12.756,93.11,3510.5550293325,58.070868,14,Waypoint,
256300,2021-04-16 08:29:40,40.1849154559926,33.3283489109979,58.727036,,,3511.2111973325,41.0105,0,3.9736221744,17,5,14.591,3511.2111973325,58.727036,0.31540854,4.109580184,0,0,-6.934514,270.7, -1.4, -2.8,0,0,1024,1024,1024,1024,271,0,54,3.69,3.695,3.699,3.684,0,0,12.756,93.11,3511.2111973325,58.727036,14,Waypoint,
256400,2021-04-16 08:29:40,40.1849154907098,33.3283489149445,59.711288,,,3512.1954493325,41.0105,0.223694,3.97391745,17,5,14.591,3512.1954493325,59.711288,0.31540854,4.109580184,-0.223694,0,-6.934514,270.7, -1.6, -2.7,0,0,1024,1024,1024,1024,271,0,54,3.69,3.695,3.699,3.684,0,0,12.756,93.11,3512.1954493325,59.711288,14,Waypoint,
256500,2021-04-16 08:29:40,40.1849154435684,33.3283489134743,60.367456,,,3512.8516173325,41.0105,0.223694,3.9746064264,15,5,14.591,3512.8516173325,60.367456,0.31540854,4.109580184,-0.223694,0,-6.934514,270.7, -1.5, -2.6,0,0,1024,1024,1024,1024,271,0,54,3.69,3.695,3.699,3.684,0,0,12.756,93.11,3512.8516173325,60.367456,14,Waypoint,
256600,2021-04-16 08:29:40,40.184915278671,33.3283489036484,61.351708,,,3513.8358693325,41.0105,0,3.9762796548,15,5,14.579,3513.8358693325,61.351708,0.31540854,4.109580184,0,0,-6.934514,270.7, -1.4, -2.3,0,0,1024,1024,1024,1024,271,0,54,3.672,3.68,3.682,3.664,0,0,14.548,93.11,3513.8358693325,61.351708,14,Waypoint,
256700,2021-04-16 08:29:40,40.1849151641295,33.3283488860302,62.007876,,,3514.4920373325,41.0105,0,3.9750001272,16,5,14.579,3514.4920373325,62.007876,0.31540854,4.109580184,0,0,-6.934514,270.6, -1.3, -2,0,0,1024,1024,1024,1024,271,0,54,3.672,3.68,3.682,3.664,0,0,14.548,93.11,3514.4920373325,62.007876,14,Waypoint,
256800,2021-04-16 08:29:40,40.1849151266468,33.3283488590177,62.992128,,,3515.4762893325,41.0105,0,3.9687993396,16,5,14.579,3515.4762893325,62.992128,0.31540854,4.109580184,0,0,-6.934514,270.6, -1.2, -1.9,0,0,1024,1024,1024,1024,271,0,54,3.672,3.68,3.682,3.664,0,0,14.548,93.11,3515.4762893325,62.992128,14,Waypoint,
256900,2021-04-16 08:29:40,40.184915075317,33.3283486746617,63.648296,,,3516.1324573325,41.0105,0,3.9194883144,16,5,14.579,3516.1324573325,63.648296,0.31540854,4.109580184,0,0,-7.158208,270.6, -1.1, -1.9,0,0,1024,1024,1024,1024,271,0,54,3.672,3.68,3.682,3.664,0,0,14.548,93.11,3516.1324573325,63.648296,14,Waypoint,
257000,2021-04-16 08:29:41,40.1849150536815,33.3283485675928,64.632548,,,3517.1167093325,41.0105,0,3.8906169224,16,5,14.579,3517.1167093325,64.632548,0.31540854,4.109580184,0,0,-7.158208,270.6, -1.1, -2.2,0,0,1024,1024,1024,1024,271,0,54,3.672,3.68,3.682,3.664,0,0,14.548,93.11,3517.1167093325,64.632548,14,Waypoint,
257100,2021-04-16 08:29:41,40.1849150605234,33.3283485044132,65.6168,,,3518.1009613325,41.0105,0,3.8728347696,16,5,14.579,3518.1009613325,65.6168,0.31540854,4.109580184,0,0,-7.158208,270.6, -1, -2.5,0,0,1024,1024,1024,1024,271,0,54,3.672,3.68,3.682,3.664,0,0,14.548,93.11,3518.1009613325,65.6168,14,Waypoint,
257200,2021-04-16 08:29:41,40.1849151018199,33.3283484984736,66.272968,,,3518.7571293325,41.0105,0,3.8696523548,16,5,14.579,3518.7571293325,66.272968,0.31540854,4.109580184,0,0,-7.158208,270.7, -1.1, -2.5,0,0,1024,1024,1024,1024,271,0,54,3.672,3.68,3.682,3.664,0,0,14.548,93.11,3518.7571293325,66.272968,14,Waypoint,
257300,2021-04-16 08:29:41,40.1849151275326,33.3283485140008,67.25722,,,3519.7413813325,41.0105,0,3.87303162,17,5,14.579,3519.7413813325,67.25722,0.31540854,4.109580184,0,0,-7.158208,270.7, -1.3, -2.7,0,0,1024,1024,1024,1024,271,0,54,3.672,3.68,3.682,3.664,0,0,14.548,93.11,3519.7413813325,67.25722,14,Waypoint,
257400,2021-04-16 08:29:41,40.1849151434759,33.3283487102598,68.241472,,,3520.7256333325,41.0105,0,3.9269358212,17,5,14.579,3520.7256333325,68.241472,0.31540854,4.109580184,0,0,-7.158208,270.7, -1.5, -2.7,0,0,1024,1024,1024,1024,271,0,54,3.672,3.68,3.682,3.664,0,0,14.548,93.11,3520.7256333325,68.241472,14,Waypoint,
257500,2021-04-16 08:29:41,40.1849151472816,33.3283487500273,69.225724,,,3521.7098853325,41.0105,0,3.93782821,16,5,14.579,3521.7098853325,69.225724,0.31540854,4.109580184,0,0,-7.158208,270.7, -1.6, -2.7,0,0,1024,1024,1024,1024,271,0,54,3.672,3.68,3.682,3.664,0,0,14.548,93.11,3521.7098853325,69.225724,14,Waypoint,
257600,2021-04-16 08:29:41,40.1849151594306,33.3283487838188,70.209976,,,3522.6941373325,41.0105,0,3.9467849032,16,5,14.551,3522.6941373325,70.209976,0.31540854,4.109580184,0,0,-7.158208,270.7, -1.6, -2.7,0,0,1024,1024,1024,1024,271,0,54,3.658,3.665,3.665,3.647,0,0,15.284,93.11,3522.6941373325,70.209976,14,Waypoint,
257700,2021-04-16 08:29:41,40.1849151878624,33.3283487839506,70.866144,,,3523.3503053325,41.0105,0,3.9458990764,17,5,14.551,3523.3503053325,70.866144,0.31540854,4.109580184,0,0,-7.158208,270.7, -1.6, -2.7,0,0,1024,1024,1024,1024,271,0,54,3.658,3.665,3.665,3.647,0,0,15.284,93.11,3523.3503053325,70.866144,14,Waypoint,
257800,2021-04-16 08:29:41,40.1849153197163,33.3283486981144,71.850396,,,3524.3345573325,41.0105,0,3.917979128,16,5,14.551,3524.3345573325,71.850396,0.31540854,4.109580184,0,0,-7.158208,270.6, -1.6, -2.9,0,0,1024,1024,1024,1024,271,0,54,3.658,3.665,3.665,3.647,0,0,15.284,93.11,3524.3345573325,71.850396,14,Waypoint,
257900,2021-04-16 08:29:41,40.1849153932882,33.3283486332053,72.506564,,,3524.9907253325,41.0105,0,3.8979331956,16,5,14.551,3524.9907253325,72.506564,0.31540854,4.109580184,0,0,-7.158208,270.7, -1.5, -3,0,0,1024,1024,1024,1024,271,0,54,3.658,3.665,3.665,3.647,0,0,15.284,93.11,3524.9907253325,72.506564,14,Waypoint,
258000,2021-04-16 08:29:42,40.1849154984364,33.3283485474462,73.490816,,,3525.9749773325,41.0105,0,3.8714896252,16,5,14.551,3525.9749773325,73.490816,0.31540854,4.109580184,0,0,-7.158208,270.7, -1.5, -3,0,0,1024,1024,1024,1024,271,0,54,3.658,3.665,3.665,3.647,0,0,15.284,93.11,3525.9749773325,73.490816,14,Waypoint,
258100,2021-04-16 08:29:42,40.1849155606259,33.3283484839163,74.146984,,,3526.6311453325,41.0105,0,3.8524607532,17,5,14.551,3526.6311453325,74.146984,0.31540854,4.109580184,0,0,-7.158208,270.7, -1.5, -3.1,0,0,1024,1024,1024,1024,271,0,54,3.658,3.665,3.665,3.647,0,0,15.284,93.11,3526.6311453325,74.146984,14,Waypoint,
258200,2021-04-16 08:29:42,40.1849156242822,33.328348379876,75.131236,,,3527.6153973325,41.0105,0,3.8222442168,17,5,14.551,3527.6153973325,75.131236,0.31540854,4.109580184,0,0,-7.158208,270.7, -1.4, -3.1,0,0,1024,1024,1024,1024,271,0,54,3.658,3.665,3.665,3.647,0,0,15.284,93.11,3527.6153973325,75.131236,14,Waypoint,
258300,2021-04-16 08:29:42,40.1849156062406,33.3283483573034,76.115488,,,3528.5996493325,41.0105,0,3.8163058964,17,5,14.551,3528.5996493325,76.115488,0.31540854,4.109580184,0,0,-7.381902,270.6, -1.2, -2.8,0,0,1024,1024,1024,1024,271,0,54,3.658,3.665,3.665,3.647,0,0,15.284,93.11,3528.5996493325,76.115488,14,Waypoint,
258400,2021-04-16 08:29:42,40.1849155609434,33.3283483601527,77.09974,,,3529.5839013325,41.0105,0,3.8180119332,17,5,14.551,3529.5839013325,77.09974,0.31540854,4.109580184,0,0,-7.381902,270.6, -1.2, -2.6,0,0,1024,1024,1024,1024,271,0,54,3.658,3.665,3.665,3.647,0,0,15.284,93.11,3529.5839013325,77.09974,14,Waypoint,
258500,2021-04-16 08:29:42,40.1849155580818,33.3283483565088,77.755908,,,3530.2400693325,41.0105,0,3.8170604896,17,5,14.551,3530.2400693325,77.755908,0.31540854,4.109580184,0,0,-7.158208,270.6, -1.3, -2.8,0,0,1024,1024,1024,1024,271,0,54,3.658,3.665,3.665,3.647,0,0,15.284,93.11,3530.2400693325,77.755908,14,Waypoint,
258600,2021-04-16 08:29:42,40.1849156662602,33.3283483686654,78.74016,,,3531.2243213325,41.0105,0,3.8183728256,17,5,14.534,3531.2243213325,78.74016,0.31540854,4.109580184,0,0,-7.381902,270.6, -1.4, -2.8,0,0,1024,1024,1024,1024,270.9,0,54,3.651,3.659,3.661,3.638,0,0,15.534,93.11,3531.2243213325,78.74016,14,Waypoint,
258700,2021-04-16 08:29:42,40.1849156879621,33.3283483630818,79.396328,,,3531.8804893325,41.0105,0,3.8164699384,17,5,14.534,3531.8804893325,79.396328,0.31540854,4.109580184,0,0,-7.381902,270.6, -1.5, -2.8,0,0,1024,1024,1024,1024,270.9,0,54,3.651,3.659,3.661,3.638,0,0,15.534,93.11,3531.8804893325,79.396328,14,Waypoint,
258800,2021-04-16 08:29:42,40.1849156424845,33.3283483845402,80.38058,,,3532.8647413325,41.0105,0,3.8232284688,17,5,14.534,3532.8647413325,80.38058,0.31540854,4.109580184,0,0,-7.158208,270.6, -1.6, -2.7,0,0,1024,1024,1024,1024,270.9,0,54,3.651,3.659,3.661,3.638,0,0,15.534,93.11,3532.8647413325,80.38058,14,Waypoint,
258900,2021-04-16 08:29:42,40.1849155870954,33.3283484269481,81.036748,,,3533.5209093325,41.0105,0,3.8360893616,16,5,14.534,3533.5209093325,81.036748,0.31540854,4.109580184,0,0,-7.158208,270.6, -1.8, -2.7,0,0,1024,1024,1024,1024,270.9,0,54,3.651,3.659,3.661,3.638,0,0,15.534,93.11,3533.5209093325,81.036748,14,Waypoint,
259000,2021-04-16 08:29:43,40.1849155113479,33.3283485045505,82.021,,,3534.5051613325,41.0105,0,3.8592849004,16,5,14.534,3534.5051613325,82.021,0.31540854,4.109580184,0,0,-7.158208,270.7, -1.8, -2.6,0,0,1024,1024,1024,1024,270.9,0,54,3.651,3.659,3.661,3.638,0,0,15.534,93.11,3534.5051613325,82.021,14,Waypoint,
259100,2021-04-16 08:29:43,40.1849152996693,33.3283487297882,82.677168,,,3535.1613293325,41.0105,0,3.9273623304,17,5,14.534,3535.1613293325,82.677168,0.31540854,4.109580184,0,0,-7.381902,270.7, -1.9, -2.5,0,0,1024,1024,1024,1024,270.9,0,54,3.651,3.659,3.661,3.638,0,0,15.534,93.11,3535.1613293325,82.677168,14,Waypoint,
259200,2021-04-16 08:29:43,40.1849152810746,33.3283487460695,83.333336,,,3535.8174973325,41.0105,0,3.9324476324,17,5,14.534,3535.8174973325,83.333336,0.31540854,4.109580184,0,0,-7.158208,270.7, -1.9, -2.4,0,0,1024,1024,1024,1024,270.9,0,54,3.651,3.659,3.661,3.638,0,0,15.534,93.11,3535.8174973325,83.333336,14,Waypoint,
259300,2021-04-16 08:29:43,40.184915259996,33.3283487450842,84.645672,,,3537.1298333325,41.0105,0,3.9328085248,15,5,14.534,3537.1298333325,84.645672,0.31540854,4.109580184,0,0,-7.381902,270.7, -1.8, -2.4,0,0,1024,1024,1024,1024,270.9,0,54,3.651,3.659,3.661,3.638,0,0,15.534,93.11,3537.1298333325,84.645672,14,Waypoint,
259400,2021-04-16 08:29:43,40.1849152287498,33.3283487191705,85.30184,,,3537.7860013325,41.0105,0,3.9265749288,15,5,14.534,3537.7860013325,85.30184,0.31540854,4.109580184,0,0,-7.381902,270.6, -1.6, -2.6,0,0,1024,1024,1024,1024,270.9,0,54,3.651,3.659,3.661,3.638,0,0,15.534,93.11,3537.7860013325,85.30184,14,Waypoint,
259500,2021-04-16 08:29:43,40.1849151780299,33.3283486420068,85.958008,,,3538.4421693325,41.0105,0,3.906824272,16,5,14.534,3538.4421693325,85.958008,0.31540854,4.109580184,0,0,-7.158208,270.7, -1.6, -2.8,0,0,1024,1024,1024,1024,270.9,0,54,3.651,3.659,3.661,3.638,0,0,15.534,93.11,3538.4421693325,85.958008,14,Waypoint,
259600,2021-04-16 08:29:43,40.1849151933694,33.3283486054024,86.94226,,,3539.4264213325,41.0105,0,3.8961287336,16,5,14.536,3539.4264213325,86.94226,0.31540854,4.109580184,0,0,-7.158208,270.7, -1.5, -2.9,0,0,1024,1024,1024,1024,270.9,0,54,3.651,3.659,3.661,3.638,0,0,15.534,93.11,3539.4264213325,86.94226,14,Waypoint,
259700,2021-04-16 08:29:43,40.1849151933796,33.3283485715548,87.598428,,,3540.0825893325,41.0105,0,3.8867455312,17,5,14.536,3540.0825893325,87.598428,0.31540854,4.109580184,0,0,-7.158208,270.7, -1.6, -2.8,0,0,1024,1024,1024,1024,270.9,0,54,3.651,3.659,3.661,3.638,0,0,15.534,93.11,3540.0825893325,87.598428,14,Waypoint,
259800,2021-04-16 08:29:43,40.184915172023,33.3283485402761,88.58268,,,3541.0668413325,41.0105,0,3.87877309,17,5,14.536,3541.0668413325,88.58268,0.31540854,4.109580184,0,0,-7.381902,270.7, -1.4, -2.8,0,0,1024,1024,1024,1024,270.9,0,54,3.651,3.659,3.661,3.638,0,0,15.534,93.11,3541.0668413325,88.58268,14,Waypoint,
259900,2021-04-16 08:29:43,40.1849151588651,33.3283484907458,89.566932,,,3542.0510933325,41.0105,0,3.865485688,17,5,14.536,3542.0510933325,89.566932,0.31540854,4.109580184,0,0,-7.381902,270.7, -1.3, -2.9,0,0,1024,1024,1024,1024,270.9,0,54,3.651,3.659,3.661,3.638,0,0,15.534,93.11,3542.0510933325,89.566932,14,Waypoint,
260000,2021-04-16 08:29:44,40.184915160314,33.3283484814118,90.2231,,,3542.7072613325,41.0105,0,3.862861016,17,5,14.536,3542.7072613325,90.2231,0.31540854,4.109580184,0,0,-7.381902,270.6, -1.3, -2.9,0,0,1024,1024,1024,1024,270.9,0,54,3.651,3.659,3.661,3.638,0,0,15.534,93.11,3542.7072613325,90.2231,14,Waypoint,
260100,2021-04-16 08:29:44,40.1849151599867,33.3283484808666,91.207352,,,3543.6915133325,41.0105,0,3.862696974,17,5,14.536,3543.6915133325,91.207352,0.31540854,4.109580184,0,0,-7.381902,270.6, -1.3, -2.8,0,0,1024,1024,1024,1024,270.9,0,54,3.651,3.659,3.661,3.638,0,0,15.534,93.11,3543.6915133325,91.207352,14,Waypoint,
260200,2021-04-16 08:29:44,40.1849151577586,33.3283484886659,92.191604,,,3544.6757653325,41.0105,0,3.8649607536,17,5,14.536,3544.6757653325,92.191604,0.31540854,4.109580184,0,0,-7.381902,270.6, -1.4, -2.7,0,0,1024,1024,1024,1024,270.9,0,54,3.651,3.659,3.661,3.638,0,0,15.534,93.11,3544.6757653325,92.191604,14,Waypoint,
260300,2021-04-16 08:29:44,40.1849150925191,33.3283486709155,92.847772,,,3545.3319333325,41.0105,0,3.917815086,17,5,14.536,3545.3319333325,92.847772,0.31540854,4.109580184,0,0,-7.381902,270.7, -1.6, -2.6,0,0,1024,1024,1024,1024,270.9,0,54,3.651,3.659,3.661,3.638,0,0,15.534,93.11,3545.3319333325,92.847772,14,Waypoint,
260400,2021-04-16 08:29:44,40.18491504446,33.3283487344819,93.832024,,,3546.3161853325,41.0105,0,3.9372376588,17,5,14.536,3546.3161853325,93.832024,0.31540854,4.109580184,0,0,-7.381902,270.7, -1.9, -2.6,0,0,1024,1024,1024,1024,270.9,0,54,3.651,3.659,3.661,3.638,0,0,15.534,93.11,3546.3161853325,93.832024,14,Waypoint,
260500,2021-04-16 08:29:44,40.1849150147258,33.3283487554329,94.816276,,,3547.3004373325,41.0105,0,3.9441602312,17,5,14.536,3547.3004373325,94.816276,0.31540854,4.109580184,0,0,-7.381902,270.7, -2, -2.7,0,0,1024,1024,1024,1024,270.9,0,54,3.651,3.659,3.661,3.638,0,0,15.534,93.11,3547.3004373325,94.816276,14,Waypoint,
260600,2021-04-16 08:29:44,40.1849150069451,33.3283487085766,95.800528,,,3548.2846893325,41.0105,0,3.9314961888,17,5,14.502,3548.2846893325,95.800528,0.31540854,4.109580184,0,0,-7.381902,270.7, -1.7, -2.6,0,0,1024,1024,1024,1024,270.9,0,54,3.641,3.646,3.652,3.636,0,0,15.944,93.11,3548.2846893325,95.800528,14,Waypoint,
260700,2021-04-16 08:29:44,40.1849149883646,33.3283486586439,96.456696,,,3548.9408573325,41.0105,0,3.9183728288,17,5,14.502,3548.9408573325,96.456696,0.31540854,4.109580184,0,0,-7.381902,270.7, -1.4, -2.6,0,0,1024,1024,1024,1024,270.9,0,54,3.641,3.646,3.652,3.636,0,0,15.944,93.11,3548.9408573325,96.456696,14,Waypoint,
260800,2021-04-16 08:29:44,40.1849149091099,33.3283485153589,97.440948,,,3549.9251093325,41.0105,0,3.8819883132,17,5,14.502,3549.9251093325,97.440948,0.31540854,4.109580184,0,0,-7.381902,270.6, -1.2, -2.7,0,0,1024,1024,1024,1024,270.9,0,54,3.641,3.646,3.652,3.636,0,0,15.944,93.11,3549.9251093325,97.440948,14,Waypoint,
260900,2021-04-16 08:29:44,40.1849148662268,33.3283484754526,98.4252,,,3550.9093613325,41.0105,0,3.8728347696,17,5,14.502,3550.9093613325,98.4252,0.31540854,4.109580184,0,0,-7.381902,270.6, -1.2, -2.6,0,0,1024,1024,1024,1024,270.9,0,54,3.641,3.646,3.652,3.636,0,0,15.944,93.11,3550.9093613325,98.4252,14,Waypoint,
261000,2021-04-16 08:29:45,40.1849148121018,33.32834844201,99.081368,,,3551.5655293325,41.0105,0,3.8660434308,17,5,14.502,3551.5655293325,99.081368,0.31540854,4.109580184,0,0,-7.381902,270.7, -1, -2.5,0,0,1024,1024,1024,1024,270.9,0,54,3.641,3.646,3.652,3.636,0,0,15.944,93.11,3551.5655293325,99.081368,14,Waypoint,
261100,2021-04-16 08:29:45,40.1849147772808,33.3283483847924,100.393704,,,3552.8778653325,41.0105,0,3.851870202,17,5,14.502,3552.8778653325,100.393704,0.31540854,4.109580184,0,0,-7.381902,270.7, -1.1, -2.2,0,0,1024,1024,1024,1024,270.9,0,54,3.641,3.646,3.652,3.636,0,0,15.944,93.11,3552.8778653325,100.393704,14,Waypoint,
261200,2021-04-16 08:29:45,40.1849147747787,33.3283481420374,101.377956,,,3553.8621173325,41.0105,0,3.7849082576,17,5,14.502,3553.8621173325,101.377956,0.31540854,4.109580184,0,0,-7.381902,270.7, -1.2, -2.4,0,0,1024,1024,1024,1024,270.9,0,54,3.641,3.646,3.652,3.636,0,0,15.944,93.11,3553.8621173325,101.377956,14,Waypoint,
261300,2021-04-16 08:29:45,40.1849147862951,33.3283480292714,102.362208,,,3554.8463693325,41.0105,0,3.7532153432,16,5,14.502,3554.8463693325,102.362208,0.31540854,4.109580184,0,0,-7.381902,270.7, -0.8, -2.7,0,0,1024,1024,1024,1024,270.9,0,54,3.641,3.646,3.652,3.636,0,0,15.944,93.11,3554.8463693325,102.362208,14,Waypoint,
261400,2021-04-16 08:29:45,40.1849148061039,33.3283479130156,103.674544,,,3556.1587053325,41.0105,0,3.720144476,16,5,14.502,3556.1587053325,103.674544,0.31540854,4.109580184,0,0,-7.381902,270.7, -0.7, -2.6,0,0,1024,1024,1024,1024,270.9,0,54,3.641,3.646,3.652,3.636,0,0,15.944,93.11,3556.1587053325,103.674544,14,Waypoint,
261500,2021-04-16 08:29:45,40.1849148064043,33.3283478649512,104.658796,,,3557.1429573325,41.0105,0,3.7068242656,17,5,14.502,3557.1429573325,104.658796,0.31540854,4.109580184,0,0,-7.381902,270.7, -1, -2.4,0,0,1024,1024,1024,1024,270.9,0,54,3.641,3.646,3.652,3.636,0,0,15.944,93.11,3557.1429573325,104.658796,14,Waypoint,
261600,2021-04-16 08:29:45,40.1849147772356,33.3283480335572,105.643048,,,3558.1272093325,41.0105,0,3.7548229548,17,5,14.481,3558.1272093325,105.643048,0.31540854,4.109580184,0,0,-7.381902,270.7, -0.9, -2.5,0,0,1024,1024,1024,1024,270.9,0,54,3.637,3.643,3.648,3.621,0,0,16.284,93.11,3558.1272093325,105.643048,14,Waypoint,
261700,2021-04-16 08:29:45,40.1849147597746,33.3283480731327,106.6273,,,3559.1114613325,41.0105,0,3.7666339788,16,5,14.481,3559.1114613325,106.6273,0.31540854,4.109580184,0,0,-7.158208,270.7, -1.1, -2.6,0,0,1024,1024,1024,1024,270.9,0,54,3.637,3.643,3.648,3.621,0,0,16.284,93.11,3559.1114613325,106.6273,14,Waypoint,
261800,2021-04-16 08:29:45,40.184914757095,33.3283480764613,107.611552,,,3560.0957133325,41.0105,0,3.7676838476,16,5,14.481,3560.0957133325,107.611552,0.31540854,4.109580184,0,0,-7.158208,270.7, -0.9, -2.4,0,0,1024,1024,1024,1024,270.9,0,54,3.637,3.643,3.648,3.621,0,0,16.284,93.11,3560.0957133325,107.611552,14,Waypoint,
261900,2021-04-16 08:29:45,40.1849147374914,33.3283481086719,108.923888,,,3561.4080493325,41.0105,0,3.777559176,17,5,14.481,3561.4080493325,108.923888,0.31540854,4.109580184,0,0,-7.381902,270.7, -1.1, -2.3,0,0,1024,1024,1024,1024,270.9,0,54,3.637,3.643,3.648,3.621,0,0,16.284,93.11,3561.4080493325,108.923888,14,Waypoint,
262000,2021-04-16 08:29:46,40.1849146275161,33.3283482984545,109.580056,,,3562.0642173325,41.0105,0,3.8355972356,17,5,14.481,3562.0642173325,109.580056,0.31540854,4.109580184,0,0,-7.158208,270.7, -1.2, -2.3,0,0,1024,1024,1024,1024,270.9,0,54,3.637,3.643,3.648,3.621,0,0,16.284,93.11,3562.0642173325,109.580056,14,Waypoint,
262100,2021-04-16 08:29:46,40.1849145783356,33.3283482776843,110.564308,,,3563.0484693325,41.0105,0,3.8325460544,17,5,14.481,3563.0484693325,110.564308,0.31540854,4.109580184,0,0,-7.158208,270.7, -1.2, -2.3,0,0,1024,1024,1024,1024,270.9,0,54,3.637,3.643,3.648,3.621,0,0,16.284,93.11,3563.0484693325,110.564308,14,Waypoint,
262200,2021-04-16 08:29:46,40.1849145189729,33.3283481363964,111.54856,,,3564.0327213325,41.0105,0,3.7969817488,17,5,14.481,3564.0327213325,111.54856,0.31540854,4.109580184,0,0,-7.158208,270.6, -1, -2.3,0,0,1024,1024,1024,1024,270.9,0,54,3.637,3.643,3.648,3.621,0,0,16.284,93.11,3564.0327213325,111.54856,14,Waypoint,
262300,2021-04-16 08:29:46,40.1849144796597,33.3283480167994,112.860896,,,3565.3450573325,41.0105,0,3.7663715116,17,5,14.481,3565.3450573325,112.860896,0.31540854,4.109580184,0,0,-7.381902,270.6, -0.6, -2.4,0,0,1024,1024,1024,1024,270.9,0,54,3.637,3.643,3.648,3.621,0,0,16.284,93.11,3565.3450573325,112.860896,14,Waypoint,
262400,2021-04-16 08:29:46,40.184914465894,33.3283479286606,113.845148,,,3566.3293093325,41.0105,0,3.742946314,17,5,14.481,3566.3293093325,113.845148,0.31540854,4.109580184,0,0,-7.381902,270.7, -0.7, -2,0,0,1024,1024,1024,1024,270.9,0,54,3.637,3.643,3.648,3.621,0,0,16.284,93.11,3566.3293093325,113.845148,14,Waypoint,
262500,2021-04-16 08:29:46,40.1849144173705,33.3283476350746,114.8294,,,3567.3135613325,41.0105,0,3.6653216396,17,5,14.481,3567.3135613325,114.8294,0.31540854,4.109580184,0,0,-7.158208,270.7, -0.7, -1.9,0,0,1024,1024,1024,1024,270.9,0,54,3.637,3.643,3.648,3.621,0,0,16.284,93.11,3567.3135613325,114.8294,14,Waypoint,
262600,2021-04-16 08:29:46,40.1849143790403,33.32834765587,116.141736,,,3568.6258973325,41.0105,0,3.6734581228,17,5,14.471,3568.6258973325,116.141736,0.31540854,4.109580184,0,0,-7.158208,270.7, -0.7, -2,0,0,1024,1024,1024,1024,270.9,0,54,3.627,3.634,3.637,3.622,0,0,16.268,93.11,3568.6258973325,116.141736,14,Waypoint,
262700,2021-04-16 08:29:46,40.1849143613923,33.3283476777712,117.125988,,,3569.6101493325,41.0105,0,3.680610354,17,5,14.471,3569.6101493325,117.125988,0.31540854,4.109580184,0,0,-7.158208,270.7, -0.9, -2.1,0,0,1024,1024,1024,1024,270.9,0,54,3.627,3.634,3.637,3.622,0,0,16.268,93.11,3569.6101493325,117.125988,14,Waypoint,
262800,2021-04-16 08:29:46,40.1849143695825,33.3283476928373,118.11024,,,3570.5944013325,41.0105,0,3.684219278,17,5,14.471,3570.5944013325,118.11024,0.31540854,4.109580184,0,0,-6.934514,270.7, -1.2, -2,0,0,1024,1024,1024,1024,270.9,0,54,3.627,3.634,3.637,3.622,0,0,16.268,93.11,3570.5944013325,118.11024,14,Waypoint,
262900,2021-04-16 08:29:46,40.1849143845555,33.328347759878,119.094492,,,3571.5786533325,41.0105,0,3.7016405384,17,5,14.471,3571.5786533325,119.094492,0.31540854,4.109580184,0,0,-6.934514,270.7, -1.2, -2.1,0,0,1024,1024,1024,1024,270.9,0,54,3.627,3.634,3.637,3.622,0,0,16.268,93.11,3571.5786533325,119.094492,14,Waypoint,
263000,2021-04-16 08:29:47,40.184914368519,33.3283477901546,120.078744,,,3572.5629053325,41.0105,0,3.7109909324,17,5,14.471,3572.5629053325,120.078744,0.31540854,4.109580184,0,0,-6.934514,270.7, -1.2, -2.4,0,0,1024,1024,1024,1024,270.9,0,54,3.627,3.634,3.637,3.622,0,0,16.268,93.11,3572.5629053325,120.078744,14,Waypoint,
263100,2021-04-16 08:29:47,40.1849143403613,33.3283478302109,121.062996,,,3573.5471573325,41.0105,0,3.7238190168,17,5,14.471,3573.5471573325,121.062996,0.31540854,4.109580184,0,0,-6.934514,270.7, -1.1, -2.1,0,0,1024,1024,1024,1024,270.9,0,54,3.627,3.634,3.637,3.622,0,0,16.268,93.11,3573.5471573325,121.062996,14,Waypoint,
263200,2021-04-16 08:29:47,40.1849142967941,33.3283478904403,122.047248,,,3574.5314093325,41.0105,0,3.7431759728,17,5,14.471,3574.5314093325,122.047248,0.31540854,4.109580184,0,0,-6.934514,270.7, -1.1, -1.9,0,0,1024,1024,1024,1024,270.9,0,54,3.627,3.634,3.637,3.622,0,0,16.268,93.11,3574.5314093325,122.047248,14,Waypoint,
263300,2021-04-16 08:29:47,40.1849142664489,33.3283479853078,123.359584,,,3575.8437453325,41.0105,0,3.7711943464,17,5,14.471,3575.8437453325,123.359584,0.31540854,4.109580184,0,0,-6.934514,270.7, -1, -1.8,0,0,1024,1024,1024,1024,270.9,0,54,3.627,3.634,3.637,3.622,0,0,16.268,93.11,3575.8437453325,123.359584,14,Waypoint,
263400,2021-04-16 08:29:47,40.1849142543351,33.3283481350257,124.343836,,,3576.8279973325,41.0105,0,3.8130250564,17,5,14.471,3576.8279973325,124.343836,0.31540854,4.109580184,0,0,-6.934514,270.7, -1.2, -2,0,0,1024,1024,1024,1024,270.9,0,54,3.627,3.634,3.637,3.622,0,0,16.268,93.11,3576.8279973325,124.343836,14,Waypoint,
263500,2021-04-16 08:29:47,40.1849142571348,33.3283482379826,125.328088,,,3577.8122493325,41.0105,0,3.8410762384,17,5,14.471,3577.8122493325,125.328088,0.31540854,4.109580184,0,0,-6.934514,270.6, -1.2, -2.2,0,0,1024,1024,1024,1024,270.9,0,54,3.627,3.634,3.637,3.622,0,0,16.268,93.11,3577.8122493325,125.328088,14,Waypoint,
263600,2021-04-16 08:29:47,40.1849142772091,33.3283482767453,126.31234,,,3578.7965013325,41.0105,0,3.850393824,17,5,14.458,3578.7965013325,126.31234,0.31540854,4.109580184,0,0,-6.934514,270.6, -1.4, -2.2,0,0,1024,1024,1024,1024,270.9,0,53,3.627,3.634,3.637,3.622,0,0,16.344,93.11,3578.7965013325,126.31234,14,Waypoint,
263700,2021-04-16 08:29:47,40.1849143409264,33.3283484373585,127.296592,,,3579.7807533325,41.0105,0,3.8903872636,17,5,14.458,3579.7807533325,127.296592,0.31540854,4.109580184,0,0,-6.934514,270.6, -1.3, -2.4,0,0,1024,1024,1024,1024,270.9,0,53,3.627,3.634,3.637,3.622,0,0,16.344,93.11,3579.7807533325,127.296592,14,Waypoint,
263800,2021-04-16 08:29:47,40.1849143624703,33.3283485093465,128.608928,,,3581.0930893325,41.0105,0,3.9088583928,17,5,14.458,3581.0930893325,128.608928,0.31540854,4.109580184,0,0,-6.934514,270.7, -1.2, -2.6,0,0,1024,1024,1024,1024,270.9,0,53,3.627,3.634,3.637,3.622,0,0,16.344,93.11,3581.0930893325,128.608928,14,Waypoint,
263900,2021-04-16 08:29:47,40.1849143934297,33.3283485448464,129.265096,,,3581.7492573325,41.0105,0,3.9167324088,17,5,14.458,3581.7492573325,129.265096,0.31540854,4.109580184,0,0,-6.71082,270.7, -1.2, -2.5,0,0,1024,1024,1024,1024,270.9,0,53,3.627,3.634,3.637,3.622,0,0,16.344,93.11,3581.7492573325,129.265096,14,Waypoint,
264000,2021-04-16 08:29:48,40.1849144474024,33.3283485217343,130.577432,,,3583.0615933325,41.0105,0,3.907152356,17,5,14.458,3583.0615933325,130.577432,0.31540854,4.109580184,0,0,-6.71082,270.6, -1.1, -2.5,0,0,1024,1024,1024,1024,270.9,0,53,3.627,3.634,3.637,3.622,0,0,16.344,93.11,3583.0615933325,130.577432,14,Waypoint,
264100,2021-04-16 08:29:48,40.184914478134,33.3283484725053,131.561684,,,3584.0458453325,41.0105,0,3.8918308332,17,5,14.458,3584.0458453325,131.561684,0.31540854,4.109580184,0,0,-6.71082,270.6, -0.9, -2.5,0,0,1024,1024,1024,1024,270.9,0,53,3.627,3.634,3.637,3.622,0,0,16.344,93.11,3584.0458453325,131.561684,14,Waypoint,
