time(millisecond),datetime(utc),latitude,longitude,height_above_takeoff(feet),height_above_ground_at_drone_location(feet),ground_elevation_at_drone_location(feet),altitude_above_seaLevel(feet),height_sonar(feet),speed(mph),distance(feet),satellites,gpslevel,voltage(v),max_altitude(feet),max_ascent(feet),max_speed(mph),max_distance(feet), xSpeed(mph), ySpeed(mph), zSpeed(mph), compass_heading(degrees), pitch(degrees), roll(degrees),isPhoto,isVideo,rc_elevator,rc_aileron,rc_throttle,rc_rudder,gimbal_heading(degrees),gimbal_pitch(degrees),battery_percent,voltageCell1,voltageCell2,voltageCell3,voltageCell4,voltageCell5,voltageCell6,current(A),battery_temperature(f),altitude(feet),ascent(feet),flycStateRaw,flycState,message
0,,40.184958247241,33.3283689399501,0,Available with any HD 360 subscription,Available with any HD 360 subscription,3452.5906925039,0.328084,0,0,10,4,0,3452.5906925039,0,0,0,0,0,0,233.9, -0.4, -0.6,0,0,1024,1024,1024,1024,233.8,0,99,4.252,4.257,4.257,4.252,0,0,0,75.11,3452.5906925039,0,41,Motors_Started,
100,,40.1849582237197,33.3283690147993,0,,,3452.5906925039,0.328084,0,0.0225589574148,10,4,0,3452.5906925039,0,0,0.0225589574148,0,0,0,233.8, -0.4, -0.6,0,0,1024,1024,1024,1024,233.8,0,99,4.252,4.257,4.257,4.252,0,0,0,75.11,3452.5906925039,0,41,Motors_Started,
200,,40.1849581030813,33.3283691086823,0,,,3452.5906925039,0.328084,0,0.070557088872,10,4,0,3452.5906925039,0,0,0.070557088872,0,0,0,234.1, -0.4, -0.6,0,0,1024,1024,1024,1024,233.8,0,99,4.252,4.257,4.257,4.252,0,0,0,75.11,3452.5906925039,0,41,Motors_Started,
300,,40.1849580965757,33.3283692182951,0,,,3452.5906925039,0.328084,0,0.095083992544,10,4,16.838,3452.5906925039,0,0,0.095083992544,0,0,0,234.2, -0.4, -0.6,0,0,1024,1024,1024,1024,233.8,0,99,4.252,4.257,4.257,4.252,0,0,1.37,75.11,3452.5906925039,0,41,Motors_Started,Setting new Return-To-Home altitude to 150m (492 ft). Data Recorder File Index is 375. Setting new Maximum Flight Altitude to 500m (1640 ft)
400,,40.184958092034,33.3283693166573,0,,,3452.5906925039,0.328084,0,0.119296919828,10,4,16.838,3452.5906925039,0,0,0.119296919828,0,0,0,234, -0.4, -0.6,0,0,1024,1024,1024,1024,233.8,0,99,4.252,4.257,4.257,4.252,0,0,1.37,75.11,3452.5906925039,0,41,Motors_Started,
500,2021-04-13 10:46:17,40.1849580944457,33.3283693837829,0,,,3452.5906925039,0.328084,0,0.135690949224,10,4,16.838,3452.5906925039,0,0,0.135690949224,0,0,0,233.9, -0.4, -0.6,0,0,1024,1024,1024,1024,233.8,0,99,4.252,4.257,4.257,4.252,0,0,1.37,75.11,3452.5906925039,0,41,Motors_Started,
600,2021-04-13 10:46:17,40.1849581410811,33.3283694269197,0,,,3452.5906925039,0.328084,0,0.141152235488,10,4,16.838,3452.5906925039,0,0,0.141152235488,0,0,0,234, -0.4, -0.6,0,0,1024,1024,1024,1024,233.8,0,99,4.252,4.257,4.257,4.252,0,0,1.37,75.11,3452.5906925039,0,41,Motors_Started,
700,2021-04-13 10:46:17,40.184958092801,33.3283694800197,0,,,3452.5906925039,0.328084,0,0.160735241364,10,4,16.838,3452.5906925039,0,0,0.160735241364,0,0,0,234.1, -0.3, -0.6,0,0,1024,1024,1024,1024,233.8,0,99,4.252,4.257,4.257,4.252,0,0,1.37,75.11,3452.5906925039,0,41,Motors_Started,
800,2021-04-13 10:46:17,40.1849580498963,33.3283695303427,0,,,3452.5906925039,0.328084,0,0.179623693412,10,4,16.838,3452.5906925039,0,0,0.179623693412,0,0,0,234, -0.4, -0.6,0,0,1024,1024,1024,1024,233.8,0,99,4.252,4.257,4.257,4.252,0,0,1.37,75.11,3452.5906925039,0,41,Motors_Started,
900,2021-04-13 10:46:17,40.1849580340141,33.3283695812242,0,,,3452.5906925039,0.328084,0,0.194939966868,10,4,16.838,3452.5906925039,0,0,0.194939966868,0,0,0,234, -0.4, -0.6,0,0,1024,1024,1024,1024,233.8,0,99,4.252,4.257,4.257,4.252,0,0,1.37,75.11,3452.5906925039,0,41,Motors_Started,
1000,2021-04-13 10:46:18,40.1849579277451,33.3283695802775,0,,,3452.5906925039,0.328084,0,0.213173891336,10,4,16.838,3452.5906925039,0,0,0.213173891336,0,0,0,234, -0.3, -0.6,0,0,1024,1024,1024,1024,233.8,0,99,4.252,4.257,4.257,4.252,0,0,1.37,75.11,3452.5906925039,0,41,Motors_Started,
1100,2021-04-13 10:46:18,40.1849578779685,33.3283696833579,0,,,3452.5906925039,0.328084,0,0.247161097148,10,4,16.838,3452.5906925039,0,0,0.247161097148,0,0,0,234, -0.4, -0.6,0,0,1024,1024,1024,1024,233.8,0,99,4.252,4.257,4.257,4.252,0,0,1.37,75.11,3452.5906925039,0,41,Motors_Started,
1200,2021-04-13 10:46:18,40.184957835826,33.3283697775324,0,,,3452.5906925039,0.328084,0,0.277552830404,10,4,16.838,3452.5906925039,0,0,0.277552830404,0,0,0,234.1, -0.4, -0.6,0,0,1024,1024,1024,1024,233.8,0,99,4.252,4.257,4.257,4.252,0,0,1.37,75.11,3452.5906925039,0,41,Motors_Started,
1300,2021-04-13 10:46:18,40.1849578247737,33.3283698468254,0,,,3452.5906925039,0.328084,0,0.296063657768,10,4,17.01,3452.5906925039,0,0,0.296063657768,0,0,0,234.1, -0.4, -0.6,0,0,1024,1024,1024,1024,233.8,0,99,4.173,4.177,4.183,4.179,0,0,4.382,75.11,3452.5906925039,0,41,Motors_Started,
1400,2021-04-13 10:46:18,40.1849578180075,33.3283699113246,0,,,3452.5906925039,0.328084,0,0.31278216224,10,4,17.01,3452.5906925039,0,0,0.31278216224,0,0,0,234.1, -0.3, -0.6,0,0,1024,1024,1024,1024,233.8,0,99,4.173,4.177,4.183,4.179,0,0,4.382,75.11,3452.5906925039,0,41,Motors_Started,
1500,2021-04-13 10:46:18,40.1849578975701,33.3283699009773,0,,,3452.5906925039,0.328084,0,0.296698500308,10,4,17.01,3452.5906925039,0,0,0.31278216224,0,0,0,234.1, -0.3, -0.6,0,0,1024,1024,1024,1024,233.9,0,99,4.173,4.177,4.183,4.179,0,0,4.382,75.11,3452.5906925039,0,11,AutoTakeoff,
1600,2021-04-13 10:46:18,40.1849578958944,33.3283699617975,0,,,3452.5906925039,0.328084,0,0.31233924884,10,4,17.01,3452.5906925039,0,0,0.31278216224,0,0,0,234.1, -0.4, -0.6,0,0,1024,1024,1024,1024,233.8,0,99,4.173,4.177,4.183,4.179,0,0,4.382,75.11,3452.5906925039,0,11,AutoTakeoff,
1700,2021-04-13 10:46:18,40.1849578512604,33.3283700679374,0,,,3452.5906925039,0.328084,0,0.34601050976,10,4,17.01,3452.5906925039,0,0,0.34601050976,0,0,0,234.1, -0.3, -0.6,0,0,1024,1024,1024,1024,233.9,0,99,4.173,4.177,4.183,4.179,0,0,4.382,75.11,3452.5906925039,0,11,AutoTakeoff,
1800,2021-04-13 10:46:18,40.1849578126093,33.3283701659037,0,,,3452.5906925039,0.328084,0,0.37671589132,10,4,17.01,3452.5906925039,0,0,0.37671589132,0,0,0,234.1, -0.4, -0.6,0,0,1024,1024,1024,1024,233.8,0,99,4.173,4.177,4.183,4.179,0,0,4.382,75.11,3452.5906925039,0,11,AutoTakeoff,
1900,2021-04-13 10:46:18,40.1849577826801,33.3283702282683,0,,,3452.5906925039,0.328084,0,0.39708662688,10,4,17.01,3452.5906925039,0,0,0.39708662688,0,0,0,234.1, -0.4, -0.6,0,0,1024,1024,1024,1024,233.9,0,99,4.173,4.177,4.183,4.179,0,0,4.382,75.11,3452.5906925039,0,11,AutoTakeoff,
2000,2021-04-13 10:46:19,40.1849577753505,33.3283702898426,0,,,3452.5906925039,0.328084,0,0.4137795408,10,4,17.01,3452.5906925039,0,0,0.4137795408,0,0,0,234.1, -0.3, -0.6,0,0,1024,1024,1024,1024,233.8,0,99,4.173,4.177,4.183,4.179,0,0,4.382,75.11,3452.5906925039,0,11,AutoTakeoff,
2100,2021-04-13 10:46:19,40.1849577785227,33.3283703410093,0,,,3452.5906925039,0.328084,0,0.42632219212,10,4,17.01,3452.5906925039,0,0,0.42632219212,0,0,0,233.9, -0.6, -0.3,0,0,1024,1024,1024,1024,233.9,0,99,4.173,4.177,4.183,4.179,0,0,4.382,75.11,3452.5906925039,0,11,AutoTakeoff,
2200,2021-04-13 10:46:19,40.1849577913613,33.3283703767875,0,,,3452.5906925039,0.328084,0,0.43365815036,10,4,17.01,3452.5906925039,0,0,0.43365815036,0,0,0,233.8, -1, 1.2,0,0,1024,1024,1024,1024,233.9,0,99,4.173,4.177,4.183,4.179,0,0,4.382,75.11,3452.5906925039,0,11,AutoTakeoff,
2300,2021-04-13 10:46:19,40.18495799883,33.3283703013636,0,,,3452.5906925039,0.328084,0,0.39014436944,10,4,16.369,3452.5906925039,0,0,0.43365815036,0,0,-0.447388,233.5, -1, 2.5,0,0,1024,1024,1024,1024,233.9,0,99,4.173,4.177,4.183,4.179,0,0,4.382,75.11,3452.5906925039,0,11,AutoTakeoff,
2400,2021-04-13 10:46:19,40.1849580747741,33.3283702326641,0,,,3452.5906925039,0.656168,0.223694,0.36577428992,10,4,16.369,3452.5906925039,0,0.223694,0.43365815036,0,-0.223694,-0.894776,233.5, 0, 1.1,0,0,1024,1024,1024,1024,233.9,0,99,4.173,4.177,4.183,4.179,0,0,4.382,75.11,3452.5906925039,0,11,AutoTakeoff,
2500,2021-04-13 10:46:19,40.1849581521675,33.3283701062768,0.328084,,,3452.9187765039,0.656168,0.223694,0.326938330672,10,4,16.369,3452.9187765039,0.328084,0.223694,0.43365815036,0,-0.223694,-1.11847,233.6, 0.7, -0.6,0,0,1024,1024,1024,1024,233.9,0,99,4.173,4.177,4.183,4.179,0,0,4.382,75.11,3452.9187765039,0.328084,11,AutoTakeoff,
2600,2021-04-13 10:46:19,40.1849582329253,33.3283699818151,0.328084,,,3452.9187765039,0.984252,0.223694,0.290448500108,10,4,16.369,3452.9187765039,0.328084,0.223694,0.43365815036,0,-0.223694,-1.342164,233.6, 1, -1.6,0,0,1024,1024,1024,1024,233.8,0,99,4.173,4.177,4.183,4.179,0,0,4.382,75.11,3452.9187765039,0.328084,11,AutoTakeoff,
2700,2021-04-13 10:46:19,40.1849583078093,33.3283698222718,0.656168,,,3453.2468605039,0.984252,0.31540854,0.24692258008,10,4,16.369,3453.2468605039,0.656168,0.31540854,0.43365815036,0.223694,-0.223694,-1.342164,233.5, 0.9, -1.8,0,0,1024,1024,1024,1024,233.9,0,99,4.173,4.177,4.183,4.179,0,0,4.382,75.11,3453.2468605039,0.656168,11,AutoTakeoff,
2800,2021-04-13 10:46:19,40.1849583789967,33.3283697378875,0.984252,,,3453.5749445039,1.312336,0,0.227546595208,9,4,16.369,3453.5749445039,0.984252,0.31540854,0.43365815036,0,0,-1.11847,233.5, 0.7, -2,0,0,1024,1024,1024,1024,233.9,0,99,4.173,4.177,4.183,4.179,0,0,4.382,75.11,3453.5749445039,0.984252,11,AutoTakeoff,
2900,2021-04-13 10:46:19,40.1849584776495,33.3283696068247,0.984252,,,3453.5749445039,1.64042,0,0.204004927788,9,4,16.369,3453.5749445039,0.984252,0.31540854,0.43365815036,0,0,-1.11847,233.4, 0.4, -2.1,0,0,1024,1024,1024,1024,233.8,0,99,4.173,4.177,4.183,4.179,0,0,4.382,75.11,3453.5749445039,0.984252,11,AutoTakeoff,
3000,2021-04-13 10:46:20,40.1849585546668,33.328369515552,1.312336,,,3453.9030285039,1.64042,0,0.195758536448,10,4,16.369,3453.9030285039,1.312336,0.31540854,0.43365815036,0,0,-1.11847,233.5, 0, -1.9,0,0,1024,1024,1024,1024,233.8,0,99,4.173,4.177,4.183,4.179,0,0,4.382,75.11,3453.9030285039,1.312336,11,AutoTakeoff,
3100,2021-04-13 10:46:20,40.1849585603728,33.3283695023071,1.312336,,,3453.9030285039,1.968504,0,0.1939632608,10,4,16.369,3453.9030285039,1.312336,0.31540854,0.43365815036,0,0,-0.894776,233.5, 0, -1.4,0,0,1024,1024,1024,1024,233.8,0,99,4.173,4.177,4.183,4.179,0,0,4.382,75.11,3453.9030285039,1.312336,11,AutoTakeoff,
3200,2021-04-13 10:46:20,40.1849584293889,33.3283694452394,1.64042,,,3454.2311125039,1.968504,0,0.155732288448,10,4,16.369,3454.2311125039,1.64042,0.31540854,0.43365815036,0,0,-0.894776,233.5, -0.3, -0.5,0,0,1024,1024,1024,1024,233.8,0,99,4.173,4.177,4.183,4.179,0,0,4.382,75.11,3454.2311125039,1.64042,11,AutoTakeoff,
3300,2021-04-13 10:46:20,40.1849584373651,33.3283694909283,1.64042,,,3454.2311125039,2.296588,0,0.168514441088,10,4,16.837,3454.2311125039,1.64042,0.31540854,0.43365815036,0,0,-0.894776,233.5, -0.4, 0,0,0,1024,1024,1024,1024,233.8,0,99,4.119,4.122,4.111,4.087,0,0,5.032,75.11,3454.2311125039,1.64042,11,AutoTakeoff,
3400,2021-04-13 10:46:20,40.1849584526773,33.3283695484901,1.64042,,,3454.2311125039,2.296588,0,0.185442263152,9,4,16.837,3454.2311125039,1.64042,0.31540854,0.43365815036,0,0,-0.894776,233.5, -0.5, 0,0,0,1024,1024,1024,1024,233.8,0,99,4.119,4.122,4.111,4.087,0,0,5.032,75.11,3454.2311125039,1.64042,11,AutoTakeoff,
3500,2021-04-13 10:46:20,40.1849584620962,33.3283696860158,1.968504,,,3454.5591965039,2.624672,0,0.222236883752,9,4,16.837,3454.5591965039,1.968504,0.31540854,0.43365815036,0,0,-0.894776,233.6, -0.7, -0.1,0,0,1024,1024,1024,1024,233.8,0,99,4.119,4.122,4.111,4.087,0,0,5.032,75.11,3454.5591965039,1.968504,11,AutoTakeoff,
3600,2021-04-13 10:46:20,40.1849583994142,33.3283699438695,1.968504,,,3454.5591965039,2.624672,0,0.285279536688,9,4,16.837,3454.5591965039,1.968504,0.31540854,0.43365815036,0,0,-0.894776,233.5, -0.9, -0.3,0,0,1024,1024,1024,1024,233.8,0,99,4.119,4.122,4.111,4.087,0,0,5.032,75.11,3454.5591965039,1.968504,11,AutoTakeoff,
3700,2021-04-13 10:46:20,40.184958489402,33.3283699304452,1.968504,,,3454.5591965039,2.952756,0,0.289875665444,9,4,16.837,3454.5591965039,1.968504,0.31540854,0.43365815036,0,0,-0.894776,233.5, -0.8, -0.8,0,0,1024,1024,1024,1024,233.8,0,99,4.119,4.122,4.111,4.087,0,0,5.032,75.11,3454.5591965039,1.968504,11,AutoTakeoff,
3800,2021-04-13 10:46:20,40.1849585831873,33.3283699032176,2.296588,,,3454.8872805039,2.952756,0,0.295147975324,10,4,16.837,3454.8872805039,2.296588,0.31540854,0.43365815036,0,0,-0.894776,233.5, -0.6, -1,0,0,1024,1024,1024,1024,233.8,0,99,4.119,4.122,4.111,4.087,0,0,5.032,75.11,3454.8872805039,2.296588,11,AutoTakeoff,
3900,2021-04-13 10:46:20,40.1849587336376,33.3283698090991,2.296588,,,3454.8872805039,3.28084,0.223694,0.300304143468,10,4,16.837,3454.8872805039,2.296588,0.31540854,0.43365815036,0.223694,0,-0.894776,233.5, -0.7, -1,0,0,1024,1024,1024,1024,233.8,0,99,4.119,4.122,4.111,4.087,0,0,5.032,75.11,3454.8872805039,2.296588,11,AutoTakeoff,
4000,2021-04-13 10:46:21,40.184959068006,33.3283694722386,2.624672,,,3455.2153645039,3.28084,0.223694,0.33419620492,10,4,16.837,3455.2153645039,2.624672,0.31540854,0.43365815036,0.223694,0,-0.894776,233.5, -0.8, -1.3,0,0,1024,1024,1024,1024,233.8,0,99,4.119,4.122,4.111,4.087,0,0,5.032,75.11,3455.2153645039,2.624672,11,AutoTakeoff,
4100,2021-04-13 10:46:21,40.1849592518134,33.3283694292602,2.624672,,,3455.2153645039,3.608924,0,0.39106956632,10,4,16.837,3455.2153645039,2.624672,0.31540854,0.43365815036,0,0,-1.11847,233.5, -0.8, -1.6,0,0,1024,1024,1024,1024,233.8,0,99,4.119,4.122,4.111,4.087,0,0,5.032,75.11,3455.2153645039,2.624672,6,P-GPS,
4200,2021-04-13 10:46:21,40.1849593961066,33.3283694086301,2.952756,,,3455.5434485039,3.608924,0,0.43904857048,9,4,16.837,3455.5434485039,2.952756,0.31540854,0.43904857048,0,0,-0.894776,233.4, -0.7, -1.6,0,0,1024,1024,1024,1024,233.8,0,99,4.119,4.122,4.111,4.087,0,0,5.032,75.11,3455.5434485039,2.952756,14,Waypoint,
4300,2021-04-13 10:46:21,40.1849593957662,33.3283694716065,3.28084,,,3455.8715325039,3.937008,0,0.444471799,9,4,16.108,3455.8715325039,3.28084,0.31540854,0.444471799,0,0,-1.11847,233.3, -0.8, -1.5,0,0,1024,1024,1024,1024,233.8,0,99,4.119,4.122,4.111,4.087,0,0,5.032,75.11,3455.8715325039,3.28084,14,Waypoint,
4400,2021-04-13 10:46:21,40.1849592330212,33.3283697392273,3.28084,,,3455.8715325039,3.937008,0,0.42307087968,10,4,16.108,3455.8715325039,3.28084,0.31540854,0.444471799,0,0,-1.11847,233.2, -1, -1.4,0,0,1024,1024,1024,1024,233.8,0,99,4.119,4.122,4.111,4.087,0,0,5.032,75.11,3455.8715325039,3.28084,14,Waypoint,
4500,2021-04-13 10:46:21,40.1849592148494,33.3283698423329,3.608924,,,3456.1996165039,4.265092,0,0.43346786164,10,4,16.108,3456.1996165039,3.608924,0.31540854,0.444471799,0,0,-1.11847,233.1, -1, -1,0,0,1024,1024,1024,1024,233.8,0,99,4.119,4.122,4.111,4.087,0,0,5.032,75.11,3456.1996165039,3.608924,14,Waypoint,
4600,2021-04-13 10:46:21,40.1849592104526,33.3283699331901,3.608924,,,3456.1996165039,4.593176,0,0.4473753424,10,4,16.108,3456.1996165039,3.608924,0.31540854,0.4473753424,0,0,-1.11847,233, -1, -0.5,0,0,1024,1024,1024,1024,233.8,0,99,4.119,4.122,4.111,4.087,0,0,5.032,75.11,3456.1996165039,3.608924,14,Waypoint,
4700,2021-04-13 10:46:21,40.184959318096,33.3283699651324,3.937008,,,3456.5277005039,4.593176,0,0.48404529108,10,4,16.108,3456.5277005039,3.937008,0.31540854,0.48404529108,0,0,-1.11847,233, -1, -0.5,0,0,1024,1024,1024,1024,233.8,0,99,4.119,4.122,4.111,4.087,0,0,5.032,75.11,3456.5277005039,3.937008,14,Waypoint,
4800,2021-04-13 10:46:21,40.1849594320512,33.3283699737453,4.265092,,,3456.8557845039,4.92126,0,0.51951445232,9,4,16.108,3456.8557845039,4.265092,0.31540854,0.51951445232,0,0,-1.11847,232.9, -1.1, -0.8,0,0,1024,1024,1024,1024,233.8,0,99,4.119,4.122,4.111,4.087,0,0,5.032,75.11,3456.8557845039,4.265092,14,Waypoint,
4900,2021-04-13 10:46:21,40.1849597713587,33.3283698494546,4.265092,,,3456.8557845039,4.92126,0,0.61113190932,9,4,16.108,3456.8557845039,4.265092,0.31540854,0.61113190932,0,0,-1.565858,232.9, -0.9, -1.3,0,0,1024,1024,1024,1024,233.8,0,99,4.119,4.122,4.111,4.087,0,0,5.032,75.11,3456.8557845039,4.265092,14,Waypoint,
5000,2021-04-13 10:46:22,40.1849598809188,33.3283697975655,4.593176,,,3457.1838685039,5.249344,0,0.64219490244,9,4,16.108,3457.1838685039,4.593176,0.31540854,0.64219490244,0,0,-2.013246,232.9, -0.8, -1.7,0,0,1024,1024,1024,1024,233.8,0,99,4.119,4.122,4.111,4.087,0,0,5.032,75.11,3457.1838685039,4.593176,14,Waypoint,
5100,2021-04-13 10:46:22,40.184959981257,33.3283696842485,4.92126,,,3457.5119525039,5.577428,0,0.66580054624,9,4,16.108,3457.5119525039,4.92126,0.31540854,0.66580054624,0,0,-2.684328,233, -0.9, -1.6,0,0,1024,1024,1024,1024,233.8,0,99,4.119,4.122,4.111,4.087,0,0,5.032,75.11,3457.5119525039,4.92126,14,Waypoint,
5200,2021-04-13 10:46:22,40.1849600559439,33.3283695671889,5.577428,,,3458.1681205039,6.233596,0,0.68267062552,9,4,16.108,3458.1681205039,5.577428,0.31540854,0.68267062552,0,0,-3.35541,232.9, -0.6, -1.7,0,0,1024,1024,1024,1024,233.7,0,99,4.119,4.122,4.111,4.087,0,0,5.032,75.11,3458.1681205039,5.577428,14,Waypoint,
5300,2021-04-13 10:46:22,40.1849600559374,33.3283690699119,5.905512,,,3458.4962045039,6.56168,0,0.66089569044,9,4,15.835,3458.4962045039,5.905512,0.31540854,0.68267062552,0,0,-4.250186,233, -0.2, -1.9,0,0,1024,1024,1024,1024,233.7,0,99,4.029,4.038,4.036,4.018,0,0,11.824,75.11,3458.4962045039,5.905512,14,Waypoint,
5400,2021-04-13 10:46:22,40.1849600570122,33.3283689314836,6.56168,,,3459.1523725039,7.545932,0,0.66029857756,9,4,15.835,3459.1523725039,6.56168,0.31540854,0.68267062552,0,0,-4.921268,233, 0.6, -2.1,0,0,1024,1024,1024,1024,233.7,0,99,4.029,4.038,4.036,4.018,0,0,11.824,75.11,3459.1523725039,6.56168,14,Waypoint,
5500,2021-04-13 10:46:22,40.1849600775111,33.3283688480565,7.545932,,,3460.1366245039,8.2021,0,0.66826445708,9,4,15.835,3460.1366245039,7.545932,0.31540854,0.68267062552,0,0,-5.816044,233.1, 0.4, -1.8,0,0,1024,1024,1024,1024,233.7,0,99,4.029,4.038,4.036,4.018,0,0,11.824,75.11,3460.1366245039,7.545932,14,Waypoint,
5600,2021-04-13 10:46:22,40.1849600937906,33.3283688065244,8.530184,,,3461.1208765039,9.186352,0,0.6747375544,9,4,15.835,3461.1208765039,8.530184,0.31540854,0.68267062552,0,0,-6.487126,233.1, -0.3, -1.5,0,0,1024,1024,1024,1024,233.7,0,99,4.029,4.038,4.036,4.018,0,0,11.824,75.11,3461.1208765039,8.530184,14,Waypoint,
5700,2021-04-13 10:46:22,40.1849600912095,33.3283687485051,9.514436,,,3462.1051285039,10.170604,0,0.6748851922,9,4,15.835,3462.1051285039,9.514436,0.31540854,0.68267062552,0,0,-6.71082,233.1, -0.7, -1.4,0,0,1024,1024,1024,1024,233.7,0,99,4.029,4.038,4.036,4.018,0,0,11.824,75.11,3462.1051285039,9.514436,14,Waypoint,
5800,2021-04-13 10:46:22,40.1849600760666,33.328368757694,10.498688,,,3463.0893805039,11.154856,0,0.6691765306,9,4,15.835,3463.0893805039,10.498688,0.31540854,0.68267062552,0,0,-6.934514,233.1, -0.8, -1.1,0,0,1024,1024,1024,1024,233.7,0,99,4.029,4.038,4.036,4.018,0,0,11.824,75.11,3463.0893805039,10.498688,14,Waypoint,
5900,2021-04-13 10:46:22,40.1849600252136,33.3283687620891,11.48294,,,3464.0736325039,12.139108,0.223694,0.65058401032,9,4,15.835,3464.0736325039,11.48294,0.31540854,0.68267062552,-0.223694,0,-7.158208,233.1, -0.7, -0.8,0,0,1024,1024,1024,1024,233.7,0,99,4.029,4.038,4.036,4.018,0,0,11.824,75.11,3464.0736325039,11.48294,14,Waypoint,
6000,2021-04-13 10:46:23,40.1849599538438,33.328368767007,12.467192,,,3465.0578845039,13.12336,0.223694,0.62451773652,9,4,15.835,3465.0578845039,12.467192,0.31540854,0.68267062552,-0.223694,0,-7.158208,233.1, -0.4, -0.8,0,0,1024,1024,1024,1024,233.7,0,99,4.029,4.038,4.036,4.018,0,0,11.824,75.11,3465.0578845039,12.467192,14,Waypoint,
6100,2021-04-13 10:46:23,40.184959429563,33.3283689148954,13.779528,,,3466.3702205039,14.435696,0.70687304,0.43142717916,9,4,15.835,3466.3702205039,13.779528,0.70687304,0.68267062552,-0.671082,0.223694,-7.381902,233.2, 0, -0.3,0,0,1024,1024,1024,1024,233.7,0,99,4.029,4.038,4.036,4.018,0,0,11.824,75.11,3466.3702205039,13.779528,14,Waypoint,
6200,2021-04-13 10:46:23,40.1849592552576,33.3283689844757,15.091864,,,3467.6825565039,15.419948,0.447388,0.36798229524,9,4,15.835,3467.6825565039,15.091864,0.70687304,0.68267062552,-0.447388,0,-7.381902,233.2, 0.2, 0.5,0,0,1024,1024,1024,1024,233.7,0,99,4.029,4.038,4.036,4.018,0,0,11.824,75.11,3467.6825565039,15.091864,14,Waypoint,
6300,2021-04-13 10:46:23,40.1849590079213,33.3283691928116,16.076116,,,3468.6668085039,16.4042,0.447388,0.2863435131,9,4,16.06,3468.6668085039,16.076116,0.70687304,0.68267062552,-0.447388,0,-7.158208,233.3, 0.2, 1,0,0,1024,1024,1024,1024,233.7,0,99,3.987,3.995,3.993,3.979,0,0,12.232,75.11,3468.6668085039,16.076116,14,Waypoint,
6400,2021-04-13 10:46:23,40.1849588296165,33.3283693456642,17.060368,,,3469.6510605039,17.388452,0.223694,0.2406988266,9,4,16.06,3469.6510605039,17.060368,0.70687304,0.68267062552,-0.223694,0,-7.158208,233.3, 0.3, 1.5,0,0,1024,1024,1024,1024,233.7,0,99,3.987,3.995,3.993,3.979,0,0,12.232,75.11,3469.6510605039,17.060368,14,Waypoint,
6500,2021-04-13 10:46:23,40.1849588726628,33.3283692625384,18.372704,,,3470.9633965039,18.700788,0.223694,0.245261490788,9,4,16.06,3470.9633965039,18.372704,0.70687304,0.68267062552,-0.223694,0,-7.158208,233.4, 0.5, 1.2,0,0,1024,1024,1024,1024,233.7,0,99,3.987,3.995,3.993,3.979,0,0,12.232,75.11,3470.9633965039,18.372704,14,Waypoint,
6600,2021-04-13 10:46:23,40.1849589893701,33.3283690898854,19.356956,,,3471.9476485039,19.68504,0,0.27397146546,9,4,16.06,3471.9476485039,19.356956,0.70687304,0.68267062552,0,0,-7.158208,233.4, 0.6, 0.5,0,0,1024,1024,1024,1024,233.7,0,99,3.987,3.995,3.993,3.979,0,0,12.232,75.11,3471.9476485039,19.356956,14,Waypoint,
6700,2021-04-13 10:46:23,40.1849591603274,33.3283688864695,20.669292,,,3473.2599845039,20.669292,0,0.33347113928,9,4,16.06,3473.2599845039,20.669292,0.70687304,0.68267062552,0,0,-6.934514,233.3, 0.6, 0,0,0,1024,1024,1024,1024,233.7,0,99,3.987,3.995,3.993,3.979,0,0,12.232,75.11,3473.2599845039,20.669292,14,Waypoint,
6800,2021-04-13 10:46:23,40.1849593771971,33.3283687135979,21.653544,,,3474.2442365039,21.653544,0,0.41706366164,10,4,16.06,3474.2442365039,21.653544,0.70687304,0.68267062552,0,0,-6.934514,233.3, 0.4, -1.1,0,0,1024,1024,1024,1024,233.7,0,99,3.987,3.995,3.993,3.979,0,0,12.232,75.11,3474.2442365039,21.653544,14,Waypoint,
6900,2021-04-13 10:46:23,40.1849596867073,33.3283686464947,22.637796,,,3475.2284885039,22.637796,0.223694,0.53151904588,10,4,16.06,3475.2284885039,22.637796,0.70687304,0.68267062552,0.223694,0,-6.71082,233.4, -0.3, -1.5,0,0,1024,1024,1024,1024,233.7,0,99,3.987,3.995,3.993,3.979,0,0,12.232,75.11,3475.2284885039,22.637796,14,Waypoint,
7000,2021-04-13 10:46:24,40.184960477877,33.3283683712484,23.950132,,,3476.5408245039,23.622048,0.223694,0.82914044648,9,4,16.06,3476.5408245039,23.950132,0.70687304,0.82914044648,0.223694,0,-6.71082,233.3, -0.8, -2.2,0,0,1024,1024,1024,1024,233.7,0,99,3.987,3.995,3.993,3.979,0,0,12.232,75.11,3476.5408245039,23.950132,14,Waypoint,
7100,2021-04-13 10:46:24,40.1849608660541,33.3283683462905,24.934384,,,3477.5250765039,24.6063,0.223694,0.96969491292,9,4,16.06,3477.5250765039,24.934384,0.70687304,0.96969491292,0.223694,0,-6.71082,233.3, -0.7, -2.6,0,0,1024,1024,1024,1024,233.7,0,99,3.987,3.995,3.993,3.979,0,0,12.232,75.11,3477.5250765039,24.934384,14,Waypoint,
7200,2021-04-13 10:46:24,40.1849612093806,33.3283683415429,25.918636,,,3478.5093285039,25.918636,0.223694,1.09353021872,9,4,16.06,3478.5093285039,25.918636,0.70687304,1.09353021872,0.223694,0,-6.71082,233.3, -0.9, -2.6,0,0,1024,1024,1024,1024,233.7,0,99,3.987,3.995,3.993,3.979,0,0,12.232,75.11,3478.5093285039,25.918636,14,Waypoint,
7300,2021-04-13 10:46:24,40.1849614759732,33.3283683893341,26.902888,,,3479.4935805039,26.902888,0,1.18795607476,9,4,15.843,3479.4935805039,26.902888,0.70687304,1.18795607476,0,0,-6.487126,233.2, -0.7, -2.5,0,0,1024,1024,1024,1024,233.6,0,99,3.954,3.967,3.966,3.955,0,0,15.754,75.11,3479.4935805039,26.902888,14,Waypoint,
7400,2021-04-13 10:46:24,40.1849621224027,33.328368606943,27.88714,,,3480.4778325039,27.88714,0,1.41689308996,10,4,15.843,3480.4778325039,27.88714,0.70687304,1.41689308996,0,0,-6.487126,233.2, -0.5, -2.6,0,0,1024,1024,1024,1024,233.6,0,99,3.954,3.967,3.966,3.955,0,0,15.754,75.11,3480.4778325039,27.88714,14,Waypoint,
7500,2021-04-13 10:46:24,40.1849622549239,33.3283686798897,28.871392,,,3481.4620845039,28.543308,0.223694,1.46399610984,10,4,15.843,3481.4620845039,28.871392,0.70687304,1.46399610984,0.223694,0,-6.487126,233.4, -1.1, -2.6,0,0,1024,1024,1024,1024,233.6,0,99,3.954,3.967,3.966,3.955,0,0,15.754,75.11,3481.4620845039,28.871392,14,Waypoint,
7600,2021-04-13 10:46:24,40.184962368459,33.3283687727321,29.855644,,,3482.4463365039,29.52756,0,1.504347161,10,4,15.843,3482.4463365039,29.855644,0.70687304,1.504347161,0,0,-6.487126,233.4, -1.2, -2.6,0,0,1024,1024,1024,1024,233.6,0,99,3.954,3.967,3.966,3.955,0,0,15.754,75.11,3482.4463365039,29.855644,14,Waypoint,
7700,2021-04-13 10:46:24,40.1849625394611,33.3283689505013,30.839896,,,3483.4305885039,30.511812,0.223694,1.56601711048,10,4,15.843,3483.4305885039,30.839896,0.70687304,1.56601711048,0.223694,0,-6.487126,233.4, -1.7, -2.8,0,0,1024,1024,1024,1024,233.6,0,99,3.954,3.967,3.966,3.955,0,0,15.754,75.11,3483.4305885039,30.839896,14,Waypoint,
7800,2021-04-13 10:46:24,40.1849631060163,33.3283695586649,31.824148,,,3484.4148405039,31.496064,0.223694,1.78108929584,10,4,15.843,3484.4148405039,31.824148,0.70687304,1.78108929584,0.223694,0,-6.487126,233.4, -2.1, -2.7,0,0,1024,1024,1024,1024,233.7,0,99,3.954,3.967,3.966,3.955,0,0,15.754,75.11,3484.4148405039,31.824148,14,Waypoint,
7900,2021-04-13 10:46:24,40.1849633594999,33.3283697936083,32.8084,,,3485.3990925039,32.480316,0,1.88032158248,10,4,15.843,3485.3990925039,32.8084,0.70687304,1.88032158248,0,0,-6.487126,233.4, -2.9, -2.6,0,0,1024,1024,1024,1024,233.6,0,99,3.954,3.967,3.966,3.955,0,0,15.754,75.11,3485.3990925039,32.8084,14,Waypoint,
8000,2021-04-13 10:46:25,40.1849635539483,33.3283699878822,33.792652,,,3486.3833445039,33.464568,0,1.95805780544,10,4,15.843,3486.3833445039,33.792652,0.70687304,1.95805780544,0,0,-6.487126,233.4, -3, -2.4,0,0,1024,1024,1024,1024,233.6,0,99,3.954,3.967,3.966,3.955,0,0,15.754,75.11,3486.3833445039,33.792652,14,Waypoint,
8100,2021-04-13 10:46:25,40.184963575066,33.3283700202198,34.776904,,,3487.3675965039,34.44882,0,1.96703746452,10,4,15.843,3487.3675965039,34.776904,0.70687304,1.96703746452,0,0,-6.487126,233.5, -3.1, -2.2,0,0,1024,1024,1024,1024,233.6,0,99,3.954,3.967,3.966,3.955,0,0,15.754,75.11,3487.3675965039,34.776904,14,Waypoint,
8200,2021-04-13 10:46:25,40.1849635485264,33.3283700253941,35.761156,,,3488.3518485039,35.433072,0,1.95769035136,10,4,15.843,3488.3518485039,35.761156,0.70687304,1.96703746452,0,0,-6.487126,233.5, -2.9, -2.6,0,0,1024,1024,1024,1024,233.6,0,99,3.954,3.967,3.966,3.955,0,0,15.754,75.11,3488.3518485039,35.761156,14,Waypoint,
8300,2021-04-13 10:46:25,40.1849631110824,33.3283698007258,36.745408,,,3489.3361005039,36.417324,0.223694,1.7907152804,10,4,15.812,3489.3361005039,36.745408,0.70687304,1.96703746452,0,-0.223694,-6.263432,233.4, -2.2, -3.2,0,0,1024,1024,1024,1024,233.6,0,99,3.954,3.967,3.966,3.955,0,0,12.726,75.11,3489.3361005039,36.745408,14,Waypoint,
8400,2021-04-13 10:46:25,40.1849629250269,33.3283697548954,37.72966,,,3490.3203525039,37.401576,0.223694,1.72173890024,10,4,15.812,3490.3203525039,37.72966,0.70687304,1.96703746452,0,-0.223694,-6.263432,233.4, -1.6, -3,0,0,1024,1024,1024,1024,233.6,0,99,3.954,3.967,3.966,3.955,0,0,12.726,75.11,3490.3203525039,37.72966,14,Waypoint,
8500,2021-04-13 10:46:25,40.1849626948407,33.3283695962952,38.713912,,,3491.3046045039,38.385828,0.31540854,1.63298561656,10,4,15.812,3491.3046045039,38.713912,0.70687304,1.96703746452,-0.223694,-0.223694,-6.263432,233.4, -1.1, -2.6,0,0,1024,1024,1024,1024,233.6,0,99,3.954,3.967,3.966,3.955,0,0,12.726,75.11,3491.3046045039,38.713912,14,Waypoint,
8600,2021-04-13 10:46:25,40.1849624459404,33.3283694330527,39.698164,,,3492.2888565039,39.041996,0.31540854,1.53804794948,10,4,15.812,3492.2888565039,39.698164,0.70687304,1.96703746452,-0.223694,-0.223694,-6.263432,233.4, -0.6, -1.8,0,0,1024,1024,1024,1024,233.6,0,99,3.954,3.967,3.966,3.955,0,0,12.726,75.11,3492.2888565039,39.698164,14,Waypoint,
8700,2021-04-13 10:46:25,40.1849617462761,33.328368581552,40.354332,,,3492.9450245039,39.041996,0.31540854,1.28052497536,10,4,15.812,3492.9450245039,40.354332,0.70687304,1.96703746452,-0.223694,-0.223694,-6.263432,233.4, 0.1, -1.7,0,0,1024,1024,1024,1024,233.6,0,99,3.954,3.967,3.966,3.955,0,0,12.726,75.11,3492.9450245039,40.354332,14,Waypoint,
8800,2021-04-13 10:46:25,40.1849614748919,33.3283683498811,41.338584,,,3493.9292765039,39.041996,0.223694,1.18903547112,9,4,15.812,3493.9292765039,41.338584,0.70687304,1.96703746452,0,-0.223694,-6.263432,233.4, 0.7, -2.2,0,0,1024,1024,1024,1024,233.6,0,99,3.954,3.967,3.966,3.955,0,0,12.726,75.11,3493.9292765039,41.338584,14,Waypoint,
8900,2021-04-13 10:46:25,40.1849613352691,33.328368169817,42.322836,,,3494.9135285039,39.041996,0,1.1469324514,9,4,15.812,3494.9135285039,42.322836,0.70687304,1.96703746452,0,0,-6.263432,233.4, 0.5, -2.1,0,0,1024,1024,1024,1024,233.6,0,99,3.954,3.967,3.966,3.955,0,0,12.726,75.11,3494.9135285039,42.322836,14,Waypoint,
9000,2021-04-13 10:46:26,40.1849612204556,33.3283680243153,43.307088,,,3495.8977805039,39.041996,0,1.11439308028,10,4,15.812,3495.8977805039,43.307088,0.70687304,1.96703746452,0,0,-6.263432,233.5, 0.5, -1.9,0,0,1024,1024,1024,1024,233.6,0,99,3.954,3.967,3.966,3.955,0,0,12.726,75.11,3495.8977805039,43.307088,14,Waypoint,
9100,2021-04-13 10:46:26,40.1849614020809,33.3283677745364,44.29134,,,3496.8820325039,39.041996,0,1.19600069444,10,4,15.812,3496.8820325039,44.29134,0.70687304,1.96703746452,0,0,-6.263432,233.4, 0.5, -2.1,0,0,1024,1024,1024,1024,233.6,0,99,3.954,3.967,3.966,3.955,0,0,12.726,75.11,3496.8820325039,44.29134,14,Waypoint,
9200,2021-04-13 10:46:26,40.1849613638401,33.3283677009898,44.947508,,,3497.5382005039,39.041996,0,1.18837274144,10,4,15.812,3497.5382005039,44.947508,0.70687304,1.96703746452,0,0,-6.263432,233.4, 0.4, -2.9,0,0,1024,1024,1024,1024,233.6,0,99,3.954,3.967,3.966,3.955,0,0,12.726,75.11,3497.5382005039,44.947508,14,Waypoint,
9300,2021-04-13 10:46:26,40.1849613109922,33.3283676894057,45.93176,,,3498.5224525039,39.041996,0,1.17089570676,10,4,15.837,3498.5224525039,45.93176,0.70687304,1.96703746452,0,0,-6.263432,233.4, 0.3, -3.2,0,0,1024,1024,1024,1024,233.6,0,99,3.981,3.989,3.988,3.973,0,0,12.726,75.11,3498.5224525039,45.93176,14,Waypoint,
9400,2021-04-13 10:46:26,40.1849612682635,33.3283676885487,46.916012,,,3499.5067045039,39.041996,0,1.15609255668,10,4,15.837,3499.5067045039,46.916012,0.70687304,1.96703746452,0,0,-6.487126,233.4, 0.4, -3.5,0,0,1024,1024,1024,1024,233.6,0,99,3.981,3.989,3.988,3.973,0,0,12.726,75.11,3499.5067045039,46.916012,14,Waypoint,
9500,2021-04-13 10:46:26,40.1849613688818,33.3283676566071,47.900264,,,3500.4909565039,39.041996,0,1.1937828466,10,4,15.837,3500.4909565039,47.900264,0.70687304,1.96703746452,0,0,-6.487126,233.4, 0, -4,0,0,1024,1024,1024,1024,233.6,0,99,3.981,3.989,3.988,3.973,0,0,12.726,75.11,3500.4909565039,47.900264,14,Waypoint,
9600,2021-04-13 10:46:26,40.1849613207336,33.3283676683285,48.884516,,,3501.4752085039,39.041996,0,1.17604662556,10,4,15.837,3501.4752085039,48.884516,0.70687304,1.96703746452,0,0,-6.487126,233.4, -0.6, -3.6,0,0,1024,1024,1024,1024,233.6,0,99,3.981,3.989,3.988,3.973,0,0,12.726,75.11,3501.4752085039,48.884516,14,Waypoint,
9700,2021-04-13 10:46:26,40.1849611917527,33.328367816128,49.540684,,,3502.1313765039,39.041996,0.223694,1.11903874972,10,4,15.837,3502.1313765039,49.540684,0.70687304,1.96703746452,-0.223694,0,-6.487126,233.3, -0.5, -2.9,0,0,1024,1024,1024,1024,233.6,0,99,3.981,3.989,3.988,3.973,0,0,12.726,75.11,3502.1313765039,49.540684,14,Waypoint,
9800,2021-04-13 10:46:26,40.1849610563834,33.3283679365358,50.524936,,,3503.1156285039,39.041996,0.223694,1.06238848544,10,4,15.837,3503.1156285039,50.524936,0.70687304,1.96703746452,-0.223694,0,-6.487126,233.3, -0.2, -2.2,0,0,1024,1024,1024,1024,233.6,0,99,3.981,3.989,3.988,3.973,0,0,12.726,75.11,3503.1156285039,50.524936,14,Waypoint,
9900,2021-04-13 10:46:26,40.1849608829508,33.3283679368631,51.509188,,,3504.0998805039,39.041996,0.223694,1.00145672496,10,4,15.837,3504.0998805039,51.509188,0.70687304,1.96703746452,-0.223694,0,-6.487126,233.4, 0.4, -2.1,0,0,1024,1024,1024,1024,233.6,0,99,3.981,3.989,3.988,3.973,0,0,12.726,75.11,3504.0998805039,51.509188,14,Waypoint,
10000,2021-04-13 10:46:27,40.1849605003382,33.3283679603032,52.49344,,,3505.0841325039,39.041996,0.223694,0.8662073768,10,4,15.837,3505.0841325039,52.49344,0.70687304,1.96703746452,-0.223694,0,-6.487126,233.4, 0.4, -2.3,0,0,1024,1024,1024,1024,233.6,0,99,3.981,3.989,3.988,3.973,0,0,12.726,75.11,3505.0841325039,52.49344,14,Waypoint,
10100,2021-04-13 10:46:27,40.1849603555972,33.3283679052817,53.149608,,,3505.7403005039,39.041996,0.223694,0.82151577432,10,4,15.837,3505.7403005039,53.149608,0.70687304,1.96703746452,-0.223694,0,-6.487126,233.4, 0.4, -2.4,0,0,1024,1024,1024,1024,233.6,0,99,3.981,3.989,3.988,3.973,0,0,12.726,75.11,3505.7403005039,53.149608,14,Waypoint,
10200,2021-04-13 10:46:27,40.1849602431254,33.3283678578528,54.13386,,,3506.7245525039,39.041996,0,0.7881890016,9,4,15.837,3506.7245525039,54.13386,0.70687304,1.96703746452,0,0,-6.71082,233.4, 0.5, -2.2,0,0,1024,1024,1024,1024,233.6,0,99,3.981,3.989,3.988,3.973,0,0,12.726,75.11,3506.7245525039,54.13386,14,Waypoint,
10300,2021-04-13 10:46:27,40.1849601788117,33.32836778548,55.118112,,,3507.7088045039,39.041996,0,0.7747211534,9,4,15.79,3507.7088045039,55.118112,0.70687304,1.96703746452,0,0,-6.71082,233.3, 0.5, -3.1,0,0,1024,1024,1024,1024,233.6,0,99,3.976,3.985,3.983,3.965,0,0,12.946,75.11,3507.7088045039,55.118112,14,Waypoint,
10400,2021-04-13 10:46:27,40.1849600630602,33.3283675139568,56.102364,,,3508.6930565039,39.041996,0,0.77258532656,10,4,15.79,3508.6930565039,56.102364,0.70687304,1.96703746452,0,0,-6.71082,233.3, 0.4, -3.4,0,0,1024,1024,1024,1024,233.6,0,99,3.976,3.985,3.983,3.965,0,0,12.946,75.11,3508.6930565039,56.102364,14,Waypoint,
10500,2021-04-13 10:46:27,40.1849601318929,33.3283675988751,56.758532,,,3509.3492245039,39.041996,0.223694,0.78265094368,10,4,15.79,3509.3492245039,56.758532,0.70687304,1.96703746452,0.223694,0,-6.487126,233.3, 0.1, -3.3,0,0,1024,1024,1024,1024,233.6,0,99,3.976,3.985,3.983,3.965,0,0,12.946,75.11,3509.3492245039,56.758532,14,Waypoint,
10600,2021-04-13 10:46:27,40.184960208876,33.3283677031825,57.742784,,,3510.3334765039,39.041996,0.223694,0.79439635088,10,4,15.79,3510.3334765039,57.742784,0.70687304,1.96703746452,0.223694,0,-6.71082,233.3, -0.3, -3.3,0,0,1024,1024,1024,1024,233.6,0,99,3.976,3.985,3.983,3.965,0,0,12.946,75.11,3510.3334765039,57.742784,14,Waypoint,
10700,2021-04-13 10:46:27,40.1849603725297,33.3283678979756,58.727036,,,3511.3177285039,39.041996,0.223694,0.8280183992,10,4,15.79,3511.3177285039,58.727036,0.70687304,1.96703746452,0,0.223694,-6.71082,233.4, -0.9, -3.1,0,0,1024,1024,1024,1024,233.6,0,99,3.976,3.985,3.983,3.965,0,0,12.946,75.11,3511.3177285039,58.727036,14,Waypoint,
10800,2021-04-13 10:46:27,40.1849608646325,33.3283684132065,59.711288,,,3512.3019805039,39.041996,0,0.9661745716,10,4,15.79,3512.3019805039,59.711288,0.70687304,1.96703746452,0,0,-6.71082,233.3, -1.3, -3.3,0,0,1024,1024,1024,1024,233.6,0,99,3.976,3.985,3.983,3.965,0,0,12.946,75.11,3512.3019805039,59.711288,14,Waypoint,
10900,2021-04-13 10:46:27,40.1849608677102,33.3283686325295,60.69554,,,3513.2862325039,39.041996,0,0.9599081672,10,4,15.79,3513.2862325039,60.69554,0.70687304,1.96703746452,0,0,-6.934514,233.3, -1.3, -3.5,0,0,1024,1024,1024,1024,233.6,0,99,3.976,3.985,3.983,3.965,0,0,12.946,75.11,3513.2862325039,60.69554,14,Waypoint,
11000,2021-04-13 10:46:28,40.1849608491818,33.3283688283261,61.351708,,,3513.9424005039,39.041996,0,0.94982614588,10,4,15.79,3513.9424005039,61.351708,0.70687304,1.96703746452,0,0,-6.71082,233.3, -1.3, -3.4,0,0,1024,1024,1024,1024,233.6,0,99,3.976,3.985,3.983,3.965,0,0,12.946,75.11,3513.9424005039,61.351708,14,Waypoint,
11100,2021-04-13 10:46:28,40.1849607876169,33.3283689775979,62.33596,,,3514.9266525039,39.041996,0,0.92691275932,10,4,15.79,3514.9266525039,62.33596,0.70687304,1.96703746452,0,0,-6.934514,233.2, -0.7, -3,0,0,1024,1024,1024,1024,233.6,0,99,3.976,3.985,3.983,3.965,0,0,12.946,75.11,3514.9266525039,62.33596,14,Waypoint,
11200,2021-04-13 10:46:28,40.1849605053798,33.3283694251286,62.992128,,,3515.5828205039,39.041996,0,0.83490488236,9,4,15.79,3515.5828205039,62.992128,0.70687304,1.96703746452,0,0,-6.934514,233.2, -0.7, -2.4,0,0,1024,1024,1024,1024,233.6,0,99,3.976,3.985,3.983,3.965,0,0,12.946,75.11,3515.5828205039,62.992128,14,Waypoint,
11300,2021-04-13 10:46:28,40.1849604324597,33.3283695585374,63.648296,,,3516.2389885039,39.041996,0,0.81570540668,9,4,15.734,3516.2389885039,63.648296,0.70687304,1.96703746452,0,0,-6.934514,233.1, -0.7, -1.7,0,0,1024,1024,1024,1024,233.6,0,99,3.96,3.967,3.962,3.946,0,0,13.534,75.11,3516.2389885039,63.648296,14,Waypoint,
11400,2021-04-13 10:46:28,40.1849603731453,33.3283696545703,64.632548,,,3517.2232405039,39.041996,0,0.8008038314,10,4,15.734,3517.2232405039,64.632548,0.70687304,1.96703746452,0,0,-6.934514,233.2, -0.6, -1.8,0,0,1024,1024,1024,1024,233.6,0,99,3.96,3.967,3.962,3.946,0,0,13.534,75.11,3517.2232405039,64.632548,14,Waypoint,
11500,2021-04-13 10:46:28,40.1849603405487,33.3283696574974,65.6168,,,3518.2074925039,39.041996,0,0.78949477592,10,4,15.734,3518.2074925039,65.6168,0.70687304,1.96703746452,0,0,-7.158208,233.2, -0.8, -2.3,0,0,1024,1024,1024,1024,233.6,0,99,3.96,3.967,3.962,3.946,0,0,13.534,75.11,3518.2074925039,65.6168,14,Waypoint,
11600,2021-04-13 10:46:28,40.1849603113182,33.3283696262005,66.601052,,,3519.1917445039,39.041996,0,0.77699149468,10,4,15.734,3519.1917445039,66.601052,0.70687304,1.96703746452,0,0,-7.158208,233.3, -0.9, -2.6,0,0,1024,1024,1024,1024,233.6,0,99,3.96,3.967,3.962,3.946,0,0,13.534,75.11,3519.1917445039,66.601052,14,Waypoint,
11700,2021-04-13 10:46:28,40.1849603213591,33.3283693371445,67.25722,,,3519.8479125039,39.041996,0,0.7647966124,10,4,15.734,3519.8479125039,67.25722,0.70687304,1.96703746452,0,0,-7.158208,233.3, -0.1, -2.8,0,0,1024,1024,1024,1024,233.6,0,99,3.96,3.967,3.962,3.946,0,0,13.534,75.11,3519.8479125039,67.25722,14,Waypoint,
11800,2021-04-13 10:46:28,40.1849602993931,33.328369240389,68.241472,,,3520.8321645039,39.041996,0,0.7533956934,10,4,15.734,3520.8321645039,68.241472,0.70687304,1.96703746452,0,0,-7.158208,233.2, 0.3, -3.2,0,0,1024,1024,1024,1024,233.6,0,99,3.96,3.967,3.962,3.946,0,0,13.534,75.11,3520.8321645039,68.241472,14,Waypoint,
11900,2021-04-13 10:46:28,40.1849602432069,33.3283691752382,69.225724,,,3521.8164165039,39.041996,0.223694,0.73117456408,10,4,15.734,3521.8164165039,69.225724,0.70687304,1.96703746452,-0.223694,0,-7.158208,233.2, 0.6, -2.9,0,0,1024,1024,1024,1024,233.6,0,99,3.96,3.967,3.962,3.946,0,0,13.534,75.11,3521.8164165039,69.225724,14,Waypoint,
12000,2021-04-13 10:46:29,40.1849601878023,33.3283691252971,70.209976,,,3522.8006685039,39.041996,0.223694,0.70989503584,10,4,15.734,3522.8006685039,70.209976,0.70687304,1.96703746452,-0.223694,0,-7.158208,233.2, 0.7, -2.3,0,0,1024,1024,1024,1024,233.6,0,99,3.96,3.967,3.962,3.946,0,0,13.534,75.11,3522.8006685039,70.209976,14,Waypoint,
12100,2021-04-13 10:46:29,40.1849602016652,33.3283688316063,70.866144,,,3523.4568365039,39.041996,0,0.71371065276,10,4,15.734,3523.4568365039,70.866144,0.70687304,1.96703746452,0,0,-7.158208,233.2, 0.3, -1.7,0,0,1024,1024,1024,1024,233.6,0,99,3.96,3.967,3.962,3.946,0,0,13.534,75.11,3523.4568365039,70.866144,14,Waypoint,
12200,2021-04-13 10:46:29,40.184960205852,33.3283687545673,71.850396,,,3524.4410885039,39.041996,0,0.71646327752,10,4,15.734,3524.4410885039,71.850396,0.70687304,1.96703746452,0,0,-7.158208,233.2, 0, -1.3,0,0,1024,1024,1024,1024,233.6,0,99,3.96,3.967,3.962,3.946,0,0,13.534,75.11,3524.4410885039,71.850396,14,Waypoint,
12300,2021-04-13 10:46:29,40.1849603310435,33.3283687683188,72.834648,,,3525.4253405039,39.041996,0,0.7617782396,10,4,15.721,3525.4253405039,72.834648,0.70687304,1.96703746452,0,0,-7.158208,233.3, -0.4, -1.8,0,0,1024,1024,1024,1024,233.6,0,99,3.937,3.947,3.947,3.926,0,0,14.708,75.11,3525.4253405039,72.834648,14,Waypoint,
12400,2021-04-13 10:46:29,40.1849604554224,33.3283687596105,73.8189,,,3526.4095925039,39.041996,0,0.80722115444,10,4,15.721,3526.4095925039,73.8189,0.70687304,1.96703746452,0,0,-7.381902,233.3, -1.1, -2.2,0,0,1024,1024,1024,1024,233.6,0,99,3.937,3.947,3.947,3.926,0,0,14.708,75.11,3526.4095925039,73.8189,14,Waypoint,
12500,2021-04-13 10:46:29,40.1849606461523,33.3283688914084,74.803152,,,3527.3938445039,39.041996,0.223694,0.8753445162,10,4,15.721,3527.3938445039,74.803152,0.70687304,1.96703746452,0,-0.223694,-7.381902,233.4, -0.7, -3.3,0,0,1024,1024,1024,1024,233.6,0,99,3.937,3.947,3.947,3.926,0,0,14.708,75.11,3527.3938445039,74.803152,14,Waypoint,
12600,2021-04-13 10:46:29,40.1849606730151,33.3283687877366,75.787404,,,3528.3780965039,39.041996,0.223694,0.88605973964,10,4,15.721,3528.3780965039,75.787404,0.70687304,1.96703746452,0,-0.223694,-7.158208,233.5, 0.3, -3.7,0,0,1024,1024,1024,1024,233.6,0,99,3.937,3.947,3.947,3.926,0,0,14.708,75.11,3528.3780965039,75.787404,14,Waypoint,
12700,2021-04-13 10:46:29,40.1849607298804,33.3283685350411,76.771656,,,3529.3623485039,39.041996,0.223694,0.9127953048,10,4,15.721,3529.3623485039,76.771656,0.70687304,1.96703746452,0,-0.223694,-7.381902,233.4, 1.3, -4.1,0,0,1024,1024,1024,1024,233.6,0,99,3.937,3.947,3.947,3.926,0,0,14.708,75.11,3529.3623485039,76.771656,14,Waypoint,
12800,2021-04-13 10:46:29,40.1849607900807,33.3283683002161,78.083992,,,3530.6746845039,39.041996,0.223694,0.9447342822,10,4,15.721,3530.6746845039,78.083992,0.70687304,1.96703746452,0,-0.223694,-7.381902,233.4, 1.8, -4.5,0,0,1024,1024,1024,1024,233.6,0,99,3.937,3.947,3.947,3.926,0,0,14.708,75.11,3530.6746845039,78.083992,14,Waypoint,
12900,2021-04-13 10:46:29,40.1849610838113,33.3283680245234,78.74016,,,3531.3308525039,39.041996,0.223694,1.0659121076,10,4,15.721,3531.3308525039,78.74016,0.70687304,1.96703746452,0,-0.223694,-7.381902,233.4, 1.7, -4.8,0,0,1024,1024,1024,1024,233.6,0,99,3.937,3.947,3.947,3.926,0,0,14.708,75.11,3531.3308525039,78.74016,14,Waypoint,
13000,2021-04-13 10:46:30,40.1849611783587,33.3283678568921,79.396328,,,3531.9870205039,39.041996,0.223694,1.11120738464,10,4,15.721,3531.9870205039,79.396328,0.70687304,1.96703746452,0,-0.223694,-7.158208,233.1, 2.5, -4.9,0,0,1024,1024,1024,1024,233.6,0,99,3.937,3.947,3.947,3.926,0,0,14.708,75.11,3531.9870205039,79.396328,14,Waypoint,
13100,2021-04-13 10:46:30,40.1849612370837,33.3283676755365,80.38058,,,3532.9712725039,39.041996,0.223694,1.14636158524,10,4,15.721,3532.9712725039,80.38058,0.70687304,1.96703746452,0,-0.223694,-7.381902,233.2, 1.9, -4.7,0,0,1024,1024,1024,1024,233.6,0,99,3.937,3.947,3.947,3.926,0,0,14.708,75.11,3532.9712725039,80.38058,14,Waypoint,
13200,2021-04-13 10:46:30,40.1849613110329,33.3283675200974,81.364832,,,3533.9555245039,39.041996,0.223694,1.18581368624,10,4,15.721,3533.9555245039,81.364832,0.70687304,1.96703746452,0,-0.223694,-7.381902,233.2, 1.4, -4.9,0,0,1024,1024,1024,1024,233.6,0,99,3.937,3.947,3.947,3.926,0,0,14.708,75.11,3533.9555245039,81.364832,14,Waypoint,
13300,2021-04-13 10:46:30,40.1849613995373,33.3283673308255,82.021,,,3534.6116925039,39.041996,0,1.23447510512,10,4,15.655,3534.6116925039,82.021,0.70687304,1.96703746452,0,0,-7.158208,233.1, 1.2, -5.8,0,0,1024,1024,1024,1024,233.6,0,99,3.937,3.947,3.947,3.926,0,0,14.708,75.11,3534.6116925039,82.021,14,Waypoint,
13400,2021-04-13 10:46:30,40.1849614702068,33.3283670229228,82.677168,,,3535.2678605039,39.041996,0,1.29160765288,10,4,15.655,3535.2678605039,82.677168,0.70687304,1.96703746452,0,0,-7.158208,233, 1.3, -5.8,0,0,1024,1024,1024,1024,233.6,0,99,3.937,3.947,3.947,3.926,0,0,14.708,75.11,3535.2678605039,82.677168,14,Waypoint,
13500,2021-04-13 10:46:30,40.1849616343914,33.3283669313179,83.66142,,,3536.2521125039,39.041996,0,1.356709361,10,4,15.655,3536.2521125039,83.66142,0.70687304,1.96703746452,0,0,-7.158208,233, 1.1, -6.8,0,0,1024,1024,1024,1024,233.6,0,99,3.937,3.947,3.947,3.926,0,0,14.708,75.11,3536.2521125039,83.66142,14,Waypoint,
13600,2021-04-13 10:46:30,40.1849617975127,33.3283668927528,84.645672,,,3537.2363645039,39.041996,0,1.41543311616,10,4,15.655,3537.2363645039,84.645672,0.70687304,1.96703746452,0,0,-7.158208,233.2, 0.1, -7.4,0,0,1024,1024,1024,1024,233.6,0,99,3.937,3.947,3.947,3.926,0,0,14.708,75.11,3537.2363645039,84.645672,14,Waypoint,
13700,2021-04-13 10:46:30,40.1849619588874,33.3283669569471,85.958008,,,3538.5487005039,39.041996,0,1.46265096544,10,4,15.655,3538.5487005039,85.958008,0.70687304,1.96703746452,0,0,-6.934514,233.3, -0.5, -7.2,0,0,1024,1024,1024,1024,233.6,0,99,3.937,3.947,3.947,3.926,0,0,14.708,75.11,3538.5487005039,85.958008,14,Waypoint,
13800,2021-04-13 10:46:30,40.1849622226408,33.3283671387918,86.94226,,,3539.5329525039,39.041996,0,1.53485241132,10,4,15.655,3539.5329525039,86.94226,0.70687304,1.96703746452,0,0,-6.71082,233.3, -0.8, -7.1,0,0,1024,1024,1024,1024,233.6,0,99,3.937,3.947,3.947,3.926,0,0,14.708,75.11,3539.5329525039,86.94226,14,Waypoint,
13900,2021-04-13 10:46:30,40.1849623593161,33.3283672046371,87.598428,,,3540.1891205039,39.041996,0,1.57633207144,10,4,15.655,3540.1891205039,87.598428,0.70687304,1.96703746452,0,0,-6.263432,233.3, -1, -7.2,0,0,1024,1024,1024,1024,233.6,0,99,3.937,3.947,3.947,3.926,0,0,14.708,75.11,3540.1891205039,87.598428,14,Waypoint,
14000,2021-04-13 10:46:31,40.1849624672339,33.3283672718748,88.58268,,,3541.1733725039,39.041996,0,1.6083333848,10,4,15.655,3541.1733725039,88.58268,0.70687304,1.96703746452,0,0,-6.039738,233.2, -0.9, -7.1,0,0,1024,1024,1024,1024,233.6,0,99,3.937,3.947,3.947,3.926,0,0,14.708,75.11,3541.1733725039,88.58268,14,Waypoint,
14100,2021-04-13 10:46:31,40.1849625081624,33.3283673310854,89.238848,,,3541.8295405039,39.041996,0,1.61798233524,10,4,15.655,3541.8295405039,89.238848,0.70687304,1.96703746452,0,0,-5.59235,233.2, -1, -7.3,0,0,1024,1024,1024,1024,233.6,0,99,3.937,3.947,3.947,3.926,0,0,14.708,75.11,3541.8295405039,89.238848,14,Waypoint,
14200,2021-04-13 10:46:31,40.1849625500232,33.3283674732046,89.566932,,,3542.1576245039,39.041996,0,1.6222277422,9,4,15.655,3542.1576245039,89.566932,0.70687304,1.96703746452,0,0,-5.368656,233.2, -1.2, -7.2,0,0,1024,1024,1024,1024,233.6,0,99,3.937,3.947,3.947,3.926,0,0,14.708,75.11,3542.1576245039,89.566932,14,Waypoint,
14300,2021-04-13 10:46:31,40.184962633792,33.3283676487769,90.2231,,,3542.8137925039,39.041996,0,1.64039703412,9,4,15.683,3542.8137925039,90.2231,0.70687304,1.96703746452,0,0,-5.368656,233.2, -1.6, -6.8,0,0,1024,1024,1024,1024,233.5,0,99,3.934,3.953,3.958,3.936,0,0,14.248,75.11,3542.8137925039,90.2231,14,Waypoint,
14400,2021-04-13 10:46:31,40.1849626778984,33.328367809754,90.879268,,,3543.4699605039,39.041996,0,1.6469324674,10,4,15.683,3543.4699605039,90.879268,0.70687304,1.96703746452,0,0,-5.144962,233.2, -1.6, -6.5,0,0,1024,1024,1024,1024,233.5,0,99,3.934,3.953,3.958,3.936,0,0,14.248,75.11,3543.4699605039,90.879268,14,Waypoint,
14500,2021-04-13 10:46:31,40.1849625932551,33.3283678932337,91.535436,,,3544.1261285039,39.041996,0.223694,1.61225726944,10,4,15.683,3544.1261285039,91.535436,0.70687304,1.96703746452,-0.223694,0,-4.921268,233.2, -1.6, -6.8,0,0,1024,1024,1024,1024,233.5,0,99,3.934,3.953,3.958,3.936,0,0,14.248,75.11,3544.1261285039,91.535436,14,Waypoint,
14600,2021-04-13 10:46:31,40.1849623874914,33.3283677746226,92.191604,,,3544.7822965039,39.041996,0.223694,1.5450951938,10,4,15.683,3544.7822965039,92.191604,0.70687304,1.96703746452,-0.223694,0,-4.697574,233.3, -1.5, -6.8,0,0,1024,1024,1024,1024,233.5,0,99,3.934,3.953,3.958,3.936,0,0,14.248,75.11,3544.7822965039,92.191604,14,Waypoint,
14700,2021-04-13 10:46:31,40.1849623267089,33.3283677554423,92.847772,,,3545.4384645039,39.041996,0,1.52457025876,10,4,15.683,3545.4384645039,92.847772,0.70687304,1.96703746452,0,0,-4.47388,233.2, -1.1, -6.7,0,0,1024,1024,1024,1024,233.5,0,99,3.934,3.953,3.958,3.936,0,0,14.248,75.11,3545.4384645039,92.847772,14,Waypoint,
14800,2021-04-13 10:46:31,40.1849622707182,33.3283677587555,93.50394,,,3546.0946325039,39.041996,0,1.50443246284,10,4,15.683,3546.0946325039,93.50394,0.70687304,1.96703746452,0,0,-4.47388,233.2, -1.1, -6.5,0,0,1024,1024,1024,1024,233.5,0,99,3.934,3.953,3.958,3.936,0,0,14.248,75.11,3546.0946325039,93.50394,14,Waypoint,
14900,2021-04-13 10:46:31,40.1849622333722,33.3283679060917,94.160108,,,3546.7508005039,39.041996,0,1.482611596,10,4,15.683,3546.7508005039,94.160108,0.70687304,1.96703746452,0,0,-4.250186,233.2, -1.1, -6.9,0,0,1024,1024,1024,1024,233.5,0,99,3.934,3.953,3.958,3.936,0,0,14.248,75.11,3546.7508005039,94.160108,14,Waypoint,
15000,2021-04-13 10:46:32,40.1849622168932,33.3283680355,94.816276,,,3547.4069685039,39.041996,0,1.47010175308,10,4,15.683,3547.4069685039,94.816276,0.70687304,1.96703746452,0,0,-4.026492,233.1, -1.1, -7.2,0,0,1024,1024,1024,1024,233.5,0,99,3.934,3.953,3.958,3.936,0,0,14.248,75.11,3547.4069685039,94.816276,14,Waypoint,
15100,2021-04-13 10:46:32,40.1849623215411,33.3283677985413,95.472444,,,3548.0631365039,39.041996,0.223694,1.52017065232,10,4,15.683,3548.0631365039,95.472444,0.70687304,1.96703746452,0.223694,0,-3.802798,233.1, -1.7, -8.1,0,0,1024,1024,1024,1024,233.5,0,99,3.934,3.953,3.958,3.936,0,0,14.248,75.11,3548.0631365039,95.472444,14,Waypoint,
15200,2021-04-13 10:46:32,40.1849623779675,33.3283677966282,96.128612,,,3548.7193045039,39.041996,0.223694,1.54041671596,9,4,15.683,3548.7193045039,96.128612,0.70687304,1.96703746452,0.223694,0,-3.35541,233.2, -2.4, -8.9,0,0,1024,1024,1024,1024,233.5,0,99,3.934,3.953,3.958,3.936,0,0,14.248,75.11,3548.7193045039,96.128612,14,Waypoint,
15300,2021-04-13 10:46:32,40.184962452937,33.328367883407,96.78478,,,3549.3754725039,39.041996,0,1.5624508374,9,4,15.895,3549.3754725039,96.78478,0.70687304,1.96703746452,0,0,-3.131716,233.3, -3.1, -9.2,0,0,1024,1024,1024,1024,233.5,0,98,3.976,3.98,3.971,3.962,0,0,11.518,75.11,3549.3754725039,96.78478,14,Waypoint,
15400,2021-04-13 10:46:32,40.184962502471,33.3283679924753,97.112864,,,3549.7035565039,39.041996,0,1.5748196042,10,4,15.895,3549.7035565039,97.112864,0.70687304,1.96703746452,0,0,-2.908022,233.4, -3.7, -9.3,0,0,1024,1024,1024,1024,233.5,0,98,3.976,3.98,3.971,3.962,0,0,11.518,75.11,3549.7035565039,97.112864,14,Waypoint,
15500,2021-04-13 10:46:32,40.1849624679203,33.3283683777079,98.097116,,,3550.6878085039,39.041996,0,1.5478675036,10,4,15.895,3550.6878085039,98.097116,0.70687304,1.96703746452,0,0,-2.684328,233.5, -3.9, -9.4,0,0,1024,1024,1024,1024,233.5,0,98,3.976,3.98,3.971,3.962,0,0,11.518,75.11,3550.6878085039,98.097116,14,Waypoint,
15600,2021-04-13 10:46:32,40.1849624193299,33.3283686013223,98.4252,,,3551.0158925039,39.041996,0,1.52510831652,10,4,15.895,3551.0158925039,98.4252,0.70687304,1.96703746452,0,0,-2.460634,233.5, -4.3, -8.9,0,0,1024,1024,1024,1024,233.5,0,98,3.976,3.98,3.971,3.962,0,0,11.518,75.11,3551.0158925039,98.4252,14,Waypoint,
15700,2021-04-13 10:46:32,40.1849623753449,33.3283688275343,98.753284,,,3551.3439765039,39.041996,0,1.5064633028,10,4,15.895,3551.3439765039,98.753284,0.70687304,1.96703746452,0,0,-2.013246,233.4, -4, -8.2,0,0,1024,1024,1024,1024,233.5,0,98,3.976,3.98,3.971,3.962,0,0,11.518,75.11,3551.3439765039,98.753284,14,Waypoint,
15800,2021-04-13 10:46:32,40.1849622933967,33.3283690153038,99.081368,,,3551.6720605039,39.041996,0,1.47638784252,10,4,15.895,3551.6720605039,99.081368,0.70687304,1.96703746452,0,0,-2.013246,233.4, -3.8, -7.7,0,0,1024,1024,1024,1024,233.5,0,98,3.976,3.98,3.971,3.962,0,0,11.518,75.11,3551.6720605039,99.081368,14,Waypoint,
15900,2021-04-13 10:46:32,40.1849619041692,33.3283689587596,99.409452,,,3552.0001445039,39.041996,0,1.33423888784,10,4,15.895,3552.0001445039,99.409452,0.70687304,1.96703746452,0,0,-1.789552,233.3, -3.4, -7.6,0,0,1024,1024,1024,1024,233.4,0,98,3.976,3.98,3.971,3.962,0,0,11.518,75.11,3552.0001445039,99.409452,14,Waypoint,
16000,2021-04-13 10:46:33,40.1849616588393,33.3283689678785,99.737536,,,3552.3282285039,39.041996,0,1.24474413432,10,4,15.895,3552.3282285039,99.737536,0.70687304,1.96703746452,0,0,-1.565858,233.2, -2.8, -7.4,0,0,1024,1024,1024,1024,233.4,0,98,3.976,3.98,3.971,3.962,0,0,11.518,75.11,3552.3282285039,99.737536,14,Waypoint,
16100,2021-04-13 10:46:33,40.1849613961371,33.328368937229,99.737536,,,3552.3282285039,39.041996,0,1.14887470868,10,4,15.895,3552.3282285039,99.737536,0.70687304,1.96703746452,0,0,-1.342164,233.2, -2.4, -7.1,0,0,1024,1024,1024,1024,233.4,0,98,3.976,3.98,3.971,3.962,0,0,11.518,75.11,3552.3282285039,99.737536,14,Waypoint,
16200,2021-04-13 10:46:33,40.1849611437641,33.3283689067037,100.06562,,,3552.6563125039,39.041996,0,1.05683402332,10,4,15.895,3552.6563125039,100.06562,0.70687304,1.96703746452,0,0,-1.11847,233.2, -1.9, -6.7,0,0,1024,1024,1024,1024,233.4,0,98,3.976,3.98,3.971,3.962,0,0,11.518,75.11,3552.6563125039,100.06562,14,Waypoint,
16300,2021-04-13 10:46:33,40.1849606759463,33.3283686250251,100.06562,,,3552.6563125039,39.041996,0,0.89044950356,10,4,15.892,3552.6563125039,100.06562,0.70687304,1.96703746452,0,0,-0.894776,233.2, -1.6, -6.5,0,0,1024,1024,1024,1024,233.4,0,98,3.976,3.98,3.971,3.962,0,0,11.518,75.11,3552.6563125039,100.06562,14,Waypoint,
16400,2021-04-13 10:46:33,40.1849604605944,33.3283686050362,100.06562,,,3552.6563125039,39.041996,0,0.81291997352,9,4,15.892,3552.6563125039,100.06562,0.70687304,1.96703746452,0,0,-0.671082,233.2, -1.1, -6.2,0,0,1024,1024,1024,1024,233.4,0,98,3.976,3.98,3.971,3.962,0,0,11.518,75.11,3552.6563125039,100.06562,14,Waypoint,
16500,2021-04-13 10:46:33,40.1849603070419,33.3283685456687,100.06562,,,3552.6563125039,39.041996,0.223694,0.75951117916,9,4,15.892,3552.6563125039,100.06562,0.70687304,1.96703746452,0,-0.223694,-0.671082,233.2, -0.6, -6,0,0,1024,1024,1024,1024,233.4,0,98,3.976,3.98,3.971,3.962,0,0,11.518,75.11,3552.6563125039,100.06562,14,Waypoint,
16600,2021-04-13 10:46:33,40.1849601702053,33.3283684941887,100.393704,,,3552.9843965039,39.041996,0,0.71250986532,9,4,15.892,3552.9843965039,100.393704,0.70687304,1.96703746452,0,0,-0.447388,233.5, -0.3, -4.6,0,0,1024,1024,1024,1024,233.4,0,98,3.976,3.98,3.971,3.962,0,0,11.518,75.11,3552.9843965039,100.393704,14,Waypoint,
16700,2021-04-13 10:46:33,40.1849599760492,33.328368407878,100.393704,,,3552.9843965039,39.041996,0,0.64795605748,9,4,15.892,3552.9843965039,100.393704,0.70687304,1.96703746452,0,0,-0.223694,234.4, -0.3, -4.4,0,0,1024,1024,1024,1024,233.4,0,98,3.976,3.98,3.971,3.962,0,0,11.518,75.11,3552.9843965039,100.393704,14,Waypoint,
16800,2021-04-13 10:46:33,40.1849597177878,33.3283679453485,100.393704,,,3552.9843965039,39.041996,0,0.60391734216,10,4,15.892,3552.9843965039,100.393704,0.70687304,1.96703746452,0,0,0,235.8, -0.8, -5,0,0,1024,1024,1024,1024,233.5,0,98,3.976,3.98,3.971,3.962,0,0,11.518,75.11,3552.9843965039,100.393704,14,Waypoint,
16900,2021-04-13 10:46:33,40.1849597172422,33.328367907084,100.393704,,,3552.9843965039,39.041996,0.223694,0.60871393024,10,4,15.892,3552.9843965039,100.393704,0.70687304,1.96703746452,0.223694,0,0,237.9, -0.9, -5.5,0,0,1024,1024,1024,1024,233.8,0,98,3.976,3.98,3.971,3.962,0,0,11.518,75.11,3552.9843965039,100.393704,14,Waypoint,
17000,2021-04-13 10:46:34,40.1849597442304,33.3283678889794,100.06562,,,3552.6563125039,39.041996,0.223694,0.61977692272,10,4,15.892,3552.9843965039,100.393704,0.70687304,1.96703746452,0.223694,0,0,240.5, -0.9, -5.8,0,0,1024,1024,1024,1024,234.5,0,98,3.976,3.98,3.971,3.962,0,0,11.518,75.11,3552.6563125039,100.06562,14,Waypoint,
17100,2021-04-13 10:46:34,40.1849598046767,33.3283679661411,100.06562,,,3552.6563125039,39.041996,0.223694,0.62973099128,10,4,15.892,3552.9843965039,100.393704,0.70687304,1.96703746452,0.223694,0,0,243.7, -1, -6.3,0,0,1024,1024,1024,1024,235.9,0,98,3.976,3.98,3.971,3.962,0,0,11.518,75.11,3552.6563125039,100.06562,14,Waypoint,
17200,2021-04-13 10:46:34,40.1849600260962,33.3283681302043,100.06562,,,3552.6563125039,39.041996,0.223694,0.6871391296,10,4,15.892,3552.9843965039,100.393704,0.70687304,1.96703746452,0.223694,0,0,247.5, -0.8, -6.9,0,0,1024,1024,1024,1024,238.2,0,98,3.976,3.98,3.971,3.962,0,0,11.518,75.11,3552.6563125039,100.06562,14,Waypoint,
17300,2021-04-13 10:46:34,40.1849600280243,33.3283681709221,99.737536,,,3552.3282285039,39.041996,0,0.68416340772,10,4,15.801,3552.9843965039,100.393704,0.70687304,1.96703746452,0,0,0,251.9, -0.6, -6.8,0,0,1024,1024,1024,1024,241.6,0,98,4.002,4.001,4.013,3.996,0,0,10.014,75.11,3552.3282285039,99.737536,14,Waypoint,
17400,2021-04-13 10:46:34,40.1849600309669,33.3283682075524,100.06562,,,3552.6563125039,39.041996,0,0.68205710844,10,4,15.801,3552.9843965039,100.393704,0.70687304,1.96703746452,0,0,0,256.8, -0.2, -6.5,0,0,1024,1024,1024,1024,245.8,0,98,4.002,4.001,4.013,3.996,0,0,10.014,75.11,3552.6563125039,100.06562,14,Waypoint,
17500,2021-04-13 10:46:34,40.1849600354288,33.3283682957594,100.06562,,,3552.6563125039,39.041996,0.223694,0.67667653084,10,4,15.801,3552.9843965039,100.393704,0.70687304,1.96703746452,0.223694,0,0,261.4, 0, -6.5,0,0,1024,1024,1024,1024,245.8,0,98,4.002,4.001,4.013,3.996,0,0,10.014,75.11,3552.6563125039,100.06562,14,Waypoint,
17600,2021-04-13 10:46:34,40.1849599132841,33.3283686001779,100.393704,,,3552.9843965039,39.041996,0.223694,0.61518702756,9,4,15.801,3552.9843965039,100.393704,0.70687304,1.96703746452,0.223694,0,0,264.9, 0.4, -6.8,0,0,1024,1024,1024,1024,250.4,0,98,4.002,4.001,4.013,3.996,0,0,10.014,75.11,3552.9843965039,100.393704,14,Waypoint,
17700,2021-04-13 10:46:34,40.184959827553,33.3283688809679,100.06562,,,3552.6563125039,39.041996,0,0.57681104208,9,4,15.801,3552.9843965039,100.393704,0.70687304,1.96703746452,0,0,0,267.2, 1.2, -6.7,0,0,1024,1024,1024,1024,254.5,0,98,4.002,4.001,4.013,3.996,0,0,10.014,75.11,3552.6563125039,100.06562,14,Waypoint,
17800,2021-04-13 10:46:34,40.1849597523303,33.3283691516762,100.06562,,,3552.6563125039,39.041996,0,0.55229332476,9,4,15.801,3552.9843965039,100.393704,0.70687304,1.96703746452,0,0,0,268.6, 2.1, -6.4,0,0,1024,1024,1024,1024,257.8,0,98,4.002,4.001,4.013,3.996,0,0,10.014,75.11,3552.6563125039,100.06562,14,Waypoint,
17900,2021-04-13 10:46:34,40.1849597738812,33.3283693875957,100.06562,,,3552.6563125039,39.041996,0,0.57079726236,9,4,15.801,3552.9843965039,100.393704,0.70687304,1.96703746452,0,0,0,269.4, 2.5, -6.2,0,0,1024,1024,1024,1024,260.3,0,98,4.002,4.001,4.013,3.996,0,0,10.014,75.11,3552.6563125039,100.06562,14,Waypoint,
18000,2021-04-13 10:46:35,40.1849596183631,33.3283703136926,99.737536,,,3552.3282285039,39.041996,0,0.62997705428,9,4,15.801,3552.9843965039,100.393704,0.70687304,1.96703746452,0,0,0,269.7, 2.3, -6.1,0,0,1024,1024,1024,1024,262.1,0,98,4.002,4.001,4.013,3.996,0,0,10.014,75.11,3552.3282285039,99.737536,14,Waypoint,
18100,2021-04-13 10:46:35,40.1849595829184,33.3283705415829,99.409452,,,3552.0001445039,39.041996,0,0.6608924096,9,4,15.801,3552.9843965039,100.393704,0.70687304,1.96703746452,0,0,0,270, 1.4, -6.5,0,0,1024,1024,1024,1024,263.4,0,98,4.002,4.001,4.013,3.996,0,0,10.014,75.11,3552.0001445039,99.409452,14,Waypoint,
18200,2021-04-13 10:46:35,40.1849595153885,33.3283707317098,99.737536,,,3552.3282285039,39.041996,0,0.6808071084,9,4,15.801,3552.9843965039,100.393704,0.70687304,1.96703746452,0,0,-0.223694,270.2, 1.5, -6.3,0,0,1024,1024,1024,1024,264.4,0,98,4.002,4.001,4.013,3.996,0,0,10.014,75.11,3552.3282285039,99.737536,14,Waypoint,
18300,2021-04-13 10:46:35,40.1849593163421,33.3283708597677,99.737536,,,3552.3282285039,39.041996,0,0.66219162224,9,4,15.871,3552.9843965039,100.393704,0.70687304,1.96703746452,0,0,-0.223694,270.3, 2, -5.6,0,0,1024,1024,1024,1024,265.2,0,98,4.002,4.001,4.013,3.996,0,0,11.072,75.11,3552.3282285039,99.737536,14,Waypoint,
18400,2021-04-13 10:46:35,40.1849591184259,33.3283709598741,99.737536,,,3552.3282285039,39.041996,0,0.64654529628,9,4,15.871,3552.9843965039,100.393704,0.70687304,1.96703746452,0,0,-0.223694,270.3, 1, -4.5,0,0,1024,1024,1024,1024,265.8,0,98,4.002,4.001,4.013,3.996,0,0,11.072,75.11,3552.3282285039,99.737536,14,Waypoint,
