time(millisecond),datetime(utc),latitude,longitude,height_above_takeoff(feet),height_above_ground_at_drone_location(feet),ground_elevation_at_drone_location(feet),altitude_above_seaLevel(feet),height_sonar(feet),speed(mph),distance(feet),satellites,gpslevel,voltage(v),max_altitude(feet),max_ascent(feet),max_speed(mph),max_distance(feet), xSpeed(mph), ySpeed(mph), zSpeed(mph), compass_heading(degrees), pitch(degrees), roll(degrees),isPhoto,isVideo,rc_elevator,rc_aileron,rc_throttle,rc_rudder,gimbal_heading(degrees),gimbal_pitch(degrees),battery_percent,voltageCell1,voltageCell2,voltageCell3,voltageCell4,voltageCell5,voltageCell6,current(A),battery_temperature(f),altitude(feet),ascent(feet),flycStateRaw,flycState,message
0,,40.1849441524834,33.3283133715371,0,Available with any HD 360 subscription,Available with any HD 360 subscription,3452.27430273,0.328084,0,0,9,4,0,3452.27430273,0,0,0,0,0,0,240.2, -1.1, -0.2,0,0,1024,1024,1024,1024,240.3,0,99,4.218,4.221,4.221,4.218,0,0,0,62.51,3452.27430273,0,41,Motors_Started,
100,,40.1849441063221,33.3283134286392,0,,,3452.27430273,0.328084,0,0.023172736962,9,4,0,3452.27430273,0,0,0.023172736962,0,0,0,240.3, -1.1, -0.2,0,0,1024,1024,1024,1024,240.3,0,99,4.218,4.221,4.221,4.218,0,0,0,62.51,3452.27430273,0,41,Motors_Started,
200,,40.1849440551061,33.3283134987159,0,,,3452.27430273,0.328084,0,0.050188321816,9,4,0,3452.27430273,0,0,0.050188321816,0,0,0,240.3, -1.2, -0.2,0,0,1024,1024,1024,1024,240.3,0,99,4.218,4.221,4.221,4.218,0,0,0,62.51,3452.27430273,0,41,Motors_Started,
300,,40.1849440092109,33.3283135667076,0,,,3452.27430273,0.328084,0,0.075444228136,9,4,0,3452.27430273,0,0,0.075444228136,0,0,0,240.1, -1.1, -0.2,0,0,1024,1024,1024,1024,240.3,0,99,4.218,4.221,4.221,4.218,0,0,0,62.51,3452.27430273,0,41,Motors_Started,
400,,40.184943959329,33.3283135542756,0,,,3452.27430273,0.328084,0,0.086952430604,9,4,0,3452.27430273,0,0,0.086952430604,0,0,0,240, -1.2, -0.2,0,0,1024,1024,1024,1024,240.3,0,99,4.218,4.221,4.221,4.218,0,0,0,62.51,3452.27430273,0,41,Motors_Started,
500,2021-04-13 12:43:02,40.1849439154974,33.3283135685923,0,,,3452.27430273,0.328084,0,0.102434714564,9,4,0,3452.27430273,0,0,0.102434714564,0,0,0,240.1, -1.2, -0.2,0,0,1024,1024,1024,1024,240.2,0,99,4.218,4.221,4.221,4.218,0,0,0,62.51,3452.27430273,0,41,Motors_Started,
600,2021-04-13 12:43:02,40.1849438661337,33.3283135685026,0,,,3452.27430273,0.328084,0,0.118021329236,9,4,0,3452.27430273,0,0,0.118021329236,0,0,0,240.3, -1.2, -0.2,0,0,1024,1024,1024,1024,240.2,0,99,4.218,4.221,4.221,4.218,0,0,0,62.51,3452.27430273,0,41,Motors_Started,
700,2021-04-13 12:43:02,40.1849438190224,33.3283135668345,0,,,3452.27430273,0.328084,0,0.13328576542,9,4,0,3452.27430273,0,0,0.13328576542,0,0,0,240.3, -1.2, -0.2,0,0,1024,1024,1024,1024,240.3,0,99,4.218,4.221,4.221,4.218,0,0,0,62.51,3452.27430273,0,41,Motors_Started,
800,2021-04-13 12:43:02,40.1849437506606,33.3283134236015,0,,,3452.27430273,0.328084,0,0.14732119894,9,4,0,3452.27430273,0,0,0.14732119894,0,0,0,240.2, -1.2, -0.2,0,0,1024,1024,1024,1024,240.3,0,99,4.218,4.221,4.221,4.218,0,0,0,62.51,3452.27430273,0,41,Motors_Started,
900,2021-04-13 12:43:02,40.1849437031578,33.3283134175134,0,,,3452.27430273,0.328084,0,0.164436356968,9,4,16.91,3452.27430273,0,0,0.164436356968,0,0,0,240.2, -1.2, -0.2,0,0,1024,1024,1024,1024,240.3,0,99,4.218,4.221,4.221,4.218,0,0,1.334,62.51,3452.27430273,0,41,Motors_Started,Setting new Return-To-Home altitude to 150m (492 ft). Data Recorder File Index is 378. Setting new Maximum Flight Altitude to 500m (1640 ft)
1000,2021-04-13 12:43:02,40.1849436533319,33.3283134654124,0,,,3452.27430273,0.328084,0,0.183985242108,9,4,16.91,3452.27430273,0,0,0.183985242108,0,0,0,240.3, -1.2, -0.2,0,0,1024,1024,1024,1024,240.3,0,99,4.218,4.221,4.221,4.218,0,0,1.334,62.51,3452.27430273,0,41,Motors_Started,
1100,2021-04-13 12:43:03,40.184943605257,33.3283135125708,0,,,3452.27430273,0.328084,0,0.203488523572,9,4,16.91,3452.27430273,0,0,0.203488523572,0,0,0,240.4, -1.2, -0.2,0,0,1024,1024,1024,1024,240.3,0,99,4.218,4.221,4.221,4.218,0,0,1.334,62.51,3452.27430273,0,41,Motors_Started,
1200,2021-04-13 12:43:03,40.1849435480941,33.3283135493343,0,,,3452.27430273,0.328084,0,0.226011162088,9,4,16.91,3452.27430273,0,0,0.226011162088,0,0,0,240.5, -1.2, -0.2,0,0,1024,1024,1024,1024,240.3,0,99,4.218,4.221,4.221,4.218,0,0,1.334,62.51,3452.27430273,0,41,Motors_Started,
1300,2021-04-13 12:43:03,40.1849434956825,33.3283135653559,0,,,3452.27430273,0.328084,0,0.245647645656,9,4,16.91,3452.27430273,0,0,0.245647645656,0,0,0,240.5, -1.2, -0.1,0,0,1024,1024,1024,1024,240.3,0,99,4.218,4.221,4.221,4.218,0,0,1.334,62.51,3452.27430273,0,41,Motors_Started,
1400,2021-04-13 12:43:03,40.1849433923605,33.328313567345,0,,,3452.27430273,0.328084,0,0.282649615344,9,4,16.91,3452.27430273,0,0,0.282649615344,0,0,0,240.5, -1.2, -0.1,0,0,1024,1024,1024,1024,240.3,0,99,4.218,4.221,4.221,4.218,0,0,1.334,62.51,3452.27430273,0,41,Motors_Started,
1500,2021-04-13 12:43:03,40.1849432967009,33.3283135691442,0,,,3452.27430273,0.328084,0,0.317052831668,9,4,16.91,3452.27430273,0,0,0.317052831668,0,0,0,240.5, -1.2, -0.2,0,0,1024,1024,1024,1024,240.3,0,99,4.218,4.221,4.221,4.218,0,0,1.334,62.51,3452.27430273,0,11,AutoTakeoff,
1600,2021-04-13 12:43:03,40.1849432801587,33.3283135678436,0,,,3452.27430273,0.328084,0,0.32293636204,9,4,16.91,3452.27430273,0,0,0.32293636204,0,0,0,240.6, -1.2, -0.2,0,0,1024,1024,1024,1024,240.3,0,99,4.218,4.221,4.221,4.218,0,0,1.334,62.51,3452.27430273,0,11,AutoTakeoff,
1700,2021-04-13 12:43:03,40.1849432602907,33.3283134913945,0,,,3452.27430273,0.328084,0,0.327225732256,9,4,16.91,3452.27430273,0,0,0.327225732256,0,0,0,240.6, -1.2, -0.2,0,0,1024,1024,1024,1024,240.3,0,99,4.218,4.221,4.221,4.218,0,0,1.334,62.51,3452.27430273,0,11,AutoTakeoff,
1800,2021-04-13 12:43:03,40.1849431723641,33.3283134900862,0,,,3452.27430273,0.328084,0,0.3591207464,9,4,16.91,3452.27430273,0,0,0.3591207464,0,0,0,240.7, -1.2, -0.2,0,0,1024,1024,1024,1024,240.3,0,99,4.218,4.221,4.221,4.218,0,0,1.334,62.51,3452.27430273,0,11,AutoTakeoff,
1900,2021-04-13 12:43:03,40.1849430886897,33.3283134899524,0,,,3452.27430273,0.328084,0,0.38952429068,9,4,16.658,3452.27430273,0,0,0.38952429068,0,0,0,240.7, -1.2, -0.2,0,0,1024,1024,1024,1024,240.3,0,99,4.142,4.146,4.136,4.129,0,0,4.95,62.51,3452.27430273,0,11,AutoTakeoff,
2000,2021-04-13 12:43:03,40.1849430250318,33.3283135419649,0,,,3452.27430273,0.328084,0,0.41408465892,9,4,16.658,3452.27430273,0,0,0.41408465892,0,0,0,240.7, -1.3, -0.2,0,0,1024,1024,1024,1024,240.3,0,99,4.142,4.146,4.136,4.129,0,0,4.95,62.51,3452.27430273,0,11,AutoTakeoff,
2100,2021-04-13 12:43:04,40.1849429192908,33.3283136344828,0,,,3452.27430273,0.328084,0,0.45585959464,9,4,16.658,3452.27430273,0,0,0.45585959464,0,0,0,240.7, -1.2, -0.3,0,0,1024,1024,1024,1024,240.3,0,99,4.142,4.146,4.136,4.129,0,0,4.95,62.51,3452.27430273,0,11,AutoTakeoff,
2200,2021-04-13 12:43:04,40.1849428601861,33.3283136481762,0,,,3452.27430273,0.328084,0,0.4777559208,9,4,16.658,3452.27430273,0,0,0.4777559208,0,0,0,240.6, 0, -0.4,0,0,1024,1024,1024,1024,240.3,0,99,4.142,4.146,4.136,4.129,0,0,4.95,62.51,3452.27430273,0,11,AutoTakeoff,
2300,2021-04-13 12:43:04,40.1849427984151,33.3283136614967,0,,,3452.27430273,0.328084,0,0.50059712888,9,4,16.658,3452.27430273,0,0,0.50059712888,0,0,-0.223694,240.2, 1.5, 0.1,0,0,1024,1024,1024,1024,240.3,0,99,4.142,4.146,4.136,4.129,0,0,4.95,62.51,3452.27430273,0,11,AutoTakeoff,
2400,2021-04-13 12:43:04,40.1849427490883,33.3283136851499,0,,,3452.27430273,0.656168,0,0.51943571216,9,4,16.658,3452.27430273,0,0,0.51943571216,0,0,-0.671082,240.1, 1.2, 0.3,0,0,1024,1024,1024,1024,240.3,0,99,4.142,4.146,4.136,4.129,0,0,4.95,62.51,3452.27430273,0,11,AutoTakeoff,
2500,2021-04-13 12:43:04,40.1849427582133,33.3283136796942,0,,,3452.27430273,0.656168,0,0.51589896664,9,4,16.658,3452.27430273,0,0,0.51943571216,0,0,-1.11847,240.1, -0.2, 0.1,0,0,1024,1024,1024,1024,240.3,0,99,4.142,4.146,4.136,4.129,0,0,4.95,62.51,3452.27430273,0,11,AutoTakeoff,
2600,2021-04-13 12:43:04,40.184942793075,33.3283137315613,0.328084,,,3452.60238673,0.984252,0,0.50603019992,9,4,16.658,3452.60238673,0.328084,0,0.51943571216,0,0,-1.11847,240.2, -0.7, -0.1,0,0,1024,1024,1024,1024,240.3,0,99,4.142,4.146,4.136,4.129,0,0,4.95,62.51,3452.60238673,0.328084,11,AutoTakeoff,
2700,2021-04-13 12:43:04,40.1849428242475,33.3283137733242,0.328084,,,3452.60238673,0.984252,0,0.49737862484,9,4,16.658,3452.60238673,0.328084,0,0.51943571216,0,0,-1.342164,240.1, -1.1, -0.5,0,0,1024,1024,1024,1024,240.3,0,99,4.142,4.146,4.136,4.129,0,0,4.95,62.51,3452.60238673,0.328084,11,AutoTakeoff,
2800,2021-04-13 12:43:04,40.1849428105841,33.3283138103727,0.656168,,,3452.93047073,1.312336,0,0.50463912376,9,4,16.658,3452.93047073,0.656168,0,0.51943571216,0,0,-1.11847,240, -1, -0.4,0,0,1024,1024,1024,1024,240.3,0,99,4.142,4.146,4.136,4.129,0,0,4.95,62.51,3452.93047073,0.656168,11,AutoTakeoff,
2900,2021-04-13 12:43:04,40.1849428762621,33.3283137529331,0.656168,,,3452.93047073,1.312336,0,0.47761156384,9,4,16.474,3452.93047073,0.656168,0,0.51943571216,0,0,-1.11847,240.1, -0.6, 0.2,0,0,1024,1024,1024,1024,240.3,0,99,4.007,4.013,3.998,3.981,0,0,7.018,62.51,3452.93047073,0.656168,11,AutoTakeoff,
3000,2021-04-13 12:43:04,40.1849428167034,33.3283137428882,0.984252,,,3453.25855473,1.64042,0,0.4982283624,9,4,16.474,3453.25855473,0.984252,0,0.51943571216,0,0,-1.11847,240.2, -0.1, 0.9,0,0,1024,1024,1024,1024,240.3,0,99,4.007,4.013,3.998,3.981,0,0,7.018,62.51,3453.25855473,0.984252,11,AutoTakeoff,
3100,2021-04-13 12:43:05,40.1849427734079,33.3283137192193,0.984252,,,3453.25855473,1.64042,0,0.5124015912,9,4,16.474,3453.25855473,0.984252,0,0.51943571216,0,0,-1.11847,240.2, 0.2, 0.8,0,0,1024,1024,1024,1024,240.3,0,99,4.007,4.013,3.998,3.981,0,0,7.018,62.51,3453.25855473,0.984252,11,AutoTakeoff,
3200,2021-04-13 12:43:05,40.1849426762293,33.3283137180024,1.312336,,,3453.58663873,1.968504,0,0.54719818024,9,4,16.474,3453.58663873,1.312336,0,0.54719818024,0,0,-0.894776,240.2, 0.7, 0.5,0,0,1024,1024,1024,1024,240.3,0,99,4.007,4.013,3.998,3.981,0,0,7.018,62.51,3453.58663873,1.312336,11,AutoTakeoff,
3300,2021-04-13 12:43:05,40.184942607044,33.3283137247489,1.312336,,,3453.58663873,1.968504,0,0.57238190808,9,4,16.474,3453.58663873,1.312336,0,0.57238190808,0,0,-0.894776,240.1, 0.7, -0.1,0,0,1024,1024,1024,1024,240.3,0,99,4.007,4.013,3.998,3.981,0,0,7.018,62.51,3453.58663873,1.312336,11,AutoTakeoff,
3400,2021-04-13 12:43:05,40.1849423931166,33.3283138829125,1.64042,,,3453.91472273,2.296588,0,0.65753939112,9,4,16.474,3453.91472273,1.64042,0,0.65753939112,0,0,-0.894776,240.1, 0.4, -0.7,0,0,1024,1024,1024,1024,240.3,0,99,4.007,4.013,3.998,3.981,0,0,7.018,62.51,3453.91472273,1.64042,11,AutoTakeoff,
3500,2021-04-13 12:43:05,40.1849424048796,33.3283140160312,1.64042,,,3453.91472273,2.296588,0,0.6624344044,9,4,16.474,3453.91472273,1.64042,0,0.6624344044,0,0,-0.894776,240.1, 0.3, -0.7,0,0,1024,1024,1024,1024,240.3,0,99,4.007,4.013,3.998,3.981,0,0,7.018,62.51,3453.91472273,1.64042,11,AutoTakeoff,
3600,2021-04-13 12:43:05,40.1849424586557,33.3283140766387,1.968504,,,3454.24280673,2.624672,0.223694,0.6484908344,9,4,16.474,3454.24280673,1.968504,0.223694,0.6624344044,0.223694,0,-0.894776,240.2, -0.1, -0.7,0,0,1024,1024,1024,1024,240.3,0,99,4.007,4.013,3.998,3.981,0,0,7.018,62.51,3454.24280673,1.968504,11,AutoTakeoff,
3700,2021-04-13 12:43:05,40.1849425175403,33.3283141620586,1.968504,,,3454.24280673,2.624672,0.223694,0.63590225132,9,4,16.474,3454.24280673,1.968504,0.223694,0.6624344044,0.223694,0,-0.894776,240.2, -0.4, -0.9,0,0,1024,1024,1024,1024,240.3,0,99,4.007,4.013,3.998,3.981,0,0,7.018,62.51,3454.24280673,1.968504,11,AutoTakeoff,
3800,2021-04-13 12:43:05,40.18494283252,33.3283145008772,1.968504,,,3454.24280673,2.952756,0.31540854,0.57533794492,9,4,16.474,3454.24280673,1.968504,0.31540854,0.6624344044,0.223694,0.223694,-0.894776,240.3, -1.3, -0.8,0,0,1024,1024,1024,1024,240.3,0,99,4.007,4.013,3.998,3.981,0,0,7.018,62.51,3454.24280673,1.968504,11,AutoTakeoff,
3900,2021-04-13 12:43:05,40.1849429668471,33.3283147564846,2.296588,,,3454.57089073,2.952756,0.31540854,0.57978020228,9,4,15.985,3454.57089073,2.296588,0.31540854,0.6624344044,0.223694,0.223694,-0.894776,240.2, -2.3, -0.9,0,0,1024,1024,1024,1024,240.3,0,99,4.007,4.013,3.998,3.981,0,0,12.276,62.51,3454.57089073,2.296588,11,AutoTakeoff,
4000,2021-04-13 12:43:05,40.1849430704056,33.3283150686878,2.296588,,,3454.57089073,3.28084,0.31540854,0.61614831368,9,4,15.985,3454.57089073,2.296588,0.31540854,0.6624344044,0.223694,0.223694,-0.894776,240.2, -3.1, -1.1,0,0,1024,1024,1024,1024,240.3,0,99,4.007,4.013,3.998,3.981,0,0,12.276,62.51,3454.57089073,2.296588,11,AutoTakeoff,
4100,2021-04-13 12:43:06,40.1849431536219,33.3283153508656,2.624672,,,3454.89897473,3.608924,0,0.66120080856,9,4,15.985,3454.89897473,2.624672,0.31540854,0.6624344044,0,0,-0.894776,240.2, -3.2, -1,0,0,1024,1024,1024,1024,240.3,0,99,4.007,4.013,3.998,3.981,0,0,12.276,62.51,3454.89897473,2.624672,11,AutoTakeoff,
4200,2021-04-13 12:43:06,40.1849431981061,33.328315420461,2.624672,,,3454.89897473,3.608924,0.223694,0.668881255,9,4,15.985,3454.89897473,2.624672,0.31540854,0.668881255,0,0.223694,-0.894776,240.2, -3.2, -1,0,0,1024,1024,1024,1024,240.3,0,99,4.007,4.013,3.998,3.981,0,0,12.276,62.51,3454.89897473,2.624672,14,Waypoint,
4300,2021-04-13 12:43:06,40.184943207889,33.3283154957923,2.952756,,,3455.22705873,3.937008,0.223694,0.68509516628,9,4,15.985,3455.22705873,2.952756,0.31540854,0.68509516628,0,0.223694,-0.894776,240.2, -3.2, -0.9,0,0,1024,1024,1024,1024,240.3,0,99,4.007,4.013,3.998,3.981,0,0,12.276,62.51,3455.22705873,2.952756,14,Waypoint,
4400,2021-04-13 12:43:06,40.1849432284623,33.3283157333447,2.952756,,,3455.22705873,3.937008,0,0.7396161654,9,4,15.985,3455.22705873,2.952756,0.31540854,0.7396161654,0,0,-1.11847,240.1, -2.9, -0.5,0,0,1024,1024,1024,1024,240.3,0,99,4.007,4.013,3.998,3.981,0,0,12.276,62.51,3455.22705873,2.952756,14,Waypoint,
4500,2021-04-13 12:43:06,40.184943242069,33.3283159201732,3.28084,,,3455.55514273,4.265092,0,0.78420934268,9,4,15.985,3455.55514273,3.28084,0.31540854,0.78420934268,0,0,-1.11847,240.1, -2.3, -1,0,0,1024,1024,1024,1024,240.3,0,99,4.007,4.013,3.998,3.981,0,0,12.276,62.51,3455.55514273,3.28084,14,Waypoint,
4600,2021-04-13 12:43:06,40.184943196426,33.3283161301748,3.608924,,,3455.88322673,4.593176,0,0.84434385904,9,4,15.985,3455.88322673,3.608924,0.31540854,0.84434385904,0,0,-1.11847,240, -0.9, -0.8,0,0,1024,1024,1024,1024,240.3,0,99,4.007,4.013,3.998,3.981,0,0,12.276,62.51,3455.88322673,3.608924,14,Waypoint,
4700,2021-04-13 12:43:06,40.18494317843,33.3283161956686,3.608924,,,3455.88322673,4.593176,0,0.86368113,9,4,15.985,3455.88322673,3.608924,0.31540854,0.86368113,0,0,-1.11847,240, -0.2, -0.3,0,0,1024,1024,1024,1024,240.3,0,99,4.007,4.013,3.998,3.981,0,0,12.276,62.51,3455.88322673,3.608924,14,Waypoint,
4800,2021-04-13 12:43:06,40.1849431022913,33.3283161290689,3.937008,,,3456.21131073,4.92126,0,0.8588254868,9,4,15.985,3456.21131073,3.937008,0.31540854,0.86368113,0,0,-1.11847,240, -0.7, -0.6,0,0,1024,1024,1024,1024,240.3,0,99,4.007,4.013,3.998,3.981,0,0,12.276,62.51,3456.21131073,3.937008,14,Waypoint,
4900,2021-04-13 12:43:06,40.1849430413948,33.3283160743388,4.265092,,,3456.53939473,4.92126,0.223694,0.85550199588,9,4,15.734,3456.53939473,4.265092,0.31540854,0.86368113,0.223694,0,-1.342164,240.1, -1.3, 0,0,0,1024,1024,1024,1024,240.3,0,99,4.007,4.013,3.998,3.981,0,0,12.276,62.51,3456.53939473,4.265092,14,Waypoint,
5000,2021-04-13 12:43:06,40.1849430615847,33.3283160449654,4.265092,,,3456.53939473,5.249344,0.223694,0.84480317664,9,4,15.734,3456.53939473,4.265092,0.31540854,0.86368113,0.223694,0,-1.789552,240, -1.8, -0.1,0,0,1024,1024,1024,1024,240.3,0,99,4.007,4.013,3.998,3.981,0,0,12.276,62.51,3456.53939473,4.265092,14,Waypoint,
5100,2021-04-13 12:43:07,40.1849429882408,33.3283156847948,4.92126,,,3457.19556273,5.577428,0.223694,0.77212272812,9,4,15.734,3457.19556273,4.92126,0.31540854,0.86368113,0.223694,0,-2.460634,239.8, -1.6, -1.3,0,0,1024,1024,1024,1024,240.3,0,99,4.007,4.013,3.998,3.981,0,0,12.276,62.51,3457.19556273,4.92126,14,Waypoint,
5200,2021-04-13 12:43:07,40.1849430666483,33.3283156625858,5.249344,,,3457.52364673,6.233596,0.223694,0.75149608704,9,4,15.734,3457.52364673,5.249344,0.31540854,0.86368113,0.223694,0,-3.131716,239.8, -1.1, -2.2,0,0,1024,1024,1024,1024,240.3,0,99,4.007,4.013,3.998,3.981,0,0,12.276,62.51,3457.52364673,5.249344,14,Waypoint,
5300,2021-04-13 12:43:07,40.1849431195927,33.3283156592516,5.905512,,,3458.17981473,6.56168,0,0.74069228092,9,4,15.734,3458.17981473,5.905512,0.31540854,0.86368113,0,0,-3.802798,239.9, -0.8, -2.1,0,0,1024,1024,1024,1024,240.3,0,99,4.007,4.013,3.998,3.981,0,0,12.276,62.51,3458.17981473,5.905512,14,Waypoint,
5400,2021-04-13 12:43:07,40.1849430825049,33.3283156964474,6.233596,,,3458.50789873,7.217848,0,0.7565288956,9,4,15.734,3458.50789873,6.233596,0.31540854,0.86368113,0,0,-4.47388,240, -1, -1.3,0,0,1024,1024,1024,1024,240.3,0,99,4.007,4.013,3.998,3.981,0,0,12.276,62.51,3458.50789873,6.233596,14,Waypoint,
5500,2021-04-13 12:43:07,40.1849430182624,33.3283157459685,7.217848,,,3459.49215073,8.2021,0,0.78055448692,9,4,15.734,3459.49215073,7.217848,0.31540854,0.86368113,0,0,-5.368656,240, -1.5, 0,0,0,1024,1024,1024,1024,240.3,0,99,4.007,4.013,3.998,3.981,0,0,12.276,62.51,3459.49215073,7.217848,14,Waypoint,
5600,2021-04-13 12:43:07,40.1849430881059,33.328316008062,7.874016,,,3460.14831873,8.858268,0,0.83118112896,9,4,15.734,3460.14831873,7.874016,0.31540854,0.86368113,0,0,-6.039738,240, -1.9, -0.4,0,0,1024,1024,1024,1024,240.3,0,99,4.007,4.013,3.998,3.981,0,0,12.276,62.51,3460.14831873,7.874016,14,Waypoint,
5700,2021-04-13 12:43:07,40.184943168812,33.3283162476016,8.858268,,,3461.13257073,9.84252,0,0.87832351892,9,4,15.734,3461.13257073,8.858268,0.31540854,0.87832351892,0,0,-6.71082,239.9, -2.7, -1.2,0,0,1024,1024,1024,1024,240.3,0,99,4.007,4.013,3.998,3.981,0,0,12.276,62.51,3461.13257073,8.858268,14,Waypoint,
5800,2021-04-13 12:43:07,40.1849432230256,33.3283163418373,9.84252,,,3462.11682273,10.826772,0,0.89467850632,9,4,15.734,3462.11682273,9.84252,0.31540854,0.89467850632,0,0,-6.934514,240, -2.4, -1.3,0,0,1024,1024,1024,1024,240.3,0,99,4.007,4.013,3.998,3.981,0,0,12.276,62.51,3462.11682273,9.84252,14,Waypoint,
5900,2021-04-13 12:43:07,40.1849432668857,33.3283164958011,11.154856,,,3463.42915873,11.811024,0.223694,0.92884517408,9,4,15.769,3463.42915873,11.154856,0.31540854,0.92884517408,0,-0.223694,-7.158208,240, -1.5, -1,0,0,1024,1024,1024,1024,240.3,0,99,3.941,3.958,3.948,3.934,0,0,12.276,62.51,3463.42915873,11.154856,14,Waypoint,
6000,2021-04-13 12:43:07,40.1849431480164,33.3283165082041,12.139108,,,3464.41341073,13.12336,0.223694,0.94799215632,9,4,15.769,3464.41341073,12.139108,0.31540854,0.94799215632,0,-0.223694,-7.158208,240.2, -1.1, -1,0,0,1024,1024,1024,1024,240.3,0,99,3.941,3.958,3.948,3.934,0,0,12.276,62.51,3464.41341073,12.139108,14,Waypoint,
6100,2021-04-13 12:43:08,40.1849430463909,33.3283165529387,13.12336,,,3465.39766273,14.107612,0,0.97426840388,9,4,15.769,3465.39766273,13.12336,0.31540854,0.97426840388,0,0,-7.381902,240.3, -0.7, -0.3,0,0,1024,1024,1024,1024,240.3,0,99,3.941,3.958,3.948,3.934,0,0,12.276,62.51,3465.39766273,13.12336,14,Waypoint,
6200,2021-04-13 12:43:08,40.1849431209508,33.3283166878332,14.435696,,,3466.70999873,15.091864,0,0.99803808968,9,4,15.769,3466.70999873,14.435696,0.31540854,0.99803808968,0,0,-7.381902,240.3, -1.4, -0.2,0,0,1024,1024,1024,1024,240.3,0,99,3.941,3.958,3.948,3.934,0,0,12.276,62.51,3466.70999873,14.435696,14,Waypoint,
6300,2021-04-13 12:43:08,40.1849433029852,33.3283168081431,15.748032,,,3468.02233473,16.076116,0.223694,1.00678808996,9,4,15.769,3468.02233473,15.748032,0.31540854,1.00678808996,0.223694,0,-7.381902,240.2, -2.5, -0.9,0,0,1024,1024,1024,1024,240.3,0,99,3.941,3.958,3.948,3.934,0,0,12.276,62.51,3468.02233473,15.748032,14,Waypoint,
6400,2021-04-13 12:43:08,40.1849435004506,33.3283169953431,16.732284,,,3469.00658673,17.388452,0,1.03771000696,9,4,15.769,3469.00658673,16.732284,0.31540854,1.03771000696,0,0,-7.158208,240.3, -2.4, -0.8,0,0,1024,1024,1024,1024,240.3,0,99,3.941,3.958,3.948,3.934,0,0,12.276,62.51,3469.00658673,16.732284,14,Waypoint,
6500,2021-04-13 12:43:08,40.1849437001263,33.3283171913417,17.716536,,,3469.99083873,18.372704,0,1.07741801348,9,4,15.769,3469.99083873,17.716536,0.31540854,1.07741801348,0,0,-7.158208,240.3, -2.4, -0.8,0,0,1024,1024,1024,1024,240.3,0,99,3.941,3.958,3.948,3.934,0,0,12.276,62.51,3469.99083873,17.716536,14,Waypoint,
6600,2021-04-13 12:43:08,40.1849437289636,33.3283174529676,19.028872,,,3471.30317473,19.356956,0.223694,1.14807418372,9,4,15.769,3471.30317473,19.028872,0.31540854,1.14807418372,0.223694,0,-6.934514,240.2, -3.2, -1,0,0,1024,1024,1024,1024,240.3,0,99,3.941,3.958,3.948,3.934,0,0,12.276,62.51,3471.30317473,19.028872,14,Waypoint,
6700,2021-04-13 12:43:08,40.1849437564365,33.3283177200666,20.013124,,,3472.28742673,20.341208,0.223694,1.22065948788,9,4,15.769,3472.28742673,20.013124,0.31540854,1.22065948788,0.223694,0,-6.934514,240, -3.9, -1.4,0,0,1024,1024,1024,1024,240.3,0,99,3.941,3.958,3.948,3.934,0,0,12.276,62.51,3472.28742673,20.013124,14,Waypoint,
6800,2021-04-13 12:43:08,40.1849441773086,33.3283182771926,21.32546,,,3473.59976273,21.32546,0.31540854,1.36739505688,9,4,15.769,3473.59976273,21.32546,0.31540854,1.36739505688,0.223694,0.223694,-6.934514,240.1, -4.2, -1.7,0,0,1024,1024,1024,1024,240.3,0,99,3.941,3.958,3.948,3.934,0,0,12.276,62.51,3473.59976273,21.32546,14,Waypoint,
6900,2021-04-13 12:43:08,40.1849443945091,33.3283186130883,22.309712,,,3474.58401473,22.637796,0.31540854,1.46365490248,9,4,15.222,3474.58401473,22.309712,0.31540854,1.46365490248,0.223694,0.223694,-6.934514,240.2, -5, -1.1,0,0,1024,1024,1024,1024,240.3,0,99,3.881,3.897,3.881,3.855,0,0,13.454,62.51,3474.58401473,22.309712,14,Waypoint,
7000,2021-04-13 12:43:08,40.1849445385962,33.3283190099686,23.293964,,,3475.56826673,23.622048,0.31540854,1.57791343632,9,4,15.222,3475.56826673,23.293964,0.31540854,1.57791343632,0.223694,0.223694,-6.71082,240.2, -5.5, -1.1,0,0,1024,1024,1024,1024,240.3,0,99,3.881,3.897,3.881,3.855,0,0,13.454,62.51,3475.56826673,23.293964,14,Waypoint,
7100,2021-04-13 12:43:09,40.1849446654148,33.3283193702233,24.278216,,,3476.55251873,24.6063,0.31540854,1.68246724544,9,4,15.222,3476.55251873,24.278216,0.31540854,1.68246724544,0.223694,0.223694,-6.71082,240.2, -5.9, -0.8,0,0,1024,1024,1024,1024,240.2,0,99,3.881,3.897,3.881,3.855,0,0,13.454,62.51,3476.55251873,24.278216,14,Waypoint,
7200,2021-04-13 12:43:09,40.184944820375,33.32831975476,25.590552,,,3477.86485473,25.590552,0.31540854,1.79582026744,9,4,15.222,3477.86485473,25.590552,0.31540854,1.79582026744,0.223694,0.223694,-6.71082,240.2, -6.3, -0.8,0,0,1024,1024,1024,1024,240.3,0,99,3.881,3.897,3.881,3.855,0,0,13.454,62.51,3477.86485473,25.590552,14,Waypoint,
7300,2021-04-13 12:43:09,40.1849449154489,33.3283199500812,26.574804,,,3478.84910673,26.574804,0.223694,1.85466213284,9,4,15.222,3478.84910673,26.574804,0.31540854,1.85466213284,0.223694,0,-6.487126,240.2, -6.4, -1.3,0,0,1024,1024,1024,1024,240.2,0,99,3.881,3.897,3.881,3.855,0,0,13.454,62.51,3478.84910673,26.574804,14,Waypoint,
7400,2021-04-13 12:43:09,40.1849449416071,33.3283201451358,27.559056,,,3479.83335873,27.559056,0,1.90984914248,9,4,15.222,3479.83335873,27.559056,0.31540854,1.90984914248,0,0,-6.487126,240.2, -6, -1.4,0,0,1024,1024,1024,1024,240.3,0,99,3.881,3.897,3.881,3.855,0,0,13.454,62.51,3479.83335873,27.559056,14,Waypoint,
7500,2021-04-13 12:43:09,40.1849449421477,33.3283202970287,28.215224,,,3480.48952673,28.543308,0,1.95174218844,9,4,15.222,3480.48952673,28.215224,0.31540854,1.95174218844,0,0,-6.263432,240.2, -5.7, -0.8,0,0,1024,1024,1024,1024,240.3,0,99,3.881,3.897,3.881,3.855,0,0,13.454,62.51,3480.48952673,28.215224,14,Waypoint,
7600,2021-04-13 12:43:09,40.1849446848781,33.3283201439859,29.52756,,,3481.80186273,29.52756,0.223694,1.89766738356,9,4,15.222,3481.80186273,29.52756,0.31540854,1.95174218844,0.223694,0,-6.263432,240.1, -5.4, -0.7,0,0,1024,1024,1024,1024,240.3,0,99,3.881,3.897,3.881,3.855,0,0,13.454,62.51,3481.80186273,29.52756,14,Waypoint,
7700,2021-04-13 12:43:09,40.1849446183307,33.3283201059779,30.183728,,,3482.45803073,30.511812,0.223694,1.88478680572,9,4,15.222,3482.45803073,30.183728,0.31540854,1.95174218844,0.223694,0,-6.263432,240.1, -5.3, -0.9,0,0,1024,1024,1024,1024,240.3,0,99,3.881,3.897,3.881,3.855,0,0,13.454,62.51,3482.45803073,30.183728,14,Waypoint,
7800,2021-04-13 12:43:09,40.1849446612881,33.3283201136623,31.16798,,,3483.44228273,31.16798,0,1.88839572972,9,4,15.222,3483.44228273,31.16798,0.31540854,1.95174218844,0,0,-6.263432,240, -5.1, -0.9,0,0,1024,1024,1024,1024,240.2,0,99,3.881,3.897,3.881,3.855,0,0,13.454,62.51,3483.44228273,31.16798,14,Waypoint,
7900,2021-04-13 12:43:09,40.1849446971704,33.3283200931587,32.152232,,,3484.42653473,32.152232,0,1.88404533588,9,4,15.419,3484.42653473,32.152232,0.31540854,1.95174218844,0,0,-6.263432,240, -4.7, -0.9,0,0,1024,1024,1024,1024,240.3,0,99,3.876,3.898,3.889,3.881,0,0,14.656,62.51,3484.42653473,32.152232,14,Waypoint,
8000,2021-04-13 12:43:09,40.1849445494005,33.3283199630476,33.136484,,,3485.41078673,33.136484,0,1.84296593824,9,4,15.419,3485.41078673,33.136484,0.31540854,1.95174218844,0,0,-6.263432,239.9, -4.5, -1,0,0,1024,1024,1024,1024,240.2,0,99,3.876,3.898,3.889,3.881,0,0,14.656,62.51,3485.41078673,33.136484,14,Waypoint,
8100,2021-04-13 12:43:10,40.1849444498684,33.3283198703439,34.120736,,,3486.39503873,34.120736,0,1.81467525492,9,4,15.419,3486.39503873,34.120736,0.31540854,1.95174218844,0,0,-6.263432,240.1, -4.3, -1,0,0,1024,1024,1024,1024,240.2,0,99,3.876,3.898,3.889,3.881,0,0,14.656,62.51,3486.39503873,34.120736,14,Waypoint,
8200,2021-04-13 12:43:10,40.1849444451105,33.3283197700746,35.104988,,,3487.37929073,35.104988,0.223694,1.78667328552,9,4,15.419,3487.37929073,35.104988,0.31540854,1.95174218844,0,-0.223694,-6.263432,240.1, -4, -0.8,0,0,1024,1024,1024,1024,240.2,0,99,3.876,3.898,3.889,3.881,0,0,14.656,62.51,3487.37929073,35.104988,14,Waypoint,
8300,2021-04-13 12:43:10,40.1849444515952,33.3283196569409,36.08924,,,3488.36354273,36.08924,0.223694,1.75534126352,9,4,15.419,3488.36354273,36.08924,0.31540854,1.95174218844,0,-0.223694,-6.263432,240.1, -4.2, -1.6,0,0,1024,1024,1024,1024,240.2,0,99,3.876,3.898,3.889,3.881,0,0,14.656,62.51,3488.36354273,36.08924,14,Waypoint,
8400,2021-04-13 12:43:10,40.1849444718905,33.3283194884756,37.073492,,,3489.34779473,37.073492,0.31540854,1.70896659012,9,4,15.419,3489.34779473,37.073492,0.31540854,1.95174218844,0.223694,-0.223694,-6.263432,240.1, -4.1, -1.7,0,0,1024,1024,1024,1024,240.3,0,99,3.876,3.898,3.889,3.881,0,0,14.656,62.51,3489.34779473,37.073492,14,Waypoint,
8500,2021-04-13 12:43:10,40.1849446088562,33.3283192274524,37.72966,,,3490.00396273,38.057744,0.223694,1.64070543308,9,4,15.419,3490.00396273,37.72966,0.31540854,1.95174218844,0,-0.223694,-6.263432,240, -3.9, -2.6,0,0,1024,1024,1024,1024,240.2,0,99,3.876,3.898,3.889,3.881,0,0,14.656,62.51,3490.00396273,37.72966,14,Waypoint,
8600,2021-04-13 12:43:10,40.1849446286355,33.3283190286515,38.713912,,,3490.98821473,38.713912,0.223694,1.58636159932,9,4,15.419,3490.98821473,38.713912,0.31540854,1.95174218844,0,-0.223694,-6.263432,240, -3.7, -2.9,0,0,1024,1024,1024,1024,240.2,0,99,3.876,3.898,3.889,3.881,0,0,14.656,62.51,3490.98821473,38.713912,14,Waypoint,
8700,2021-04-13 12:43:10,40.1849446365512,33.328318846995,39.698164,,,3491.97246673,39.698164,0.223694,1.53637144024,10,4,15.419,3491.97246673,39.698164,0.31540854,1.95174218844,0,-0.223694,-6.263432,239.9, -3.4, -2.3,0,0,1024,1024,1024,1024,240.2,0,99,3.876,3.898,3.889,3.881,0,0,14.656,62.51,3491.97246673,39.698164,14,Waypoint,
8800,2021-04-13 12:43:10,40.1849446280979,33.328318759171,40.682416,,,3492.95671873,39.698164,0.223694,1.51169952344,10,4,15.419,3492.95671873,40.682416,0.31540854,1.95174218844,0,-0.223694,-6.263432,239.9, -3.6, -2.3,0,0,1024,1024,1024,1024,240.2,0,99,3.876,3.898,3.889,3.881,0,0,14.656,62.51,3492.95671873,40.682416,14,Waypoint,
8900,2021-04-13 12:43:10,40.1849446748516,33.3283187268732,41.666668,,,3493.94097073,39.698164,0,1.5048228828,10,4,15.576,3493.94097073,41.666668,0.31540854,1.95174218844,0,0,-6.263432,239.9, -3.9, -2.3,0,0,1024,1024,1024,1024,240.2,0,99,3.89,3.909,3.898,3.886,0,0,12.88,62.51,3493.94097073,41.666668,14,Waypoint,
9000,2021-04-13 12:43:10,40.1849446775707,33.3283186429782,42.65092,,,3494.92522273,39.698164,0,1.4817585776,10,4,15.576,3494.92522273,42.65092,0.31540854,1.95174218844,0,0,-6.263432,240, -3.9, -2,0,0,1024,1024,1024,1024,240.2,0,99,3.89,3.909,3.898,3.886,0,0,12.88,62.51,3494.92522273,42.65092,14,Waypoint,
9100,2021-04-13 12:43:11,40.1849446768481,33.3283185626779,43.635172,,,3495.90947473,39.698164,0,1.4595308866,10,4,15.576,3495.90947473,43.635172,0.31540854,1.95174218844,0,0,-6.487126,240, -4, -1.5,0,0,1024,1024,1024,1024,240.2,0,99,3.89,3.909,3.898,3.886,0,0,12.88,62.51,3495.90947473,43.635172,14,Waypoint,
9200,2021-04-13 12:43:11,40.1849446515913,33.3283185178054,44.29134,,,3496.56564273,39.698164,0,1.44594492816,10,4,15.576,3496.56564273,44.29134,0.31540854,1.95174218844,0,0,-6.487126,240.1, -4.1, -1.6,0,0,1024,1024,1024,1024,240.2,0,99,3.89,3.909,3.898,3.886,0,0,12.88,62.51,3496.56564273,44.29134,14,Waypoint,
9300,2021-04-13 12:43:11,40.1849447011768,33.3283185750754,45.275592,,,3497.54989473,39.698164,0,1.46414374764,10,4,15.576,3497.54989473,45.275592,0.31540854,1.95174218844,0,0,-6.487126,240, -4.3, -1.9,0,0,1024,1024,1024,1024,240.2,0,99,3.89,3.909,3.898,3.886,0,0,12.88,62.51,3497.54989473,45.275592,14,Waypoint,
9400,2021-04-13 12:43:11,40.1849447272596,33.3283185184809,46.259844,,,3498.53414673,39.698164,0.223694,1.44986553196,10,4,15.576,3498.53414673,46.259844,0.31540854,1.95174218844,0,-0.223694,-6.487126,240, -4.1, -1.7,0,0,1024,1024,1024,1024,240.2,0,99,3.89,3.909,3.898,3.886,0,0,12.88,62.51,3498.53414673,46.259844,14,Waypoint,
9500,2021-04-13 12:43:11,40.1849447555801,33.3283184581024,47.244096,,,3499.51839873,39.698164,0.223694,1.43476382544,10,4,15.576,3499.51839873,47.244096,0.31540854,1.95174218844,0,-0.223694,-6.487126,240.1, -4, -1.8,0,0,1024,1024,1024,1024,240.2,0,99,3.89,3.909,3.898,3.886,0,0,12.88,62.51,3499.51839873,47.244096,14,Waypoint,
9600,2021-04-13 12:43:11,40.1849446659568,33.3283183526494,48.228348,,,3500.50265073,39.698164,0.223694,1.40098101596,10,4,15.576,3500.50265073,48.228348,0.31540854,1.95174218844,0,-0.223694,-6.487126,240.1, -4.1, -2,0,0,1024,1024,1024,1024,240.2,0,99,3.89,3.909,3.898,3.886,0,0,12.88,62.51,3500.50265073,48.228348,14,Waypoint,
9700,2021-04-13 12:43:11,40.1849445035081,33.3283181994731,48.884516,,,3501.15881873,39.698164,0.223694,1.35178153932,10,4,15.576,3501.15881873,48.884516,0.31540854,1.95174218844,0,-0.223694,-6.487126,240.1, -3.8, -1.9,0,0,1024,1024,1024,1024,240.2,0,99,3.89,3.909,3.898,3.886,0,0,12.88,62.51,3501.15881873,48.884516,14,Waypoint,
9800,2021-04-13 12:43:11,40.18494447436,33.3283181352596,49.868768,,,3502.14307073,39.698164,0,1.33298560696,10,4,15.576,3502.14307073,49.868768,0.31540854,1.95174218844,0,0,-6.487126,240.1, -3.7, -1.8,0,0,1024,1024,1024,1024,240.2,0,99,3.89,3.909,3.898,3.886,0,0,12.88,62.51,3502.14307073,49.868768,14,Waypoint,
9900,2021-04-13 12:43:11,40.1849444486051,33.3283180769318,50.85302,,,3503.12732273,39.698164,0,1.31598757492,10,4,15.5,3503.12732273,50.85302,0.31540854,1.95174218844,0,0,-6.487126,240.1, -3.6, -1.8,0,0,1024,1024,1024,1024,240.2,0,99,3.89,3.909,3.898,3.886,0,0,12.88,62.51,3503.12732273,50.85302,14,Waypoint,
10000,2021-04-13 12:43:11,40.1849444583101,33.3283179898559,51.837272,,,3504.11157473,39.698164,0,1.29210305972,10,4,15.5,3504.11157473,51.837272,0.31540854,1.95174218844,0,0,-6.71082,240.1, -3.7, -1.9,0,0,1024,1024,1024,1024,240.2,0,99,3.89,3.909,3.898,3.886,0,0,12.88,62.51,3504.11157473,51.837272,14,Waypoint,
10100,2021-04-13 12:43:12,40.1849444727753,33.3283179106862,52.821524,,,3505.09582673,39.698164,0,1.27059387268,10,4,15.5,3505.09582673,52.821524,0.31540854,1.95174218844,0,0,-6.71082,240.1, -3.9, -2.1,0,0,1024,1024,1024,1024,240.2,0,99,3.89,3.909,3.898,3.886,0,0,12.88,62.51,3505.09582673,52.821524,14,Waypoint,
10200,2021-04-13 12:43:12,40.1849445090068,33.328317799567,53.477692,,,3505.75199473,39.698164,0,1.24106959352,10,4,15.5,3505.75199473,53.477692,0.31540854,1.95174218844,0,0,-6.487126,240.1, -3.8, -2.3,0,0,1024,1024,1024,1024,240.2,0,99,3.89,3.909,3.898,3.886,0,0,12.88,62.51,3505.75199473,53.477692,14,Waypoint,
10300,2021-04-13 12:43:12,40.1849444737274,33.3283177195381,54.790028,,,3507.06433073,39.698164,0,1.21758205996,10,4,15.5,3507.06433073,54.790028,0.31540854,1.95174218844,0,0,-6.71082,240.1, -3.7, -2.1,0,0,1024,1024,1024,1024,240.2,0,99,3.89,3.909,3.898,3.886,0,0,12.88,62.51,3507.06433073,54.790028,14,Waypoint,
10400,2021-04-13 12:43:12,40.1849444204793,33.3283176402572,55.446196,,,3507.72049873,39.698164,0,1.19384190172,10,4,15.5,3507.72049873,55.446196,0.31540854,1.95174218844,0,0,-6.71082,240.1, -3.7, -1.9,0,0,1024,1024,1024,1024,240.2,0,99,3.89,3.909,3.898,3.886,0,0,12.88,62.51,3507.72049873,55.446196,14,Waypoint,
10500,2021-04-13 12:43:12,40.1849443772103,33.3283175697616,56.430448,,,3508.70475073,39.698164,0,1.17305121864,10,4,15.5,3508.70475073,56.430448,0.31540854,1.95174218844,0,0,-6.71082,240.1, -3.7, -2.1,0,0,1024,1024,1024,1024,240.2,0,99,3.89,3.909,3.898,3.886,0,0,12.88,62.51,3508.70475073,56.430448,14,Waypoint,
10600,2021-04-13 12:43:12,40.1849443982616,33.3283175719609,57.4147,,,3509.68900273,39.698164,0,1.17422247852,10,4,15.5,3509.68900273,57.4147,0.31540854,1.95174218844,0,0,-6.71082,240.1, -3.8, -2.3,0,0,1024,1024,1024,1024,240.2,0,99,3.89,3.909,3.898,3.886,0,0,12.88,62.51,3509.68900273,57.4147,14,Waypoint,
10700,2021-04-13 12:43:12,40.184944409863,33.3283175563143,58.070868,,,3510.34517073,39.698164,0,1.17020673036,10,4,15.5,3510.34517073,58.070868,0.31540854,1.95174218844,0,0,-6.71082,240, -3.9, -2.3,0,0,1024,1024,1024,1024,240.2,0,99,3.89,3.909,3.898,3.886,0,0,12.88,62.51,3510.34517073,58.070868,14,Waypoint,
10800,2021-04-13 12:43:12,40.1849443834328,33.3283175050586,59.383204,,,3511.65750673,39.698164,0,1.15522313408,10,4,15.5,3511.65750673,59.383204,0.31540854,1.95174218844,0,0,-6.934514,240, -4.2, -2.2,0,0,1024,1024,1024,1024,240.2,0,99,3.89,3.909,3.898,3.886,0,0,12.88,62.51,3511.65750673,59.383204,14,Waypoint,
10900,2021-04-13 12:43:12,40.1849443530578,33.328317455086,60.367456,,,3512.64175873,39.698164,0,1.1405676218,10,4,15.389,3512.64175873,60.367456,0.31540854,1.95174218844,0,0,-6.934514,240.1, -4.2, -2.1,0,0,1024,1024,1024,1024,240.2,0,99,3.872,3.893,3.883,3.867,0,0,13.872,62.51,3512.64175873,60.367456,14,Waypoint,
11000,2021-04-13 12:43:12,40.1849443406367,33.3283173981633,61.351708,,,3513.62601073,39.698164,0,1.12444885488,10,4,15.389,3513.62601073,61.351708,0.31540854,1.95174218844,0,0,-6.934514,240.1, -4.2, -2.3,0,0,1024,1024,1024,1024,240.2,0,99,3.872,3.893,3.883,3.867,0,0,13.872,62.51,3513.62601073,61.351708,14,Waypoint,
11100,2021-04-13 12:43:13,40.1849443323743,33.3283173754454,62.33596,,,3514.61026273,39.698164,0,1.11794623,10,4,15.389,3514.61026273,62.33596,0.31540854,1.95174218844,0,0,-6.934514,240.1, -4.1, -2.1,0,0,1024,1024,1024,1024,240.2,0,99,3.872,3.893,3.883,3.867,0,0,13.872,62.51,3514.61026273,62.33596,14,Waypoint,
11200,2021-04-13 12:43:13,40.1849442712137,33.328317356554,62.992128,,,3515.26643073,39.698164,0,1.1115978046,10,4,15.389,3515.26643073,62.992128,0.31540854,1.95174218844,0,0,-6.71082,240.1, -3.9, -2.2,0,0,1024,1024,1024,1024,240.2,0,99,3.872,3.893,3.883,3.867,0,0,13.872,62.51,3515.26643073,62.992128,14,Waypoint,
11300,2021-04-13 12:43:13,40.1849441987198,33.3283173440105,63.97638,,,3516.25068273,39.698164,0,1.10738520604,10,4,15.389,3516.25068273,63.97638,0.31540854,1.95174218844,0,0,-6.71082,240, -4, -1.8,0,0,1024,1024,1024,1024,240.2,0,99,3.872,3.893,3.883,3.867,0,0,13.872,62.51,3516.25068273,63.97638,14,Waypoint,
11400,2021-04-13 12:43:13,40.1849441349237,33.3283173128249,64.632548,,,3516.90685073,39.698164,0,1.09858271232,10,4,15.389,3516.90685073,64.632548,0.31540854,1.95174218844,0,0,-6.71082,240, -4.2, -1.5,0,0,1024,1024,1024,1024,240.2,0,99,3.872,3.893,3.883,3.867,0,0,13.872,62.51,3516.90685073,64.632548,14,Waypoint,
11500,2021-04-13 12:43:13,40.1849440930912,33.3283172872501,65.288716,,,3517.56301873,39.698164,0,1.0916502974,10,4,15.389,3517.56301873,65.288716,0.31540854,1.95174218844,0,0,-6.71082,240, -4, -1.6,0,0,1024,1024,1024,1024,240.2,0,99,3.872,3.893,3.883,3.867,0,0,13.872,62.51,3517.56301873,65.288716,14,Waypoint,
11600,2021-04-13 12:43:13,40.1849440222413,33.3283172977129,66.272968,,,3518.54727073,39.698164,0,1.09538389332,10,4,15.389,3518.54727073,66.272968,0.31540854,1.95174218844,0,0,-6.934514,240.1, -3.4, -1.4,0,0,1024,1024,1024,1024,240.2,0,99,3.872,3.893,3.883,3.867,0,0,13.872,62.51,3518.54727073,66.272968,14,Waypoint,
11700,2021-04-13 12:43:13,40.1849439500269,33.3283173156958,67.25722,,,3519.53152273,39.698164,0,1.10184386728,10,4,15.389,3519.53152273,67.25722,0.31540854,1.95174218844,0,0,-7.158208,240.1, -3.5, -1.2,0,0,1024,1024,1024,1024,240.2,0,99,3.872,3.893,3.883,3.867,0,0,13.872,62.51,3519.53152273,67.25722,14,Waypoint,
11800,2021-04-13 12:43:13,40.1849438894636,33.3283172908746,68.241472,,,3520.51577473,39.698164,0,1.0966535784,10,4,15.389,3520.51577473,68.241472,0.31540854,1.95174218844,0,0,-7.158208,240.1, -3.5, -1.4,0,0,1024,1024,1024,1024,240.2,0,99,3.872,3.893,3.883,3.867,0,0,13.872,62.51,3520.51577473,68.241472,14,Waypoint,
11900,2021-04-13 12:43:13,40.1849437941129,33.3283172648904,69.225724,,,3521.50002673,39.698164,0,1.09305121608,10,4,15.468,3521.50002673,69.225724,0.31540854,1.95174218844,0,0,-7.158208,240.1, -3.7, -1.7,0,0,1024,1024,1024,1024,240.2,0,99,3.866,3.887,3.874,3.857,0,0,14,62.51,3521.50002673,69.225724,14,Waypoint,
12000,2021-04-13 12:43:13,40.1849438111452,33.3283172287683,70.209976,,,3522.48427873,39.698164,0,1.08232286928,10,4,15.468,3522.48427873,70.209976,0.31540854,1.95174218844,0,0,-7.158208,240.1, -3.8, -1.5,0,0,1024,1024,1024,1024,240.2,0,99,3.866,3.887,3.874,3.857,0,0,14,62.51,3522.48427873,70.209976,14,Waypoint,
12100,2021-04-13 12:43:14,40.1849438324966,33.328317197691,71.194228,,,3523.46853073,39.698164,0,1.07284452252,10,4,15.468,3523.46853073,71.194228,0.31540854,1.95174218844,0,0,-7.381902,240.2, -3.9, -1.5,0,0,1024,1024,1024,1024,240.2,0,99,3.866,3.887,3.874,3.857,0,0,14,62.51,3523.46853073,71.194228,14,Waypoint,
12200,2021-04-13 12:43:14,40.1849438242094,33.3283172156016,72.17848,,,3524.45278273,39.698164,0,1.07813979828,10,4,15.468,3524.45278273,72.17848,0.31540854,1.95174218844,0,0,-7.158208,240.2, -4.1, -1.1,0,0,1024,1024,1024,1024,240.2,0,99,3.866,3.887,3.874,3.857,0,0,14,62.51,3524.45278273,72.17848,14,Waypoint,
12300,2021-04-13 12:43:14,40.184943883453,33.3283171668218,73.162732,,,3525.43703473,39.698164,0,1.06241145132,10,4,15.468,3525.43703473,73.162732,0.31540854,1.95174218844,0,0,-7.158208,240.2, -4.1, -1.2,0,0,1024,1024,1024,1024,240.2,0,99,3.866,3.887,3.874,3.857,0,0,14,62.51,3525.43703473,73.162732,14,Waypoint,
12400,2021-04-13 12:43:14,40.1849438658174,33.3283171727635,74.146984,,,3526.42128673,39.698164,0,1.06467523092,10,4,15.468,3526.42128673,74.146984,0.31540854,1.95174218844,0,0,-7.158208,240.1, -4.1, -1.6,0,0,1024,1024,1024,1024,240.2,0,99,3.866,3.887,3.874,3.857,0,0,14,62.51,3526.42128673,74.146984,14,Waypoint,
12500,2021-04-13 12:43:14,40.184943850197,33.3283171715128,75.131236,,,3527.40553873,39.698164,0,1.06490160888,10,4,15.468,3527.40553873,75.131236,0.31540854,1.95174218844,0,0,-7.158208,240.1, -3.8, -1.9,0,0,1024,1024,1024,1024,240.2,0,99,3.866,3.887,3.874,3.857,0,0,14,62.51,3527.40553873,75.131236,14,Waypoint,
12600,2021-04-13 12:43:14,40.1849438204262,33.3283171566452,75.787404,,,3528.06170673,39.698164,0,1.06196525708,10,4,15.468,3528.06170673,75.787404,0.31540854,1.95174218844,0,0,-7.158208,240, -3.5, -1.9,0,0,1024,1024,1024,1024,240.2,0,99,3.866,3.887,3.874,3.857,0,0,14,62.51,3528.06170673,75.787404,14,Waypoint,
12700,2021-04-13 12:43:14,40.1849437236414,33.3283171838357,76.771656,,,3529.04595873,39.698164,0,1.07406827584,10,4,15.468,3529.04595873,76.771656,0.31540854,1.95174218844,0,0,-7.381902,239.9, -3.6, -1.8,0,0,1024,1024,1024,1024,240.2,0,99,3.866,3.887,3.874,3.857,0,0,14,62.51,3529.04595873,76.771656,14,Waypoint,
12800,2021-04-13 12:43:14,40.1849437393195,33.328317171191,77.427824,,,3529.70212673,39.698164,0,1.06976053292,10,4,15.468,3529.70212673,77.427824,0.31540854,1.95174218844,0,0,-7.158208,240, -3.7, -2,0,0,1024,1024,1024,1024,240.2,0,99,3.866,3.887,3.874,3.857,0,0,14,62.51,3529.70212673,77.427824,14,Waypoint,
12900,2021-04-13 12:43:14,40.1849437587928,33.32831716106,78.74016,,,3531.01446273,39.698164,0,1.06598428608,10,4,15.393,3531.01446273,78.74016,0.31540854,1.95174218844,0,0,-7.381902,240, -3.9, -2.1,0,0,1024,1024,1024,1024,240.2,0,99,3.838,3.86,3.854,3.839,0,0,14.924,62.51,3531.01446273,78.74016,14,Waypoint,
13000,2021-04-13 12:43:14,40.1849437757964,33.3283171191778,79.396328,,,3531.67063073,39.698164,0,1.0535925534,10,4,15.393,3531.67063073,79.396328,0.31540854,1.95174218844,0,0,-7.381902,240, -3.8, -2.2,0,0,1024,1024,1024,1024,240.2,0,99,3.838,3.86,3.854,3.839,0,0,14.924,62.51,3531.67063073,79.396328,14,Waypoint,
13100,2021-04-13 12:43:15,40.1849438445522,33.3283170149714,80.38058,,,3532.65488273,39.698164,0,1.02173887784,10,4,15.393,3532.65488273,80.38058,0.31540854,1.95174218844,0,0,-7.381902,240.1, -4, -1.8,0,0,1024,1024,1024,1024,240.2,0,99,3.838,3.86,3.854,3.839,0,0,14.924,62.51,3532.65488273,80.38058,14,Waypoint,
13200,2021-04-13 12:43:15,40.1849438496854,33.3283170316415,81.036748,,,3533.31105073,39.698164,0,1.02615488848,10,4,15.393,3533.31105073,81.036748,0.31540854,1.95174218844,0,0,-7.158208,240.1, -4.2, -1.5,0,0,1024,1024,1024,1024,240.2,0,99,3.838,3.86,3.854,3.839,0,0,14.924,62.51,3533.31105073,81.036748,14,Waypoint,
13300,2021-04-13 12:43:15,40.1849438649586,33.3283170348374,82.349084,,,3534.62338673,39.698164,0,1.02645344492,10,4,15.393,3534.62338673,82.349084,0.31540854,1.95174218844,0,0,-7.381902,240.1, -4, -1.7,0,0,1024,1024,1024,1024,240.2,0,99,3.838,3.86,3.854,3.839,0,0,14.924,62.51,3534.62338673,82.349084,14,Waypoint,
13400,2021-04-13 12:43:15,40.184943785289,33.3283170420077,83.66142,,,3535.93572273,39.698164,0,1.03181433748,10,4,15.393,3535.93572273,83.66142,0.31540854,1.95174218844,0,0,-7.381902,240.1, -3.9, -2.2,0,0,1024,1024,1024,1024,240.2,0,99,3.838,3.86,3.854,3.839,0,0,14.924,62.51,3535.93572273,83.66142,14,Waypoint,
13500,2021-04-13 12:43:15,40.184943710714,33.3283170508347,84.645672,,,3536.91997473,39.698164,0,1.03812667364,10,4,15.393,3536.91997473,84.645672,0.31540854,1.95174218844,0,0,-7.381902,240.1, -4, -2.3,0,0,1024,1024,1024,1024,240.2,0,99,3.838,3.86,3.854,3.839,0,0,14.924,62.51,3536.91997473,84.645672,14,Waypoint,
13600,2021-04-13 12:43:15,40.1849436190206,33.3283171556236,85.629924,,,3537.90422673,39.698164,0,1.0725558086,10,4,15.393,3537.90422673,85.629924,0.31540854,1.95174218844,0,0,-7.381902,240.1, -4, -2.1,0,0,1024,1024,1024,1024,240.2,0,99,3.838,3.86,3.854,3.839,0,0,14.924,62.51,3537.90422673,85.629924,14,Waypoint,
13700,2021-04-13 12:43:15,40.1849435286994,33.3283172699642,86.286092,,,3538.56039473,39.698164,0,1.11019688592,10,4,15.393,3538.56039473,86.286092,0.31540854,1.95174218844,0,0,-7.158208,240.1, -4, -2.1,0,0,1024,1024,1024,1024,240.2,0,99,3.838,3.86,3.854,3.839,0,0,14.924,62.51,3538.56039473,86.286092,14,Waypoint,
13800,2021-04-13 12:43:15,40.1849435305324,33.3283172681543,87.270344,,,3539.54464673,39.698164,0,1.1095636838,10,4,15.393,3539.54464673,87.270344,0.31540854,1.95174218844,0,0,-7.158208,240.1, -4.2, -2.1,0,0,1024,1024,1024,1024,240.2,0,99,3.838,3.86,3.854,3.839,0,0,14.924,62.51,3539.54464673,87.270344,14,Waypoint,
13900,2021-04-13 12:43:15,40.1849435416547,33.3283172595384,88.254596,,,3540.52889873,39.698164,0,1.10639111152,10,4,15.411,3540.52889873,88.254596,0.31540854,1.95174218844,0,0,-7.158208,240.1, -4.3, -2.3,0,0,1024,1024,1024,1024,240.2,0,98,3.838,3.86,3.854,3.839,0,0,14.558,62.51,3540.52889873,88.254596,14,Waypoint,
14000,2021-04-13 12:43:15,40.184943591505,33.3283172370956,88.910764,,,3541.18506673,39.698164,0,1.09672247604,10,4,15.411,3541.18506673,88.910764,0.31540854,1.95174218844,0,0,-7.158208,240.1, -4.3, -2.6,0,0,1024,1024,1024,1024,240.2,0,98,3.838,3.86,3.854,3.839,0,0,14.558,62.51,3541.18506673,88.910764,14,Waypoint,
14100,2021-04-13 12:43:16,40.1849436314169,33.328317213385,89.895016,,,3542.16931873,39.698164,0,1.08759189832,10,4,15.411,3542.16931873,89.895016,0.31540854,1.95174218844,0,0,-7.158208,240, -4.4, -2.7,0,0,1024,1024,1024,1024,240.2,0,98,3.838,3.86,3.854,3.839,0,0,14.558,62.51,3542.16931873,89.895016,14,Waypoint,
14200,2021-04-13 12:43:16,40.184943657926,33.3283171801503,90.879268,,,3543.15357073,39.698164,0,1.07681105808,10,4,15.411,3543.15357073,90.879268,0.31540854,1.95174218844,0,0,-7.381902,240, -4.3, -2.6,0,0,1024,1024,1024,1024,240.2,0,98,3.838,3.86,3.854,3.839,0,0,14.558,62.51,3543.15357073,90.879268,14,Waypoint,
14300,2021-04-13 12:43:16,40.1849436836513,33.3283171416549,91.86352,,,3544.13782273,39.698164,0,1.06468507344,10,4,15.411,3544.13782273,91.86352,0.31540854,1.95174218844,0,0,-7.381902,240, -4.2, -3,0,0,1024,1024,1024,1024,240.2,0,98,3.838,3.86,3.854,3.839,0,0,14.558,62.51,3544.13782273,91.86352,14,Waypoint,
14400,2021-04-13 12:43:16,40.1849437685482,33.3283170982272,93.175856,,,3545.45015873,39.698164,0,1.04815292068,10,4,15.411,3545.45015873,93.175856,0.31540854,1.95174218844,0,0,-7.381902,240.1, -4.1, -3.2,0,0,1024,1024,1024,1024,240.2,0,98,3.838,3.86,3.854,3.839,0,0,14.558,62.51,3545.45015873,93.175856,14,Waypoint,
14500,2021-04-13 12:43:16,40.1849438097676,33.3283170777733,94.160108,,,3546.43441073,39.698164,0,1.04058730364,10,4,15.411,3546.43441073,94.160108,0.31540854,1.95174218844,0,0,-7.381902,240.1, -4.1, -3,0,0,1024,1024,1024,1024,240.2,0,98,3.838,3.86,3.854,3.839,0,0,14.558,62.51,3546.43441073,94.160108,14,Waypoint,
14600,2021-04-13 12:43:16,40.1849437921865,33.3283170822891,94.816276,,,3547.09057873,39.698164,0,1.04262798612,10,4,15.411,3547.09057873,94.816276,0.31540854,1.95174218844,0,0,-7.158208,240.1, -4.2, -2.8,0,0,1024,1024,1024,1024,240.2,0,98,3.838,3.86,3.854,3.839,0,0,14.558,62.51,3547.09057873,94.816276,14,Waypoint,
14700,2021-04-13 12:43:16,40.1849437652064,33.3283170909638,95.800528,,,3548.07483073,39.698164,0,1.0463090886,10,4,15.411,3548.07483073,95.800528,0.31540854,1.95174218844,0,0,-7.158208,240.1, -4.2, -2.7,0,0,1024,1024,1024,1024,240.2,0,98,3.838,3.86,3.854,3.839,0,0,14.558,62.51,3548.07483073,95.800528,14,Waypoint,
14800,2021-04-13 12:43:16,40.1849438975057,33.3283170545143,96.456696,,,3548.73099873,39.698164,0,1.03077103036,10,4,15.411,3548.73099873,96.456696,0.31540854,1.95174218844,0,0,-7.158208,240.1, -4.1, -2.5,0,0,1024,1024,1024,1024,240.2,0,98,3.838,3.86,3.854,3.839,0,0,14.558,62.51,3548.73099873,96.456696,14,Waypoint,
14900,2021-04-13 12:43:16,40.1849439522367,33.3283170236901,97.769032,,,3550.04333473,39.698164,0,1.02059058384,10,4,15.406,3550.04333473,97.769032,0.31540854,1.95174218844,0,0,-7.158208,240.1, -4.3, -2.6,0,0,1024,1024,1024,1024,240.2,0,98,3.837,3.871,3.866,3.844,0,0,14.558,62.51,3550.04333473,97.769032,14,Waypoint,
15000,2021-04-13 12:43:16,40.184943983893,33.3283169775776,98.753284,,,3551.02758673,39.698164,0,1.00700134456,10,4,15.406,3551.02758673,98.753284,0.31540854,1.95174218844,0,0,-7.381902,240.1, -4.3, -2.7,0,0,1024,1024,1024,1024,240.2,0,98,3.837,3.871,3.866,3.844,0,0,14.558,62.51,3551.02758673,98.753284,14,Waypoint,
15100,2021-04-13 12:43:17,40.1849440107286,33.3283169321009,99.409452,,,3551.68375473,39.698164,0,0.99379268272,10,4,15.406,3551.68375473,99.409452,0.31540854,1.95174218844,0,0,-7.158208,240.1, -4, -2.3,0,0,1024,1024,1024,1024,240.2,0,98,3.837,3.871,3.866,3.844,0,0,14.558,62.51,3551.68375473,99.409452,14,Waypoint,
15200,2021-04-13 12:43:17,40.1849439370116,33.3283169239144,100.721788,,,3552.99609073,39.698164,0,0.99327759084,10,4,15.406,3552.99609073,100.721788,0.31540854,1.95174218844,0,0,-7.381902,240.1, -3.9, -2.3,0,0,1024,1024,1024,1024,240.2,0,98,3.837,3.871,3.866,3.844,0,0,14.558,62.51,3552.99609073,100.721788,14,Waypoint,
15300,2021-04-13 12:43:17,40.1849437640456,33.3283168680453,101.70604,,,3553.98034273,39.698164,0,0.98483927036,10,4,15.406,3553.98034273,101.70604,0.31540854,1.95174218844,0,0,-7.381902,240, -3.5, -2.4,0,0,1024,1024,1024,1024,240.2,0,98,3.837,3.871,3.866,3.844,0,0,14.558,62.51,3553.98034273,101.70604,14,Waypoint,
15400,2021-04-13 12:43:17,40.1849437208287,33.328316837466,102.690292,,,3554.96459473,39.698164,0,0.97881892896,10,4,15.406,3554.96459473,102.690292,0.31540854,1.95174218844,0,0,-7.381902,240, -3.7, -2.7,0,0,1024,1024,1024,1024,240.2,0,98,3.837,3.871,3.866,3.844,0,0,14.558,62.51,3554.96459473,102.690292,14,Waypoint,
15500,2021-04-13 12:43:17,40.1849436732276,33.328316821255,103.674544,,,3555.94884673,39.698164,0,0.97731630424,10,4,15.406,3555.94884673,103.674544,0.31540854,1.95174218844,0,0,-7.381902,240, -4, -2.3,0,0,1024,1024,1024,1024,240.2,0,98,3.837,3.871,3.866,3.844,0,0,14.558,62.51,3555.94884673,103.674544,14,Waypoint,
15600,2021-04-13 12:43:17,40.1849436032064,33.328316858712,104.658796,,,3556.93309873,39.698164,0,0.99243441496,10,4,15.406,3556.93309873,104.658796,0.31540854,1.95174218844,0,0,-7.381902,240.1, -4, -1.8,0,0,1024,1024,1024,1024,240.2,0,98,3.837,3.871,3.866,3.844,0,0,14.558,62.51,3556.93309873,104.658796,14,Waypoint,
15700,2021-04-13 12:43:17,40.1849434700261,33.3283169299519,105.643048,,,3557.91735073,39.698164,0,1.0226214238,10,4,15.406,3557.91735073,105.643048,0.31540854,1.95174218844,0,0,-7.158208,240.1, -4.1, -1.8,0,0,1024,1024,1024,1024,240.2,0,98,3.837,3.871,3.866,3.844,0,0,14.558,62.51,3557.91735073,105.643048,14,Waypoint,
15800,2021-04-13 12:43:17,40.1849434561638,33.3283169343551,106.6273,,,3558.90160273,39.698164,0,1.02505252624,10,4,15.406,3558.90160273,106.6273,0.31540854,1.95174218844,0,0,-7.381902,240.1, -4.6, -1.6,0,0,1024,1024,1024,1024,240.2,0,98,3.837,3.871,3.866,3.844,0,0,14.558,62.51,3558.90160273,106.6273,14,Waypoint,
15900,2021-04-13 12:43:17,40.1849434470423,33.3283169273343,107.611552,,,3559.88585473,39.698164,0,1.02398953408,10,4,15.345,3559.88585473,107.611552,0.31540854,1.95174218844,0,0,-7.158208,240.1, -4.3, -1.2,0,0,1024,1024,1024,1024,240.2,0,98,3.843,3.854,3.836,3.821,0,0,14.564,64.31,3559.88585473,107.611552,14,Waypoint,
16000,2021-04-13 12:43:17,40.1849434138774,33.3283169705241,108.595804,,,3560.87010673,39.698164,0,1.03872050568,10,4,15.345,3560.87010673,108.595804,0.31540854,1.95174218844,0,0,-7.381902,240.1, -4, -1.2,0,0,1024,1024,1024,1024,240.2,0,98,3.843,3.854,3.836,3.821,0,0,14.564,64.31,3560.87010673,108.595804,14,Waypoint,
16100,2021-04-13 12:43:18,40.1849434002436,33.3283170357247,109.90814,,,3562.18244273,39.698164,0,1.0575623698,10,4,15.345,3562.18244273,109.90814,0.31540854,1.95174218844,0,0,-7.381902,240.1, -4, -1.9,0,0,1024,1024,1024,1024,240.2,0,98,3.843,3.854,3.836,3.821,0,0,14.564,64.31,3562.18244273,109.90814,14,Waypoint,
16200,2021-04-13 12:43:18,40.1849433754257,33.3283170622685,111.220476,,,3563.49477873,39.698164,0,1.0670768058,10,4,15.345,3563.49477873,111.220476,0.31540854,1.95174218844,0,0,-7.381902,240.1, -4.1, -2.2,0,0,1024,1024,1024,1024,240.2,0,98,3.843,3.854,3.836,3.821,0,0,14.564,64.31,3563.49477873,111.220476,14,Waypoint,
16300,2021-04-13 12:43:18,40.1849433465329,33.3283170889568,111.876644,,,3564.15094673,39.698164,0,1.07708008696,10,4,15.345,3564.15094673,111.876644,0.31540854,1.95174218844,0,0,-7.158208,240.1, -4.2, -2.1,0,0,1024,1024,1024,1024,240.2,0,98,3.843,3.854,3.836,3.821,0,0,14.564,64.31,3564.15094673,111.876644,14,Waypoint,
16400,2021-04-13 12:43:18,40.1849433127058,33.3283170624912,112.532812,,,3564.80711473,39.698164,0,1.07344491624,10,4,15.345,3564.80711473,112.532812,0.31540854,1.95174218844,0,0,-7.158208,240.1, -4, -1.5,0,0,1024,1024,1024,1024,240.2,0,98,3.843,3.854,3.836,3.821,0,0,14.564,64.31,3564.80711473,112.532812,14,Waypoint,
16500,2021-04-13 12:43:18,40.1849432513731,33.3283170232222,113.845148,,,3566.11945073,39.698164,0,1.06962273764,10,4,15.345,3566.11945073,113.845148,0.31540854,1.95174218844,0,0,-7.158208,240.1, -3.8, -1.4,0,0,1024,1024,1024,1024,240.2,0,98,3.843,3.854,3.836,3.821,0,0,14.564,64.31,3566.11945073,113.845148,14,Waypoint,
16600,2021-04-13 12:43:18,40.1849432683069,33.3283169464235,115.157484,,,3567.43178673,39.698164,0,1.04735567656,10,4,15.345,3567.43178673,115.157484,0.31540854,1.95174218844,0,0,-7.381902,240.1, -3.9, -1.6,0,0,1024,1024,1024,1024,240.2,0,98,3.843,3.854,3.836,3.821,0,0,14.564,64.31,3567.43178673,115.157484,14,Waypoint,
16700,2021-04-13 12:43:18,40.1849432986788,33.3283168638877,116.141736,,,3568.41603873,39.698164,0,1.02206040016,10,4,15.345,3568.41603873,116.141736,0.31540854,1.95174218844,0,0,-7.158208,240.2, -3.8, -2.1,0,0,1024,1024,1024,1024,240.2,0,98,3.843,3.854,3.836,3.821,0,0,14.564,64.31,3568.41603873,116.141736,14,Waypoint,
16800,2021-04-13 12:43:18,40.1849432868583,33.3283168368208,117.125988,,,3569.40029073,39.698164,0,1.01621066244,10,4,15.345,3569.40029073,117.125988,0.31540854,1.95174218844,0,0,-6.934514,240.2, -3.9, -2.3,0,0,1024,1024,1024,1024,240.2,0,98,3.843,3.854,3.836,3.821,0,0,14.564,64.31,3569.40029073,117.125988,14,Waypoint,
16900,2021-04-13 12:43:18,40.1849432709488,33.3283168184448,118.11024,,,3570.38454273,39.698164,0,1.01316932376,10,4,15.287,3570.38454273,118.11024,0.31540854,1.95174218844,0,0,-7.158208,240.1, -3.9, -2.5,0,0,1024,1024,1024,1024,240.2,0,98,3.835,3.867,3.853,3.832,0,0,14.344,64.31,3570.38454273,118.11024,14,Waypoint,
17000,2021-04-13 12:43:18,40.1849433698097,33.3283167249052,119.422576,,,3571.69687873,39.698164,0,0.97733927012,10,4,15.287,3571.69687873,119.422576,0.31540854,1.95174218844,0,0,-7.158208,240.1, -3.8, -2.5,0,0,1024,1024,1024,1024,240.2,0,98,3.835,3.867,3.853,3.832,0,0,14.344,64.31,3571.69687873,119.422576,14,Waypoint,
17100,2021-04-13 12:43:19,40.1849434789079,33.3283166320144,120.078744,,,3572.35304673,39.698164,0,0.94144359968,10,4,15.287,3572.35304673,120.078744,0.31540854,1.95174218844,0,0,-6.934514,240.1, -3.9, -2.3,0,0,1024,1024,1024,1024,240.2,0,98,3.835,3.867,3.853,3.832,0,0,14.344,64.31,3572.35304673,120.078744,14,Waypoint,
17200,2021-04-13 12:43:19,40.184943454905,33.3283166559342,121.062996,,,3573.33729873,39.698164,0,0.95018703828,10,4,15.287,3573.33729873,121.062996,0.31540854,1.95174218844,0,0,-6.934514,240.1, -4.2, -1.9,0,0,1024,1024,1024,1024,240.2,0,98,3.835,3.867,3.853,3.832,0,0,14.344,64.31,3573.33729873,121.062996,14,Waypoint,
17300,2021-04-13 12:43:19,40.184943433217,33.32831668096,122.047248,,,3574.32155073,39.698164,0,0.95904530628,10,4,15.287,3574.32155073,122.047248,0.31540854,1.95174218844,0,0,-6.934514,240.1, -4.4, -2.1,0,0,1024,1024,1024,1024,240.2,0,98,3.835,3.867,3.853,3.832,0,0,14.344,64.31,3574.32155073,122.047248,14,Waypoint,
17400,2021-04-13 12:43:19,40.1849433592386,33.3283168290766,122.703416,,,3574.97771873,39.698164,0,1.00624675136,10,4,15.287,3574.97771873,122.703416,0.31540854,1.95174218844,0,0,-6.934514,240.1, -4.2, -2.3,0,0,1024,1024,1024,1024,240.2,0,98,3.835,3.867,3.853,3.832,0,0,14.344,64.31,3574.97771873,122.703416,14,Waypoint,
17500,2021-04-13 12:43:19,40.1849433481743,33.3283168692349,124.015752,,,3576.29005473,39.698164,0,1.01812995384,10,4,15.287,3576.29005473,124.015752,0.31540854,1.95174218844,0,0,-7.158208,240.1, -4.3, -2,0,0,1024,1024,1024,1024,240.2,0,98,3.835,3.867,3.853,3.832,0,0,14.344,64.31,3576.29005473,124.015752,14,Waypoint,
17600,2021-04-13 12:43:19,40.1849433451914,33.3283169071533,124.67192,,,3576.94622273,39.698164,0,1.02856630588,10,4,15.287,3576.94622273,124.67192,0.31540854,1.95174218844,0,0,-6.934514,240.1, -4.6, -2.1,0,0,1024,1024,1024,1024,240.2,0,98,3.835,3.867,3.853,3.832,0,0,14.344,64.31,3576.94622273,124.67192,14,Waypoint,
17700,2021-04-13 12:43:19,40.1849433434545,33.3283169443175,126.31234,,,3578.58664273,39.698164,0,1.03867457392,10,4,15.287,3578.58664273,126.31234,0.31540854,1.95174218844,0,0,-7.158208,240.2, -4.9, -2.3,0,0,1024,1024,1024,1024,240.2,0,98,3.835,3.867,3.853,3.832,0,0,14.344,64.31,3578.58664273,126.31234,14,Waypoint,
17800,2021-04-13 12:43:19,40.1849434392559,33.3283168158346,127.296592,,,3579.57089473,39.698164,0,0.99467850952,10,4,15.287,3579.57089473,127.296592,0.31540854,1.95174218844,0,0,-7.158208,240.2, -4.7, -2.5,0,0,1024,1024,1024,1024,240.2,0,98,3.835,3.867,3.853,3.832,0,0,14.344,64.31,3579.57089473,127.296592,14,Waypoint,
17900,2021-04-13 12:43:19,40.1849434736427,33.3283167845291,128.280844,,,3580.55514673,39.698164,0,0.98302496584,10,4,15.398,3580.55514673,128.280844,0.31540854,1.95174218844,0,0,-7.158208,240.2, -4.4, -2.2,0,0,1024,1024,1024,1024,240.2,0,98,3.835,3.846,3.833,3.809,0,0,14.372,64.31,3580.55514673,128.280844,14,Waypoint,
18000,2021-04-13 12:43:19,40.184943420461,33.3283167930971,129.59318,,,3581.86748273,39.698164,0,0.99039045164,10,4,15.398,3581.86748273,129.59318,0.31540854,1.95174218844,0,0,-6.934514,240.2, -4.7, -1.9,0,0,1024,1024,1024,1024,240.2,0,98,3.835,3.846,3.833,3.809,0,0,14.372,64.31,3581.86748273,129.59318,14,Waypoint,
18100,2021-04-13 12:43:20,40.1849433713386,33.3283168044768,130.577432,,,3582.85173473,39.698164,0,0.99841210544,10,4,15.398,3582.85173473,130.577432,0.31540854,1.95174218844,0,0,-6.934514,240.1, -4.9, -1.9,0,0,1024,1024,1024,1024,240.2,0,98,3.835,3.846,3.833,3.809,0,0,14.372,64.31,3582.85173473,130.577432,14,Waypoint,
18200,2021-04-13 12:43:20,40.1849432491497,33.3283167818038,131.561684,,,3583.83598673,39.698164,0,1.00606630516,10,4,15.398,3583.83598673,131.561684,0.31540854,1.95174218844,0,0,-6.71082,240.1, -4.9, -2.1,0,0,1024,1024,1024,1024,240.2,0,98,3.835,3.846,3.833,3.809,0,0,14.372,64.31,3583.83598673,131.561684,14,Waypoint,
18300,2021-04-13 12:43:20,40.184943226782,33.3283167884437,132.87402,,,3585.14832273,39.698164,0,1.0105151242,10,4,15.398,3585.14832273,132.87402,0.31540854,1.95174218844,0,0,-6.934514,240.1, -4.5, -1.8,0,0,1024,1024,1024,1024,240.2,0,98,3.835,3.846,3.833,3.809,0,0,14.372,64.31,3585.14832273,132.87402,14,Waypoint,
18400,2021-04-13 12:43:20,40.1849431712225,33.3283167946406,134.186356,,,3586.46065873,39.698164,0,1.01908467828,10,4,15.398,3586.46065873,134.186356,0.31540854,1.95174218844,0,0,-6.934514,240.1, -4.6, -1.8,0,0,1024,1024,1024,1024,240.2,0,98,3.835,3.846,3.833,3.809,0,0,14.372,64.31,3586.46065873,134.186356,14,Waypoint,
18500,2021-04-13 12:43:20,40.1849431176036,33.3283168046775,135.170608,,,3587.44491073,39.698164,0,1.0287237862,10,4,15.398,3587.44491073,135.170608,0.31540854,1.95174218844,0,0,-6.71082,240.1, -4.7, -1.7,0,0,1024,1024,1024,1024,240.2,0,98,3.835,3.846,3.833,3.809,0,0,14.372,64.31,3587.44491073,135.170608,14,Waypoint,
18600,2021-04-13 12:43:20,40.1849431167254,33.3283168008529,136.15486,,,3588.42916273,39.698164,0,1.02785108276,10,4,15.398,3588.42916273,136.15486,0.31540854,1.95174218844,0,0,-6.71082,240.1, -4.8, -1.6,0,0,1024,1024,1024,1024,240.2,0,98,3.835,3.846,3.833,3.809,0,0,14.372,64.31,3588.42916273,136.15486,14,Waypoint,
18700,2021-04-13 12:43:20,40.1849430941796,33.3283167528085,137.139112,,,3589.41341473,39.698164,0,1.01849740792,10,4,15.398,3589.41341473,137.139112,0.31540854,1.95174218844,0,0,-6.487126,240.1, -4.7, -1.7,0,0,1024,1024,1024,1024,240.2,0,98,3.835,3.846,3.833,3.809,0,0,14.372,64.31,3589.41341473,137.139112,14,Waypoint,
18800,2021-04-13 12:43:20,40.1849430615566,33.3283167349865,138.123364,,,3590.39766673,39.698164,0,1.01849740792,10,4,15.398,3590.39766673,138.123364,0.31540854,1.95174218844,0,0,-6.487126,240.2, -4.6, -1.7,0,0,1024,1024,1024,1024,240.2,0,98,3.835,3.846,3.833,3.809,0,0,14.372,64.31,3590.39766673,138.123364,14,Waypoint,
18900,2021-04-13 12:43:20,40.1849430267905,33.328316710608,139.107616,,,3591.38191873,39.698164,0,1.01729990132,10,4,15.357,3591.38191873,139.107616,0.31540854,1.95174218844,0,0,-6.487126,240.2, -4.6, -1.8,0,0,1024,1024,1024,1024,240.2,0,98,3.835,3.846,3.833,3.809,0,0,14.372,64.31,3591.38191873,139.107616,14,Waypoint,
