time(millisecond),datetime(utc),latitude,longitude,height_above_takeoff(feet),height_above_ground_at_drone_location(feet),ground_elevation_at_drone_location(feet),altitude_above_seaLevel(feet),height_sonar(feet),speed(mph),distance(feet),satellites,gpslevel,voltage(v),max_altitude(feet),max_ascent(feet),max_speed(mph),max_distance(feet), xSpeed(mph), ySpeed(mph), zSpeed(mph), compass_heading(degrees), pitch(degrees), roll(degrees),isPhoto,isVideo,rc_elevator,rc_aileron,rc_throttle,rc_rudder,gimbal_heading(degrees),gimbal_pitch(degrees),battery_percent,voltageCell1,voltageCell2,voltageCell3,voltageCell4,voltageCell5,voltageCell6,current(A),battery_temperature(f),altitude(feet),ascent(feet),flycStateRaw,flycState,message
382400,,40.1849076955586,33.328247145597,0,Available with any HD 360 subscription,Available with any HD 360 subscription,3451.8149372297,0.328084,0,0,14,4,0,3451.8149372297,0,0,0,0,0,0,267.7, -1.5, 0,0,0,1024,1024,1024,1024,268.1,0,75,4.023,4.027,4.022,4.02,0,0,0,87.71,3451.8149372297,0,41,Motors_Started,
382500,,40.1849077956428,33.3282471359196,0,,,3451.8149372297,0.328084,0,0.036615158652,14,4,0,3451.8149372297,0,0,0.036615158652,0,0,0,267.9, -1.5, 0,0,0,1024,1024,1024,1024,268.1,0,75,4.023,4.027,4.022,4.02,0,0,0,87.71,3451.8149372297,0,41,Motors_Started,
382600,,40.184907898707,33.3282471285842,0,,,3451.8149372297,0.328084,0,0.0742700155,14,4,0,3451.8149372297,0,0,0.0742700155,0,0,0,267.9, -1.5, 0,0,0,1024,1024,1024,1024,268.1,0,75,4.023,4.027,4.022,4.02,0,0,0,87.71,3451.8149372297,0,41,Motors_Started,
382700,,40.1849079539829,33.3282471346821,0,,,3451.8149372297,0.328084,0,0.094334976772,14,4,0,3451.8149372297,0,0,0.094334976772,0,0,0,267.8, -1.5, 0,0,0,1024,1024,1024,1024,268.1,0,75,4.023,4.027,4.022,4.02,0,0,0,87.71,3451.8149372297,0,41,Motors_Started,
382800,2021-04-02 10:54:53,40.184907990548,33.3282472212431,0,,,3451.8149372297,0.328084,0,0.109672575688,14,4,0,3451.8149372297,0,0,0.109672575688,0,0,0,267.7, -1.5, 0,0,0,1024,1024,1024,1024,268.1,0,75,4.023,4.027,4.022,4.02,0,0,0,87.71,3451.8149372297,0,41,Motors_Started,
382900,2021-04-02 10:54:53,40.18490806942,33.3282471813605,0,,,3451.8149372297,0.328084,0,0.13676673666,14,4,16.018,3451.8149372297,0,0,0.13676673666,0,0,0,267.7, -1.5, 0,0,0,1024,1024,1024,1024,268.1,0,75,4.023,4.027,4.022,4.02,0,0,1.442,87.71,3451.8149372297,0,41,Motors_Started,Setting new Return-To-Home altitude to 150m (492 ft). Data Recorder File Index is 362. Setting new Maximum Flight Altitude to 500m (1640 ft)
383000,2021-04-02 10:54:53,40.1849081531155,33.3282471363611,0,,,3451.8149372297,0.328084,0,8.5234910864,14,4,16.018,3451.8149372297,0,0,8.5234910864,0,0,0,267.8, -1.5, 0,0,0,1024,1024,1024,1024,268.1,0,75,4.023,4.027,4.022,4.02,0,0,1.442,87.71,3451.8149372297,0,41,Motors_Started,
383100,2021-04-02 10:54:53,40.1849082009853,33.3282471239915,0,,,3451.8149372297,0.328084,0,8.5057089336,14,4,16.018,3451.8149372297,0,0,8.5234910864,0,0,0,267.8, -1.4, 0,0,0,1024,1024,1024,1024,268.1,0,75,4.023,4.027,4.022,4.02,0,0,1.442,87.71,3451.8149372297,0,41,Motors_Started,
383200,2021-04-02 10:54:53,40.1849082222039,33.3282470872917,0,,,3451.8149372297,0.328084,0,8.495571138,14,4,16.018,3451.8149372297,0,0,8.5234910864,0,0,0,267.8, -1.4, 0,0,0,1024,1024,1024,1024,268.1,0,75,4.023,4.027,4.022,4.02,0,0,1.442,87.71,3451.8149372297,0,41,Motors_Started,
383300,2021-04-02 10:54:53,40.1849083010597,33.3282470936672,0,,,3451.8149372297,0.328084,0,8.4682745492,14,4,16.018,3451.8149372297,0,0,8.5234910864,0,0,0,267.8, -1.3, 0,0,0,1024,1024,1024,1024,268.1,0,75,4.023,4.027,4.022,4.02,0,0,1.442,87.71,3451.8149372297,0,41,Motors_Started,
383400,2021-04-02 10:54:53,40.1849083849278,33.3282471019486,0,,,3451.8149372297,0.328084,0,8.4393703488,14,4,16.018,3451.8149372297,0,0,8.5234910864,0,0,0,267.7, -1.3, -0.1,0,0,1024,1024,1024,1024,268.1,0,75,4.023,4.027,4.022,4.02,0,0,1.442,87.71,3451.8149372297,0,41,Motors_Started,
383500,2021-04-02 10:54:53,40.1849084356799,33.3282471148831,0,,,3451.8149372297,0.328084,0,8.4224740228,14,4,16.018,3451.8149372297,0,0,8.5234910864,0,0,0,267.7, -1.2, -0.1,0,0,1024,1024,1024,1024,268.1,0,75,4.023,4.027,4.022,4.02,0,0,1.442,87.71,3451.8149372297,0,41,Motors_Started,
383600,2021-04-02 10:54:54,40.1849085101682,33.3282471832203,0,,,3451.8149372297,0.328084,0,8.40141103,14,4,16.018,3451.8149372297,0,0,8.5234910864,0,0,0,267.7, -1.5, 0,0,0,1024,1024,1024,1024,268.1,0,75,4.023,4.027,4.022,4.02,0,0,1.442,87.71,3451.8149372297,0,41,Motors_Started,
383700,2021-04-02 10:54:54,40.1849085984852,33.328247188183,0,,,3451.8149372297,0.328084,0,8.370735176,14,4,16.018,3451.8149372297,0,0,8.5234910864,0,0,0,267.8, -1.3, -0.1,0,0,1024,1024,1024,1024,268.1,0,75,4.023,4.027,4.022,4.02,0,0,1.442,87.71,3451.8149372297,0,41,Motors_Started,
383800,2021-04-02 10:54:54,40.184908687141,33.3282472003383,0,,,3451.8149372297,0.328084,0,8.3405186396,14,4,16.018,3451.8149372297,0,0,8.5234910864,0,0,0,267.8, -1.4, 0,0,0,1024,1024,1024,1024,268.1,0,75,4.023,4.027,4.022,4.02,0,0,1.442,87.71,3451.8149372297,0,41,Motors_Started,
383900,2021-04-02 10:54:54,40.1849087431659,33.3282471486271,0,,,3451.8149372297,0.328084,0,8.3169622084,14,4,15.958,3451.8149372297,0,0,8.5234910864,0,0,0,267.8, -1.4, 0,0,0,1024,1024,1024,1024,268.1,0,75,4,4.004,3.999,3.993,0,0,4.168,89.51,3451.8149372297,0,11,AutoTakeoff,
384000,2021-04-02 10:54:54,40.1849088131044,33.3282470389203,0,,,3451.8149372297,0.328084,0,8.284121,14,4,15.958,3451.8149372297,0,0,8.5234910864,0,0,0,267.7, -1.3, 0,0,0,1024,1024,1024,1024,268.1,0,75,4,4.004,3.999,3.993,0,0,4.168,89.51,3451.8149372297,0,11,AutoTakeoff,
384100,2021-04-02 10:54:54,40.1849089008742,33.328247019047,0,,,3451.8149372297,0.328084,0,8.251804726,14,4,15.958,3451.8149372297,0,0,8.5234910864,0,0,0,267.7, -1.4, 0,0,0,1024,1024,1024,1024,268.1,0,75,4,4.004,3.999,3.993,0,0,4.168,89.51,3451.8149372297,0,11,AutoTakeoff,
384200,2021-04-02 10:54:54,40.1849089878299,33.3282470079906,0,,,3451.8149372297,0.328084,0,8.2204070872,14,4,15.958,3451.8149372297,0,0,8.5234910864,0,0,0,267.7, -1.2, -0.1,0,0,1024,1024,1024,1024,268.1,0,75,4,4.004,3.999,3.993,0,0,4.168,89.51,3451.8149372297,0,11,AutoTakeoff,
384300,2021-04-02 10:54:54,40.1849090364096,33.3282470147809,0,,,3451.8149372297,0.328084,0,8.2038716536,14,4,15.958,3451.8149372297,0,0,8.5234910864,0,0,0,267.7, -1.2, -0.1,0,0,1024,1024,1024,1024,268.1,0,75,4,4.004,3.999,3.993,0,0,4.168,89.51,3451.8149372297,0,11,AutoTakeoff,
384400,2021-04-02 10:54:54,40.184909085771,33.3282470177436,0,,,3451.8149372297,0.328084,0,8.1867456688,13,4,15.958,3451.8149372297,0,0,8.5234910864,0,0,0,267.7, -1.2, -0.1,0,0,1024,1024,1024,1024,268.1,0,75,4,4.004,3.999,3.993,0,0,4.168,89.51,3451.8149372297,0,11,AutoTakeoff,
384500,2021-04-02 10:54:54,40.1849091361909,33.3282470544476,0,,,3451.8149372297,0.328084,0,8.1718178468,13,4,15.958,3451.8149372297,0,0,8.5234910864,0,0,0,267.8, -0.8, -0.1,0,0,1024,1024,1024,1024,268.1,0,75,4,4.004,3.999,3.993,0,0,4.168,89.51,3451.8149372297,0,11,AutoTakeoff,
384600,2021-04-02 10:54:55,40.1849091687761,33.3282470849793,0,,,3451.8149372297,0.328084,0,8.1626971116,14,4,15.958,3451.8149372297,0,0,8.5234910864,0,0,0,268.1, 0.5, -0.1,0,0,1024,1024,1024,1024,268.1,0,75,4,4.004,3.999,3.993,0,0,4.168,89.51,3451.8149372297,0,11,AutoTakeoff,
384700,2021-04-02 10:54:55,40.1849092509864,33.3282471957161,0,,,3451.8149372297,0.328084,0,8.142388712,14,4,15.958,3451.8149372297,0,0,8.5234910864,0,0,0,268.2, 3.8, 0.2,0,0,1024,1024,1024,1024,268.1,0,75,4,4.004,3.999,3.993,0,0,4.168,89.51,3451.8149372297,0,11,AutoTakeoff,
384800,2021-04-02 10:54:55,40.1849093600564,33.3282474056793,0,,,3451.8149372297,0.328084,0.223694,8.120735168,13,4,15.958,3451.8149372297,0,0.223694,8.5234910864,0,0.223694,-0.447388,268.3, 5.9, 0,0,0,1024,1024,1024,1024,268.1,0,75,4,4.004,3.999,3.993,0,0,4.168,89.51,3451.8149372297,0,11,AutoTakeoff,
384900,2021-04-02 10:54:55,40.1849094761416,33.3282476860917,0,,,3451.8149372297,0.656168,0.447388,8.1029858236,13,4,15.941,3451.8149372297,0,0.447388,8.5234910864,0,0.447388,-0.894776,268.4, 1.3, -1.2,0,0,1024,1024,1024,1024,268.1,0,75,4,4.004,3.999,3.993,0,0,4.168,89.51,3451.8149372297,0,11,AutoTakeoff,
385000,2021-04-02 10:54:55,40.1849095591271,33.3282480298884,0.328084,,,3452.1430212297,0.656168,0.671082,8.1031170572,12,4,15.941,3452.1430212297,0.328084,0.671082,8.5234910864,0,0.671082,-1.11847,268.6, -2.2, -0.4,0,0,1024,1024,1024,1024,268.1,0,75,4,4.004,3.999,3.993,0,0,4.168,89.51,3452.1430212297,0.328084,11,AutoTakeoff,
385100,2021-04-02 10:54:55,40.1849096128365,33.3282484107255,0.656168,,,3452.4711052297,0.984252,0.671082,8.1179136456,12,4,15.941,3452.4711052297,0.656168,0.671082,8.5234910864,0,0.671082,-1.342164,268.6, -3.6, -0.2,0,0,1024,1024,1024,1024,268.1,0,75,4,4.004,3.999,3.993,0,0,4.168,89.51,3452.4711052297,0.656168,11,AutoTakeoff,
385200,2021-04-02 10:54:55,40.1849096485352,33.3282487728034,0.656168,,,3452.4711052297,0.984252,0.671082,8.1385829376,14,4,15.941,3452.4711052297,0.656168,0.671082,8.5234910864,0,0.671082,-1.342164,268.8, -3.9, -0.3,0,0,1024,1024,1024,1024,268.1,0,75,4,4.004,3.999,3.993,0,0,4.168,89.51,3452.4711052297,0.656168,11,AutoTakeoff,
385300,2021-04-02 10:54:55,40.18490975129,33.328249173082,0.984252,,,3452.7991892297,1.312336,0.447388,8.1411748012,14,4,15.941,3452.7991892297,0.984252,0.671082,8.5234910864,0,0.447388,-1.11847,268.9, -3.3, 1.4,0,0,1024,1024,1024,1024,268.1,0,75,4,4.004,3.999,3.993,0,0,4.168,89.51,3452.7991892297,0.984252,11,AutoTakeoff,
385400,2021-04-02 10:54:55,40.1849098467396,33.3282495022205,0.984252,,,3452.7991892297,1.64042,0.447388,8.1408139088,15,4,15.941,3452.7991892297,0.984252,0.671082,8.5234910864,0,0.447388,-1.11847,268.8, -3.3, 0.6,0,0,1024,1024,1024,1024,268.1,0,75,4,4.004,3.999,3.993,0,0,4.168,89.51,3452.7991892297,0.984252,11,AutoTakeoff,
385500,2021-04-02 10:54:55,40.184909900918,33.3282497553106,1.312336,,,3453.1272732297,1.64042,0.447388,8.1479005232,15,4,15.941,3453.1272732297,1.312336,0.671082,8.5234910864,0,0.447388,-1.11847,268.7, -3.3, 0.2,0,0,1024,1024,1024,1024,268.1,0,75,4,4.004,3.999,3.993,0,0,4.168,89.51,3453.1272732297,1.312336,11,AutoTakeoff,
385600,2021-04-02 10:54:56,40.184909970687,33.3282500243807,1.312336,,,3453.1272732297,1.968504,0.447388,8.1520015732,14,4,15.941,3453.1272732297,1.312336,0.671082,8.5234910864,0,0.447388,-1.11847,268.5, -4.3, -0.3,0,0,1024,1024,1024,1024,268.2,0,75,4,4.004,3.999,3.993,0,0,4.168,89.51,3453.1272732297,1.312336,11,AutoTakeoff,
385700,2021-04-02 10:54:56,40.1849099648539,33.3282500140713,1.64042,,,3453.4553572297,1.968504,0.447388,8.1529202084,14,4,15.941,3453.4553572297,1.64042,0.671082,8.5234910864,0,0.447388,-1.11847,268.3, -4.7, -0.3,0,0,1024,1024,1024,1024,268.1,0,75,4,4.004,3.999,3.993,0,0,4.168,89.51,3453.4553572297,1.64042,11,AutoTakeoff,
385800,2021-04-02 10:54:56,40.1849100482759,33.3282502279937,1.64042,,,3453.4553572297,2.296588,0.447388,8.1472771636,15,4,15.941,3453.4553572297,1.64042,0.671082,8.5234910864,0,0.447388,-1.11847,268.1, -4.4, 0.2,0,0,1024,1024,1024,1024,268.1,0,75,4,4.004,3.999,3.993,0,0,4.168,89.51,3453.4553572297,1.64042,11,AutoTakeoff,
385900,2021-04-02 10:54:56,40.1849101544081,33.3282504195215,1.968504,,,3453.7834412297,2.296588,0.447388,8.1321196828,15,4,15.764,3453.7834412297,1.968504,0.671082,8.5234910864,0,0.447388,-0.894776,268, -4.3, -1,0,0,1024,1024,1024,1024,268.1,0,75,3.993,3.994,3.986,3.973,0,0,3.93,89.51,3453.7834412297,1.968504,11,AutoTakeoff,
386000,2021-04-02 10:54:56,40.184910262755,33.3282506134318,1.968504,,,3453.7834412297,2.624672,0.447388,8.1169950104,15,4,15.764,3453.7834412297,1.968504,0.671082,8.5234910864,0,0.447388,-0.894776,268.2, -4.2, -1.2,0,0,1024,1024,1024,1024,268.1,0,75,3.993,3.994,3.986,3.973,0,0,3.93,89.51,3453.7834412297,1.968504,11,AutoTakeoff,
386100,2021-04-02 10:54:56,40.1849104205935,33.3282509778516,2.296588,,,3454.1115252297,2.624672,0.447388,8.1052496032,15,4,15.764,3454.1115252297,2.296588,0.671082,8.5234910864,0,0.447388,-0.894776,268.3, -4.8, -0.1,0,0,1024,1024,1024,1024,268.1,0,75,3.993,3.994,3.986,3.973,0,0,3.93,89.51,3454.1115252297,2.296588,11,AutoTakeoff,
386200,2021-04-02 10:54:56,40.1849107535599,33.3282515877795,2.296588,,,3454.1115252297,2.952756,0.50107456,8.0666669248,14,4,15.764,3454.1115252297,2.296588,0.671082,8.5234910864,0.223694,0.447388,-1.11847,268.3, -5.3, -0.7,0,0,1024,1024,1024,1024,268.2,0,75,3.993,3.994,3.986,3.973,0,0,3.93,89.51,3454.1115252297,2.296588,11,AutoTakeoff,
386300,2021-04-02 10:54:56,40.1849109377238,33.3282519013991,2.624672,,,3454.4396092297,2.952756,0.31540854,8.0446524884,14,4,15.764,3454.4396092297,2.624672,0.671082,8.5234910864,0.223694,0.223694,-1.11847,268.2, -5, -1.5,0,0,1024,1024,1024,1024,268.1,0,75,3.993,3.994,3.986,3.973,0,0,3.93,89.51,3454.4396092297,2.624672,11,AutoTakeoff,
386400,2021-04-02 10:54:56,40.1849111247865,33.3282521913656,2.624672,,,3454.4396092297,3.28084,0.223694,8.0201118052,15,4,15.764,3454.4396092297,2.624672,0.671082,8.5234910864,0,0.223694,-1.11847,268.1, -4.8, -1.7,0,0,1024,1024,1024,1024,268.1,0,75,3.993,3.994,3.986,3.973,0,0,3.93,89.51,3454.4396092297,2.624672,11,AutoTakeoff,
386500,2021-04-02 10:54:56,40.1849112278832,33.3282522527766,2.952756,,,3454.7676932297,3.608924,0.223694,7.9945212532,15,4,15.764,3454.7676932297,2.952756,0.671082,8.5234910864,0,0.223694,-1.11847,268, -4.3, -2.3,0,0,1024,1024,1024,1024,268.1,0,75,3.993,3.994,3.986,3.973,0,0,3.93,89.51,3454.7676932297,2.952756,11,AutoTakeoff,
386600,2021-04-02 10:54:57,40.1849113021126,33.3282521693074,3.28084,,,3455.0957772297,3.608924,0.223694,7.9597771576,15,4,15.764,3455.0957772297,3.28084,0.671082,8.5234910864,0,0.223694,-0.894776,268, -4.1, -2,0,0,1024,1024,1024,1024,268.1,0,75,3.993,3.994,3.986,3.973,0,0,3.93,89.51,3455.0957772297,3.28084,14,Waypoint,
386700,2021-04-02 10:54:57,40.1849113765097,33.3282522076889,3.28084,,,3455.0957772297,3.937008,0.223694,7.9405842436,15,4,15.764,3455.0957772297,3.28084,0.671082,8.5234910864,0,0.223694,-0.894776,267.8, -4.1, -1.2,0,0,1024,1024,1024,1024,268.2,0,75,3.993,3.994,3.986,3.973,0,0,3.93,89.51,3455.0957772297,3.28084,14,Waypoint,
386800,2021-04-02 10:54:57,40.1849114401688,33.3282522561556,3.608924,,,3455.4238612297,3.937008,0.223694,7.9262469728,14,4,15.764,3455.4238612297,3.608924,0.671082,8.5234910864,0,0.223694,-0.894776,267.6, -4.7, -1,0,0,1024,1024,1024,1024,268.1,0,75,3.993,3.994,3.986,3.973,0,0,3.93,89.51,3455.4238612297,3.608924,14,Waypoint,
386900,2021-04-02 10:54:57,40.1849114920266,33.328252508154,3.608924,,,3455.4238612297,4.265092,0.223694,7.9423887056,14,4,15.64,3455.4238612297,3.608924,0.671082,8.5234910864,0,0.223694,-1.11847,267.7, -4.4, 0,0,0,1024,1024,1024,1024,268.1,0,75,3.938,3.945,3.941,3.923,0,0,12.224,89.51,3455.4238612297,3.608924,14,Waypoint,
387000,2021-04-02 10:54:57,40.1849115674171,33.3282529686832,3.937008,,,3455.7519452297,4.265092,0.223694,7.9796918564,15,4,15.64,3455.7519452297,3.937008,0.671082,8.5234910864,0,0.223694,-1.11847,267.5, -3.1, 0.9,0,0,1024,1024,1024,1024,268.1,0,75,3.938,3.945,3.941,3.923,0,0,12.224,89.51,3455.7519452297,3.937008,14,Waypoint,
387100,2021-04-02 10:54:57,40.184911575372,33.3282533594358,3.937008,,,3455.7519452297,4.593176,0.223694,8.0306433016,15,4,15.64,3455.7519452297,3.937008,0.671082,8.5234910864,0,0.223694,-1.11847,267.3, -3.9, -0.6,0,0,1024,1024,1024,1024,268.1,0,75,3.938,3.945,3.941,3.923,0,0,12.224,89.51,3455.7519452297,3.937008,14,Waypoint,
387200,2021-04-02 10:54:57,40.184911582345,33.3282537732264,4.265092,,,3456.0800292297,4.593176,0.223694,8.086286348,15,4,15.64,3456.0800292297,4.265092,0.671082,8.5234910864,0,0.223694,-1.11847,267.4, -4.7, -1.6,0,0,1024,1024,1024,1024,268.1,0,75,3.938,3.945,3.941,3.923,0,0,12.224,89.51,3456.0800292297,4.265092,14,Waypoint,
387300,2021-04-02 10:54:57,40.1849115690358,33.3282540746431,4.265092,,,3456.0800292297,4.92126,0.223694,8.133366402,15,4,15.64,3456.0800292297,4.265092,0.671082,8.5234910864,0,0.223694,-1.342164,267.5, -5.2, 0.1,0,0,1024,1024,1024,1024,268.1,0,75,3.938,3.945,3.941,3.923,0,0,12.224,89.51,3456.0800292297,4.265092,14,Waypoint,
387400,2021-04-02 10:54:57,40.1849114465328,33.3282546894328,4.593176,,,3456.4081132297,5.249344,0.223694,8.2607614192,15,4,15.64,3456.4081132297,4.593176,0.671082,8.5234910864,0,0.223694,-1.789552,267.3, -5.4, 0.4,0,0,1024,1024,1024,1024,268.1,0,75,3.938,3.945,3.941,3.923,0,0,12.224,89.51,3456.4081132297,4.593176,14,Waypoint,
387500,2021-04-02 10:54:57,40.1849115243838,33.328254959013,4.92126,,,3456.7361972297,5.577428,0.223694,8.2766078764,15,4,15.64,3456.7361972297,4.92126,0.671082,8.5234910864,0,0.223694,-2.460634,267.3, -5.9, -0.1,0,0,1024,1024,1024,1024,268.1,0,75,3.938,3.945,3.941,3.923,0,0,12.224,89.51,3456.7361972297,4.92126,14,Waypoint,
387600,2021-04-02 10:54:58,40.1849116032168,33.3282552071909,5.249344,,,3457.0642812297,5.905512,0.223694,8.2896656196,13,4,15.64,3457.0642812297,5.249344,0.671082,8.5234910864,0,0.223694,-3.131716,267.4, -6.2, -0.1,0,0,1024,1024,1024,1024,268.1,0,75,3.938,3.945,3.941,3.923,0,0,12.224,89.51,3457.0642812297,5.249344,14,Waypoint,
387700,2021-04-02 10:54:58,40.1849115908748,33.3282554159474,5.905512,,,3457.7204492297,6.56168,0,8.3251643084,13,4,15.64,3457.7204492297,5.905512,0.671082,8.5234910864,0,0,-4.026492,267.3, -5.4, -0.5,0,0,1024,1024,1024,1024,268.1,0,75,3.938,3.945,3.941,3.923,0,0,12.224,89.51,3457.7204492297,5.905512,14,Waypoint,
387800,2021-04-02 10:54:58,40.1849115478709,33.3282556154763,6.56168,,,3458.3766172297,7.217848,0,8.3687994804,14,4,15.64,3458.3766172297,6.56168,0.671082,8.5234910864,0,0,-4.697574,267.2, -4.9, 0.1,0,0,1024,1024,1024,1024,268.1,0,75,3.938,3.945,3.941,3.923,0,0,12.224,89.51,3458.3766172297,6.56168,14,Waypoint,
387900,2021-04-02 10:54:58,40.1849114339498,33.3282553585643,7.217848,,,3459.0327852297,7.874016,0,8.3644359632,14,4,15.698,3459.0327852297,7.217848,0.671082,8.5234910864,0,0,-5.59235,267.2, -5.4, 0.6,0,0,1024,1024,1024,1024,268.1,0,75,3.935,3.946,3.942,3.913,0,0,12.126,87.71,3459.0327852297,7.217848,14,Waypoint,
388000,2021-04-02 10:54:58,40.1849113188025,33.3282550898292,8.2021,,,3460.0170372297,8.858268,0.31540854,8.3594818948,14,4,15.698,3460.0170372297,8.2021,0.671082,8.5234910864,-0.223694,0.223694,-6.263432,267.4, -5.3, 2.1,0,0,1024,1024,1024,1024,268,0,75,3.935,3.946,3.942,3.913,0,0,12.126,87.71,3460.0170372297,8.2021,14,Waypoint,
388100,2021-04-02 10:54:58,40.1849112283506,33.3282551730391,9.186352,,,3461.0012892297,9.84252,0.223694,8.39977061,14,4,15.698,3461.0012892297,9.186352,0.671082,8.5234910864,0,0.223694,-6.71082,267.5, -5.9, 2.3,0,0,1024,1024,1024,1024,268.1,0,75,3.935,3.946,3.942,3.913,0,0,12.126,87.71,3461.0012892297,9.186352,14,Waypoint,
388200,2021-04-02 10:54:58,40.1849111808733,33.3282552995975,10.170604,,,3461.9855412297,10.826772,0.223694,8.4333007948,14,4,15.698,3461.9855412297,10.170604,0.671082,8.5234910864,0,0.223694,-6.934514,267.5, -6.7, 1.1,0,0,1024,1024,1024,1024,268.1,0,75,3.935,3.946,3.942,3.913,0,0,12.126,87.71,3461.9855412297,10.170604,14,Waypoint,
388300,2021-04-02 10:54:58,40.1849113235201,33.3282550447316,11.48294,,,3463.2978772297,11.811024,0.223694,8.3513126032,14,4,15.698,3463.2978772297,11.48294,0.671082,8.5234910864,0,0.223694,-7.158208,267.5, -7, 0.3,0,0,1024,1024,1024,1024,268.1,0,75,3.935,3.946,3.942,3.913,0,0,12.126,87.71,3463.2978772297,11.48294,14,Waypoint,
388400,2021-04-02 10:54:58,40.1849114265355,33.3282550637696,12.467192,,,3464.2821292297,13.12336,0.223694,8.3223755944,14,4,15.698,3464.2821292297,12.467192,0.671082,8.5234910864,0,0.223694,-7.381902,267.6, -7.1, 0.2,0,0,1024,1024,1024,1024,268.1,0,75,3.935,3.946,3.942,3.913,0,0,12.126,87.71,3464.2821292297,12.467192,14,Waypoint,
388500,2021-04-02 10:54:58,40.1849114927871,33.3282550825988,13.451444,,,3465.2663812297,14.107612,0.223694,8.3048231004,14,4,15.698,3465.2663812297,13.451444,0.671082,8.5234910864,0,0.223694,-7.381902,267.7, -7.3, 0.1,0,0,1024,1024,1024,1024,268,0,75,3.935,3.946,3.942,3.913,0,0,12.126,87.71,3465.2663812297,13.451444,14,Waypoint,
388600,2021-04-02 10:54:59,40.184911552354,33.3282551089344,14.76378,,,3466.5787172297,15.091864,0.223694,8.2904530212,14,4,15.698,3466.5787172297,14.76378,0.671082,8.5234910864,0,0.223694,-7.381902,267.7, -7.4, 0.5,0,0,1024,1024,1024,1024,268.1,0,75,3.935,3.946,3.942,3.913,0,0,12.126,87.71,3466.5787172297,14.76378,14,Waypoint,
388700,2021-04-02 10:54:59,40.1849116336394,33.328255341693,16.076116,,,3467.8910532297,16.076116,0.223694,8.3007876672,14,4,15.698,3467.8910532297,16.076116,0.671082,8.5234910864,0,0.223694,-7.381902,267.7, -7.5, 0.3,0,0,1024,1024,1024,1024,268,0,75,3.935,3.946,3.942,3.913,0,0,12.126,87.71,3467.8910532297,16.076116,14,Waypoint,
388800,2021-04-02 10:54:59,40.1849116806656,33.3282555277942,17.060368,,,3468.8753052297,17.388452,0.223694,8.3149280876,14,4,15.698,3468.8753052297,17.060368,0.671082,8.5234910864,0,0.223694,-7.158208,267.7, -7.9, 0.8,0,0,1024,1024,1024,1024,268,0,75,3.935,3.946,3.942,3.913,0,0,12.126,87.71,3468.8753052297,17.060368,14,Waypoint,
388900,2021-04-02 10:54:59,40.1849117821714,33.328255735229,18.372704,,,3470.1876412297,18.372704,0.223694,8.3162404236,14,4,15.734,3470.1876412297,18.372704,0.671082,8.5234910864,0,0.223694,-7.158208,267.6, -8, 0.9,0,0,1024,1024,1024,1024,268,0,75,3.935,3.946,3.942,3.913,0,0,16.92,89.51,3470.1876412297,18.372704,14,Waypoint,
389000,2021-04-02 10:54:59,40.1849119127775,33.328255955325,19.356956,,,3471.1718932297,19.356956,0.223694,8.311351972,14,4,15.734,3471.1718932297,19.356956,0.671082,8.5234910864,0,0.223694,-6.934514,267.6, -8.1, 0,0,0,1024,1024,1024,1024,268,0,75,3.935,3.946,3.942,3.913,0,0,16.92,89.51,3471.1718932297,19.356956,14,Waypoint,
389100,2021-04-02 10:54:59,40.1849124973498,33.3282562095826,20.341208,,,3472.1561452297,20.341208,0.223694,8.1776905504,14,4,15.734,3472.1561452297,20.341208,0.671082,8.5234910864,0,0.223694,-6.934514,267.6, -8.1, -0.7,0,0,1024,1024,1024,1024,268,0,75,3.935,3.946,3.942,3.913,0,0,16.92,89.51,3472.1561452297,20.341208,14,Waypoint,
389200,2021-04-02 10:54:59,40.184912759671,33.328256381289,21.32546,,,3473.1403972297,21.32546,0.223694,8.1285435672,14,4,15.734,3473.1403972297,21.32546,0.671082,8.5234910864,0,0.223694,-6.71082,267.7, -8.8, -0.9,0,0,1024,1024,1024,1024,268,0,75,3.935,3.946,3.942,3.913,0,0,16.92,89.51,3473.1403972297,21.32546,14,Waypoint,
389300,2021-04-02 10:54:59,40.1849128860952,33.3282565234069,22.309712,,,3474.1246492297,22.637796,0.223694,8.11515774,14,4,15.734,3474.1246492297,22.309712,0.671082,8.5234910864,0,0.223694,-6.71082,267.8, -9.3, -1.1,0,0,1024,1024,1024,1024,268,0,75,3.935,3.946,3.942,3.913,0,0,16.92,89.51,3474.1246492297,22.309712,14,Waypoint,
389400,2021-04-02 10:54:59,40.1849129828134,33.3282566675962,23.293964,,,3475.1089012297,23.622048,0.223694,8.1111879236,14,4,15.734,3475.1089012297,23.293964,0.671082,8.5234910864,0,0.223694,-6.487126,267.8, -9.4, -1.5,0,0,1024,1024,1024,1024,268,0,75,3.935,3.946,3.942,3.913,0,0,16.92,89.51,3475.1089012297,23.293964,14,Waypoint,
389500,2021-04-02 10:54:59,40.1849130643203,33.3282568175624,24.278216,,,3476.0931532297,24.6063,0.223694,8.1129595772,14,4,15.734,3476.0931532297,24.278216,0.671082,8.5234910864,0,0.223694,-6.487126,267.7, -9.1, -1.2,0,0,1024,1024,1024,1024,268,0,75,3.935,3.946,3.942,3.913,0,0,16.92,89.51,3476.0931532297,24.278216,14,Waypoint,
389600,2021-04-02 10:55:00,40.1849131520299,33.3282569243765,25.262468,,,3477.0774052297,25.590552,0.223694,8.1058729628,14,4,15.734,3477.0774052297,25.262468,0.671082,8.5234910864,0,0.223694,-6.487126,267.7, -9.4, -0.4,0,0,1024,1024,1024,1024,268,0,75,3.935,3.946,3.942,3.913,0,0,16.92,89.51,3477.0774052297,25.262468,14,Waypoint,
389700,2021-04-02 10:55:00,40.1849131874599,33.3282570498305,26.24672,,,3478.0616572297,26.574804,0.223694,8.1172246692,14,4,15.734,3478.0616572297,26.24672,0.671082,8.5234910864,0,0.223694,-6.487126,267.7, -9.4, -0.8,0,0,1024,1024,1024,1024,268,0,75,3.935,3.946,3.942,3.913,0,0,16.92,89.51,3478.0616572297,26.24672,14,Waypoint,
389800,2021-04-02 10:55:00,40.1849132048289,33.3282571609836,27.230972,,,3479.0459092297,27.559056,0,8.131397898,14,4,15.734,3479.0459092297,27.230972,0.671082,8.5234910864,0,0,-6.487126,267.6, -9, -0.7,0,0,1024,1024,1024,1024,268,0,75,3.935,3.946,3.942,3.913,0,0,16.92,89.51,3479.0459092297,27.230972,14,Waypoint,
389900,2021-04-02 10:55:00,40.184913177318,33.3282571942076,28.215224,,,3480.0301612297,28.543308,0,8.145013384,14,4,15.365,3480.0301612297,28.215224,0.671082,8.5234910864,0,0,-6.487126,267.6, -9.1, -0.4,0,0,1024,1024,1024,1024,268,0,75,3.902,3.913,3.909,3.887,0,0,16.92,89.51,3480.0301612297,28.215224,14,Waypoint,
390000,2021-04-02 10:55:00,40.1849130736203,33.3282570991045,29.199476,,,3481.0144132297,29.199476,0,8.1583664028,14,4,15.365,3481.0144132297,29.199476,0.671082,8.5234910864,0,0,-6.487126,267.5, -9.2, -0.5,0,0,1024,1024,1024,1024,268,0,75,3.902,3.913,3.909,3.887,0,0,16.92,89.51,3481.0144132297,29.199476,14,Waypoint,
390100,2021-04-02 10:55:00,40.1849130257408,33.3282571133269,30.183728,,,3481.9986652297,30.183728,0,8.1745737524,14,4,15.365,3481.9986652297,30.183728,0.671082,8.5234910864,0,0,-6.487126,267.6, -9.1, -0.3,0,0,1024,1024,1024,1024,268,0,75,3.902,3.913,3.909,3.887,0,0,16.92,89.51,3481.9986652297,30.183728,14,Waypoint,
390200,2021-04-02 10:55:00,40.1849129639202,33.3282571235775,31.16798,,,3482.9829172297,31.16798,0.223694,8.1941275588,14,4,15.365,3482.9829172297,31.16798,0.671082,8.5234910864,-0.223694,0,-6.263432,267.6, -8.8, 0,0,0,1024,1024,1024,1024,268,0,75,3.902,3.913,3.909,3.887,0,0,16.92,89.51,3482.9829172297,31.16798,14,Waypoint,
390300,2021-04-02 10:55:00,40.1849127542727,33.3282571156955,32.152232,,,3483.9671692297,32.152232,0.223694,8.253281104,14,4,15.365,3483.9671692297,32.152232,0.671082,8.5234910864,-0.223694,0,-6.487126,267.6, -8.7, 0.5,0,0,1024,1024,1024,1024,268,0,75,3.902,3.913,3.909,3.887,0,0,16.92,89.51,3483.9671692297,32.152232,14,Waypoint,
390400,2021-04-02 10:55:00,40.1849122135462,33.3282569632485,33.136484,,,3484.9514212297,33.136484,0.223694,8.385170872,14,4,15.365,3484.9514212297,33.136484,0.671082,8.5234910864,-0.223694,0,-6.487126,267.6, -8.7, 0.9,0,0,1024,1024,1024,1024,268,0,75,3.902,3.913,3.909,3.887,0,0,16.92,89.51,3484.9514212297,33.136484,14,Waypoint,
390500,2021-04-02 10:55:00,40.1849121297562,33.3282569902078,34.120736,,,3485.9356732297,34.120736,0,8.4142391144,14,4,15.365,3485.9356732297,34.120736,0.671082,8.5234910864,0,0,-6.487126,267.5, -8.3, 1.6,0,0,1024,1024,1024,1024,268,0,75,3.902,3.913,3.909,3.887,0,0,16.92,89.51,3485.9356732297,34.120736,14,Waypoint,
390600,2021-04-02 10:55:01,40.1849120752115,33.3282570244577,35.104988,,,3486.9199252297,35.104988,0.223694,8.4359254668,14,4,15.365,3486.9199252297,35.104988,0.671082,8.5234910864,0,0.223694,-6.487126,267.5, -8.9, 0.8,0,0,1024,1024,1024,1024,268,0,75,3.902,3.913,3.909,3.887,0,0,16.92,89.51,3486.9199252297,35.104988,14,Waypoint,
390700,2021-04-02 10:55:01,40.1849121100195,33.3282571191572,36.08924,,,3487.9041772297,36.08924,0.223694,8.4414044696,14,4,15.365,3487.9041772297,36.08924,0.671082,8.5234910864,0,0.223694,-6.487126,267.5, -9.5, 0.3,0,0,1024,1024,1024,1024,268,0,75,3.902,3.913,3.909,3.887,0,0,16.92,89.51,3487.9041772297,36.08924,14,Waypoint,
390800,2021-04-02 10:55:01,40.1849123647733,33.3282573524511,37.073492,,,3488.8884292297,37.073492,0.223694,8.4062338648,14,4,15.365,3488.8884292297,37.073492,0.671082,8.5234910864,0,0.223694,-6.487126,267.6, -9.5, 0.2,0,0,1024,1024,1024,1024,268,0,75,3.902,3.913,3.909,3.887,0,0,16.92,89.51,3488.8884292297,37.073492,14,Waypoint,
390900,2021-04-02 10:55:01,40.1849124359982,33.3282575458583,38.057744,,,3489.8726812297,37.073492,0.223694,8.4184385896,14,4,15.586,3489.8726812297,38.057744,0.671082,8.5234910864,0,0.223694,-6.487126,267.7, -9.5, 0,0,0,1024,1024,1024,1024,268,0,75,3.905,3.913,3.909,3.89,0,0,13.368,89.51,3489.8726812297,38.057744,14,Waypoint,
391000,2021-04-02 10:55:01,40.184912504256,33.3282577409529,39.041996,,,3490.8569332297,37.073492,0,8.4322181176,14,4,15.586,3490.8569332297,39.041996,0.671082,8.5234910864,0,0,-6.487126,267.7, -9.9, 0.1,0,0,1024,1024,1024,1024,268,0,75,3.905,3.913,3.909,3.89,0,0,13.368,89.51,3490.8569332297,39.041996,14,Waypoint,
391100,2021-04-02 10:55:01,40.1849125521534,33.3282578435821,39.698164,,,3491.5131012297,37.073492,0,8.4362207424,14,4,15.586,3491.5131012297,39.698164,0.671082,8.5234910864,0,0,-6.487126,267.7, -9.7, 0,0,0,1024,1024,1024,1024,268,0,75,3.905,3.913,3.909,3.89,0,0,13.368,89.51,3491.5131012297,39.698164,14,Waypoint,
391200,2021-04-02 10:55:01,40.1849125925812,33.3282579259652,40.682416,,,3492.4973532297,37.073492,0,8.4389438396,14,4,15.586,3492.4973532297,40.682416,0.671082,8.5234910864,0,0,-6.487126,267.7, -9.3, -0.2,0,0,1024,1024,1024,1024,268,0,75,3.905,3.913,3.909,3.89,0,0,13.368,89.51,3492.4973532297,40.682416,14,Waypoint,
391300,2021-04-02 10:55:01,40.1849128231591,33.3282581307049,41.666668,,,3493.4816052297,37.073492,0,8.4092194292,14,4,15.586,3493.4816052297,41.666668,0.671082,8.5234910864,0,0,-6.487126,267.7, -9.7, -0.3,0,0,1024,1024,1024,1024,268,0,75,3.905,3.913,3.909,3.89,0,0,13.368,89.51,3493.4816052297,41.666668,14,Waypoint,
391400,2021-04-02 10:55:01,40.1849128526584,33.3282580461972,42.65092,,,3494.4658572297,37.073492,0,8.3860238904,14,4,15.586,3494.4658572297,42.65092,0.671082,8.5234910864,0,0,-6.487126,267.7, -9.7, -0.4,0,0,1024,1024,1024,1024,268,0,75,3.905,3.913,3.909,3.89,0,0,13.368,89.51,3494.4658572297,42.65092,14,Waypoint,
391500,2021-04-02 10:55:01,40.1849128238789,33.3282580241908,43.307088,,,3495.1220252297,37.073492,0,8.3902889824,14,4,15.586,3495.1220252297,43.307088,0.671082,8.5234910864,0,0,-6.487126,267.7, -9.5, -0.2,0,0,1024,1024,1024,1024,268,0,75,3.905,3.913,3.909,3.89,0,0,13.368,89.51,3495.1220252297,43.307088,14,Waypoint,
391600,2021-04-02 10:55:02,40.1849127764358,33.3282579986498,44.29134,,,3496.1062772297,37.073492,0,8.399278484,14,4,15.586,3496.1062772297,44.29134,0.671082,8.5234910864,0,0,-6.487126,267.6, -9.3, 0,0,0,1024,1024,1024,1024,268,0,75,3.905,3.913,3.909,3.89,0,0,13.368,89.51,3496.1062772297,44.29134,14,Waypoint,
391700,2021-04-02 10:55:02,40.1849126984219,33.3282577883097,45.275592,,,3497.0905292297,37.073492,0,8.3848099796,14,4,15.586,3497.0905292297,45.275592,0.671082,8.5234910864,0,0,-6.487126,267.6, -9.1, 0.1,0,0,1024,1024,1024,1024,268,0,75,3.905,3.913,3.909,3.89,0,0,13.368,89.51,3497.0905292297,45.275592,14,Waypoint,
391800,2021-04-02 10:55:02,40.1849126256272,33.3282577364934,46.259844,,,3498.0747812297,37.073492,0,8.396653812,15,4,15.586,3498.0747812297,46.259844,0.671082,8.5234910864,0,0,-6.71082,267.6, -9.2, 0.2,0,0,1024,1024,1024,1024,268,0,75,3.905,3.913,3.909,3.89,0,0,13.368,89.51,3498.0747812297,46.259844,14,Waypoint,
391900,2021-04-02 10:55:02,40.1849126140392,33.3282576541103,46.916012,,,3498.7309492297,37.073492,0,8.3857942316,15,4,15.493,3498.7309492297,46.916012,0.671082,8.5234910864,0,0,-6.71082,267.6, -9.2, 0,0,0,1024,1024,1024,1024,268,0,75,3.905,3.913,3.909,3.89,0,0,13.368,89.51,3498.7309492297,46.916012,14,Waypoint,
392000,2021-04-02 10:55:02,40.1849125986911,33.328257567419,47.900264,,,3499.7152012297,37.073492,0,8.3752955436,15,4,15.493,3499.7152012297,47.900264,0.671082,8.5234910864,0,0,-6.71082,267.6, -9.3, -0.1,0,0,1024,1024,1024,1024,267.9,0,75,3.905,3.913,3.909,3.89,0,0,13.368,89.51,3499.7152012297,47.900264,14,Waypoint,
392100,2021-04-02 10:55:02,40.1849126855051,33.328257635176,48.884516,,,3500.6994532297,37.073492,0.223694,8.3620081416,15,4,15.493,3500.6994532297,48.884516,0.671082,8.5234910864,-0.223694,0,-6.71082,267.6, -9.5, 0.6,0,0,1024,1024,1024,1024,268,0,75,3.905,3.913,3.909,3.89,0,0,13.368,89.51,3500.6994532297,48.884516,14,Waypoint,
392200,2021-04-02 10:55:02,40.1849126480704,33.3282576537992,49.868768,,,3501.6837052297,37.073492,0.223694,8.3759517116,15,4,15.493,3501.6837052297,49.868768,0.671082,8.5234910864,-0.223694,0,-6.71082,267.6, -9.5, 0.7,0,0,1024,1024,1024,1024,268,0,75,3.905,3.913,3.909,3.89,0,0,13.368,89.51,3501.6837052297,49.868768,14,Waypoint,
392300,2021-04-02 10:55:02,40.1849125853607,33.3282576614205,50.85302,,,3502.6679572297,37.073492,0.223694,8.3952758592,15,4,15.493,3502.6679572297,50.85302,0.671082,8.5234910864,-0.223694,0,-6.934514,267.6, -9.4, 0.7,0,0,1024,1024,1024,1024,268,0,75,3.905,3.913,3.909,3.89,0,0,13.368,89.51,3502.6679572297,50.85302,14,Waypoint,
392400,2021-04-02 10:55:02,40.1849125219084,33.3282576629622,52.165356,,,3503.9802932297,37.073492,0,8.4137469884,15,4,15.493,3503.9802932297,52.165356,0.671082,8.5234910864,0,0,-6.934514,267.6, -9.4, 0.3,0,0,1024,1024,1024,1024,268,0,75,3.905,3.913,3.909,3.89,0,0,13.368,89.51,3503.9802932297,52.165356,14,Waypoint,
392500,2021-04-02 10:55:02,40.1849124171652,33.3282577688737,52.821524,,,3504.6364612297,37.073492,0,8.4620409532,15,4,15.493,3504.6364612297,52.821524,0.671082,8.5234910864,0,0,-6.71082,267.6, -9.3, 0.4,0,0,1024,1024,1024,1024,268,0,75,3.905,3.913,3.909,3.89,0,0,13.368,89.51,3504.6364612297,52.821524,14,Waypoint,
392600,2021-04-02 10:55:03,40.1849123447141,33.3282577467524,53.477692,,,3505.2926292297,37.073492,0.223694,8.4791013212,15,4,15.493,3505.2926292297,53.477692,0.671082,8.5234910864,-0.223694,0,-6.71082,267.6, -9.5, 0.5,0,0,1024,1024,1024,1024,268,0,75,3.905,3.913,3.909,3.89,0,0,13.368,89.51,3505.2926292297,53.477692,14,Waypoint,
392700,2021-04-02 10:55:03,40.1849122428224,33.3282577599321,54.461944,,,3506.2768812297,37.073492,0.223694,8.5106958104,15,4,15.493,3506.2768812297,54.461944,0.671082,8.5234910864,-0.223694,0,-6.71082,267.6, -9.3, 0.6,0,0,1024,1024,1024,1024,268,0,75,3.905,3.913,3.909,3.89,0,0,13.368,89.51,3506.2768812297,54.461944,14,Waypoint,
392800,2021-04-02 10:55:03,40.1849121376754,33.3282577659249,55.118112,,,3506.9330492297,37.073492,0.223694,8.5420934492,14,5,15.493,3506.9330492297,55.118112,0.671082,8.5420934492,-0.223694,0,-6.71082,267.6, -9.3, 0.9,0,0,1024,1024,1024,1024,268,0,75,3.905,3.913,3.909,3.89,0,0,13.368,89.51,3506.9330492297,55.118112,14,Waypoint,
392900,2021-04-02 10:55:03,40.1849119886776,33.3282576999674,56.430448,,,3508.2453852297,37.073492,0.223694,8.5740816392,14,5,15.514,3508.2453852297,56.430448,0.671082,8.5740816392,-0.223694,0,-6.934514,267.6, -9.4, 1,0,0,1024,1024,1024,1024,268,0,75,3.899,3.906,3.897,3.874,0,0,13.558,89.51,3508.2453852297,56.430448,14,Waypoint,
393000,2021-04-02 10:55:03,40.1849116419037,33.3282576133939,57.086616,,,3508.9015532297,37.073492,0,8.6606630068,15,5,15.514,3508.9015532297,57.086616,0.671082,8.6606630068,0,0,-6.934514,267.6, -9.2, 0.6,0,0,1024,1024,1024,1024,268,0,75,3.899,3.906,3.897,3.874,0,0,13.558,89.51,3508.9015532297,57.086616,14,Waypoint,
393100,2021-04-02 10:55:03,40.1849116291791,33.3282575012429,58.070868,,,3509.8858052297,37.073492,0,8.6457679932,15,5,15.514,3509.8858052297,58.070868,0.671082,8.6606630068,0,0,-6.934514,267.6, -8.8, 1,0,0,1024,1024,1024,1024,268,0,75,3.899,3.906,3.897,3.874,0,0,13.558,89.51,3509.8858052297,58.070868,14,Waypoint,
393200,2021-04-02 10:55:03,40.1849116280245,33.3282573831468,59.05512,,,3510.8700572297,37.073492,0.223694,8.6265750792,15,5,15.514,3510.8700572297,59.05512,0.671082,8.6606630068,-0.223694,0,-6.934514,267.6, -8.9, 1.4,0,0,1024,1024,1024,1024,268,0,75,3.899,3.906,3.897,3.874,0,0,13.558,89.51,3510.8700572297,59.05512,14,Waypoint,
393300,2021-04-02 10:55:03,40.1849114584872,33.3282572913933,60.039372,,,3511.8543092297,37.073492,0.223694,8.6614832168,15,5,15.514,3511.8543092297,60.039372,0.671082,8.6614832168,-0.223694,0,-7.158208,267.5, -8.7, 1.3,0,0,1024,1024,1024,1024,268,0,75,3.899,3.906,3.897,3.874,0,0,13.558,89.51,3511.8543092297,60.039372,14,Waypoint,
393400,2021-04-02 10:55:03,40.1849111266641,33.328257120696,61.023624,,,3512.8385612297,37.073492,0,8.7323165524,15,5,15.514,3512.8385612297,61.023624,0.671082,8.7323165524,0,0,-7.158208,267.5, -8.6, 1.5,0,0,1024,1024,1024,1024,268,0,75,3.899,3.906,3.897,3.874,0,0,13.558,89.51,3512.8385612297,61.023624,14,Waypoint,
393500,2021-04-02 10:55:03,40.1849110245769,33.328257057634,62.007876,,,3513.8228132297,37.073492,0,8.7527233772,15,5,15.514,3513.8228132297,62.007876,0.671082,8.7527233772,0,0,-7.158208,267.5, -8.4, 1.5,0,0,1024,1024,1024,1024,268,0,75,3.899,3.906,3.897,3.874,0,0,13.558,89.51,3513.8228132297,62.007876,14,Waypoint,
393600,2021-04-02 10:55:04,40.1849109395803,33.3282570006826,62.992128,,,3514.8070652297,37.073492,0,8.7690947688,15,5,15.514,3514.8070652297,62.992128,0.671082,8.7690947688,0,0,-7.158208,267.5, -8.5, 1.7,0,0,1024,1024,1024,1024,268,0,75,3.899,3.906,3.897,3.874,0,0,13.558,89.51,3514.8070652297,62.992128,14,Waypoint,
393700,2021-04-02 10:55:04,40.1849109485058,33.3282570229973,63.97638,,,3515.7913172297,37.073492,0,8.7699477872,15,5,15.514,3515.7913172297,63.97638,0.671082,8.7699477872,0,0,-7.158208,267.5, -8.7, 1.3,0,0,1024,1024,1024,1024,268,0,75,3.899,3.906,3.897,3.874,0,0,13.558,89.51,3515.7913172297,63.97638,14,Waypoint,
393800,2021-04-02 10:55:04,40.1849110810806,33.3282572750994,64.632548,,,3516.4474852297,37.073492,0,8.7707679972,15,5,15.514,3516.4474852297,64.632548,0.671082,8.7707679972,0,0,-7.158208,267.6, -8.9, 0.7,0,0,1024,1024,1024,1024,268,0,75,3.899,3.906,3.897,3.874,0,0,13.558,89.51,3516.4474852297,64.632548,14,Waypoint,
393900,2021-04-02 10:55:04,40.1849112171485,33.3282572436581,65.6168,,,3517.4317372297,37.073492,0,8.725229938,15,5,15.441,3517.4317372297,65.6168,0.671082,8.7707679972,0,0,-7.158208,267.6, -9.1, 0.6,0,0,1024,1024,1024,1024,268,0,74,3.885,3.903,3.896,3.866,0,0,14.21,89.51,3517.4317372297,65.6168,14,Waypoint,
394000,2021-04-02 10:55:04,40.1849113574423,33.3282571899638,66.601052,,,3518.4159892297,37.073492,0,8.674869044,15,5,15.441,3518.4159892297,66.601052,0.671082,8.7707679972,0,0,-7.158208,267.6, -8.8, 0.4,0,0,1024,1024,1024,1024,268,0,74,3.885,3.903,3.896,3.866,0,0,14.21,89.51,3518.4159892297,66.601052,14,Waypoint,
394100,2021-04-02 10:55:04,40.1849113959012,33.3282570411608,67.25722,,,3519.0721572297,37.073492,0,8.6393703552,15,5,15.441,3519.0721572297,67.25722,0.671082,8.7707679972,0,0,-7.158208,267.6, -8.7, 0.5,0,0,1024,1024,1024,1024,268,0,74,3.885,3.903,3.896,3.866,0,0,14.21,89.51,3519.0721572297,67.25722,14,Waypoint,
394200,2021-04-02 10:55:04,40.1849115788585,33.3282566711167,68.241472,,,3520.0564092297,37.073492,0,8.5252955484,15,5,15.441,3520.0564092297,68.241472,0.671082,8.7707679972,0,0,-7.158208,267.6, -8.6, 0.4,0,0,1024,1024,1024,1024,268,0,74,3.885,3.903,3.896,3.866,0,0,14.21,89.51,3520.0564092297,68.241472,14,Waypoint,
394300,2021-04-02 10:55:04,40.184911610136,33.3282566175738,69.225724,,,3521.0406612297,37.073492,0,8.5073493536,15,5,15.441,3521.0406612297,69.225724,0.671082,8.7707679972,0,0,-7.381902,267.6, -8.4, 0.5,0,0,1024,1024,1024,1024,267.9,0,74,3.885,3.903,3.896,3.866,0,0,14.21,89.51,3521.0406612297,69.225724,14,Waypoint,
394400,2021-04-02 10:55:04,40.1849116398161,33.3282565769723,70.53806,,,3522.3529972297,37.073492,0,8.4919950224,14,5,15.441,3522.3529972297,70.53806,0.671082,8.7707679972,0,0,-7.381902,267.6, -8.7, 0.5,0,0,1024,1024,1024,1024,267.9,0,74,3.885,3.903,3.896,3.866,0,0,14.21,89.51,3522.3529972297,70.53806,14,Waypoint,
394500,2021-04-02 10:55:04,40.1849116691557,33.3282565853336,71.522312,,,3523.3372492297,37.073492,0,8.484580324,14,5,15.441,3523.3372492297,71.522312,0.671082,8.7707679972,0,0,-7.381902,267.6, -8.8, 0.6,0,0,1024,1024,1024,1024,268,0,74,3.885,3.903,3.896,3.866,0,0,14.21,89.51,3523.3372492297,71.522312,14,Waypoint,
394600,2021-04-02 10:55:05,40.1849116976193,33.3282565947629,72.17848,,,3523.9934172297,37.073492,0,8.4775921348,15,5,15.441,3523.9934172297,72.17848,0.671082,8.7707679972,0,0,-7.158208,267.6, -8.7, 0.7,0,0,1024,1024,1024,1024,268,0,74,3.885,3.903,3.896,3.866,0,0,14.21,89.51,3523.9934172297,72.17848,14,Waypoint,
394700,2021-04-02 10:55:05,40.1849116606927,33.3282565355383,73.490816,,,3525.3057532297,37.073492,0,8.4791341296,15,5,15.441,3525.3057532297,73.490816,0.671082,8.7707679972,0,0,-7.158208,267.6, -8.6, 0.7,0,0,1024,1024,1024,1024,268,0,74,3.885,3.903,3.896,3.866,0,0,14.21,89.51,3525.3057532297,73.490816,14,Waypoint,
394800,2021-04-02 10:55:05,40.1849115884973,33.3282563465122,74.146984,,,3525.9619212297,37.073492,0,8.470636754,15,5,15.441,3525.9619212297,74.146984,0.671082,8.7707679972,0,0,-7.158208,267.5, -8.6, 0.9,0,0,1024,1024,1024,1024,267.9,0,74,3.885,3.903,3.896,3.866,0,0,14.21,89.51,3525.9619212297,74.146984,14,Waypoint,
394900,2021-04-02 10:55:05,40.1849115512255,33.3282562450911,75.131236,,,3526.9461732297,37.073492,0,8.4658139192,15,5,15.412,3526.9461732297,75.131236,0.671082,8.7707679972,0,0,-7.381902,267.5, -8.4, 0.9,0,0,1024,1024,1024,1024,267.9,0,74,3.885,3.903,3.896,3.866,0,0,14.21,89.51,3526.9461732297,75.131236,14,Waypoint,
395000,2021-04-02 10:55:05,40.1849115197802,33.328256152079,76.443572,,,3528.2585092297,37.073492,0,8.4606630004,15,5,15.412,3528.2585092297,76.443572,0.671082,8.7707679972,0,0,-7.381902,267.5, -8.4, 1,0,0,1024,1024,1024,1024,267.9,0,74,3.885,3.903,3.896,3.866,0,0,14.21,89.51,3528.2585092297,76.443572,14,Waypoint,
395100,2021-04-02 10:55:05,40.1849114232656,33.3282557692028,77.427824,,,3529.2427612297,37.073492,0,8.4303808472,15,5,15.412,3529.2427612297,77.427824,0.671082,8.7707679972,0,0,-7.381902,267.5, -8.3, 0.8,0,0,1024,1024,1024,1024,267.9,0,74,3.885,3.903,3.896,3.866,0,0,14.21,89.51,3529.2427612297,77.427824,14,Waypoint,
395200,2021-04-02 10:55:05,40.184911432196,33.3282556323126,78.083992,,,3529.8989292297,37.073492,0,8.4066275656,15,5,15.412,3529.8989292297,78.083992,0.671082,8.7707679972,0,0,-7.381902,267.5, -8, 1.1,0,0,1024,1024,1024,1024,267.9,0,74,3.885,3.903,3.896,3.866,0,0,14.21,89.51,3529.8989292297,78.083992,14,Waypoint,
395300,2021-04-02 10:55:05,40.1849114558801,33.3282554945618,79.396328,,,3531.2112652297,37.073492,0,8.3783795332,15,5,15.412,3531.2112652297,79.396328,0.671082,8.7707679972,0,0,-7.381902,267.5, -8, 0.7,0,0,1024,1024,1024,1024,267.9,0,74,3.885,3.903,3.896,3.866,0,0,14.21,89.51,3531.2112652297,79.396328,14,Waypoint,
395400,2021-04-02 10:55:05,40.1849114837786,33.3282553643679,80.38058,,,3532.1955172297,37.073492,0,8.350065884,15,5,15.412,3532.1955172297,80.38058,0.671082,8.7707679972,0,0,-7.158208,267.5, -8.2, 0.7,0,0,1024,1024,1024,1024,267.9,0,74,3.885,3.903,3.896,3.866,0,0,14.21,89.51,3532.1955172297,80.38058,14,Waypoint,
395500,2021-04-02 10:55:05,40.1849116886417,33.3282555072033,81.036748,,,3532.8516852297,37.073492,0,8.3093178512,15,5,15.412,3532.8516852297,81.036748,0.671082,8.7707679972,0,0,-7.158208,267.5, -8.4, 0.3,0,0,1024,1024,1024,1024,268,0,74,3.885,3.903,3.896,3.866,0,0,14.21,89.51,3532.8516852297,81.036748,14,Waypoint,
395600,2021-04-02 10:55:06,40.1849117609104,33.3282555564241,82.021,,,3533.8359372297,37.073492,0,8.294947772,15,5,15.412,3533.8359372297,82.021,0.671082,8.7707679972,0,0,-7.158208,267.6, -8.5, 0.4,0,0,1024,1024,1024,1024,267.9,0,74,3.885,3.903,3.896,3.866,0,0,14.21,89.51,3533.8359372297,82.021,14,Waypoint,
395700,2021-04-02 10:55:06,40.1849117836614,33.3282555528068,83.005252,,,3534.8201892297,37.073492,0,8.2874674568,15,5,15.412,3534.8201892297,83.005252,0.671082,8.7707679972,0,0,-7.381902,267.6, -8.8, 0.3,0,0,1024,1024,1024,1024,267.9,0,74,3.885,3.903,3.896,3.866,0,0,14.21,89.51,3534.8201892297,83.005252,14,Waypoint,
395800,2021-04-02 10:55:06,40.1849117928556,33.3282555355851,83.989504,,,3535.8044412297,37.073492,0,8.2820212624,14,5,15.412,3535.8044412297,83.989504,0.671082,8.7707679972,0,0,-7.158208,267.6, -9, 0.2,0,0,1024,1024,1024,1024,267.9,0,74,3.885,3.903,3.896,3.866,0,0,14.21,89.51,3535.8044412297,83.989504,14,Waypoint,
395900,2021-04-02 10:55:06,40.1849119075762,33.3282557518817,84.973756,,,3536.7886932297,37.073492,0,8.2809385852,14,5,15.44,3536.7886932297,84.973756,0.671082,8.7707679972,0,0,-7.158208,267.6, -9, 0.3,0,0,1024,1024,1024,1024,267.9,0,74,3.881,3.888,3.888,3.852,0,0,14.79,89.51,3536.7886932297,84.973756,14,Waypoint,
396000,2021-04-02 10:55:06,40.1849119538973,33.3282558132787,85.958008,,,3537.7729452297,37.073492,0.223694,8.276575068,15,5,15.44,3537.7729452297,85.958008,0.671082,8.7707679972,-0.223694,0,-7.158208,267.6, -8.9, 0.8,0,0,1024,1024,1024,1024,267.9,0,74,3.881,3.888,3.888,3.852,0,0,14.79,89.51,3537.7729452297,85.958008,14,Waypoint,
396100,2021-04-02 10:55:06,40.1849118841608,33.3282556944481,86.94226,,,3538.7571972297,37.073492,0.223694,8.279035698,15,5,15.44,3538.7571972297,86.94226,0.671082,8.7707679972,-0.223694,0,-7.158208,267.5, -8.9, 0.9,0,0,1024,1024,1024,1024,267.9,0,74,3.881,3.888,3.888,3.852,0,0,14.79,89.51,3538.7571972297,86.94226,14,Waypoint,
396200,2021-04-02 10:55:06,40.1849118035431,33.3282555470102,88.254596,,,3540.0695332297,37.073492,0,8.2805448844,15,5,15.44,3540.0695332297,88.254596,0.671082,8.7707679972,0,0,-7.381902,267.5, -8.5, 0.8,0,0,1024,1024,1024,1024,267.9,0,74,3.881,3.888,3.888,3.852,0,0,14.79,89.51,3540.0695332297,88.254596,14,Waypoint,
396300,2021-04-02 10:55:06,40.1849117877846,33.3282554275882,89.238848,,,3541.0537852297,37.073492,0,8.2669293984,15,5,15.44,3541.0537852297,89.238848,0.671082,8.7707679972,0,0,-7.381902,267.5, -8.5, 1,0,0,1024,1024,1024,1024,267.9,0,74,3.881,3.888,3.888,3.852,0,0,14.79,89.51,3541.0537852297,89.238848,14,Waypoint,
396400,2021-04-02 10:55:06,40.1849117488681,33.3282550718633,90.2231,,,3542.0380372297,37.073492,0,8.2245409456,14,5,15.44,3542.0380372297,90.2231,0.671082,8.7707679972,0,0,-7.158208,267.5, -8.2, 1,0,0,1024,1024,1024,1024,267.9,0,74,3.881,3.888,3.888,3.852,0,0,14.79,89.51,3542.0380372297,90.2231,14,Waypoint,
396500,2021-04-02 10:55:06,40.1849117647259,33.3282550016411,91.535436,,,3543.3503732297,37.073492,0,8.2090881892,14,5,15.44,3543.3503732297,91.535436,0.671082,8.7707679972,0,0,-7.381902,267.5, -8.3, 0.8,0,0,1024,1024,1024,1024,267.9,0,74,3.881,3.888,3.888,3.852,0,0,14.79,89.51,3543.3503732297,91.535436,14,Waypoint,
396600,2021-04-02 10:55:07,40.1849117898804,33.3282549461766,92.519688,,,3544.3346252297,37.073492,0,8.1930120732,14,5,15.44,3544.3346252297,92.519688,0.671082,8.7707679972,0,0,-7.158208,267.5, -8.4, 0.7,0,0,1024,1024,1024,1024,267.9,0,74,3.881,3.888,3.888,3.852,0,0,14.79,89.51,3544.3346252297,92.519688,14,Waypoint,
396700,2021-04-02 10:55:07,40.1849118236251,33.3282548803874,93.50394,,,3545.3188772297,37.073492,0,8.172736482,14,5,15.44,3545.3188772297,93.50394,0.671082,8.7707679972,0,0,-7.158208,267.5, -8.5, 0.5,0,0,1024,1024,1024,1024,267.9,0,74,3.881,3.888,3.888,3.852,0,0,14.79,89.51,3545.3188772297,93.50394,14,Waypoint,
396800,2021-04-02 10:55:07,40.1849119428044,33.3282547555528,94.488192,,,3546.3031292297,37.073492,0,8.1173559028,15,5,15.44,3546.3031292297,94.488192,0.671082,8.7707679972,0,0,-7.158208,267.5, -8.8, 0,0,0,1024,1024,1024,1024,267.9,0,74,3.881,3.888,3.888,3.852,0,0,14.79,89.51,3546.3031292297,94.488192,14,Waypoint,
396900,2021-04-02 10:55:07,40.1849121256395,33.328254754447,95.472444,,,3547.2873812297,37.073492,0,8.0610894968,15,5,15.352,3547.2873812297,95.472444,0.671082,8.7707679972,0,0,-6.934514,267.5, -8.7, -0.4,0,0,1024,1024,1024,1024,267.9,0,74,3.877,3.892,3.879,3.86,0,0,15.144,89.51,3547.2873812297,95.472444,14,Waypoint,
397000,2021-04-02 10:55:07,40.1849123146498,33.3282547666163,96.456696,,,3548.2716332297,37.073492,0,8.005085558,15,5,15.352,3548.2716332297,96.456696,0.671082,8.7707679972,0,0,-6.934514,267.6, -8.8, -0.3,0,0,1024,1024,1024,1024,267.9,0,74,3.877,3.892,3.879,3.86,0,0,15.144,89.51,3548.2716332297,96.456696,14,Waypoint,
397100,2021-04-02 10:55:07,40.1849123757034,33.3282548261394,97.440948,,,3549.2558852297,37.073492,0,7.9955383136,15,5,15.352,3549.2558852297,97.440948,0.671082,8.7707679972,0,0,-6.934514,267.6, -9.2, -0.5,0,0,1024,1024,1024,1024,267.9,0,74,3.877,3.892,3.879,3.86,0,0,15.144,89.51,3549.2558852297,97.440948,14,Waypoint,
397200,2021-04-02 10:55:07,40.1849125885915,33.3282550879455,98.4252,,,3550.2401372297,37.073492,0,7.9714241396,15,5,15.352,3550.2401372297,98.4252,0.671082,8.7707679972,0,0,-6.934514,267.5, -9.2, -0.9,0,0,1024,1024,1024,1024,267.9,0,74,3.877,3.892,3.879,3.86,0,0,15.144,89.51,3550.2401372297,98.4252,14,Waypoint,
397300,2021-04-02 10:55:07,40.1849126906852,33.3282552536016,99.737536,,,3551.5524732297,37.073492,0,7.9666669216,15,5,15.352,3551.5524732297,99.737536,0.671082,8.7707679972,0,0,-6.934514,267.6, -9.3, -1.3,0,0,1024,1024,1024,1024,267.9,0,74,3.877,3.892,3.879,3.86,0,0,15.144,89.51,3551.5524732297,99.737536,14,Waypoint,
397400,2021-04-02 10:55:07,40.1849127867129,33.3282554224685,100.721788,,,3552.5367252297,37.073492,0,7.9646656092,15,5,15.352,3552.5367252297,100.721788,0.671082,8.7707679972,0,0,-6.934514,267.6, -9.4, -1.5,0,0,1024,1024,1024,1024,267.9,0,74,3.877,3.892,3.879,3.86,0,0,15.144,89.51,3552.5367252297,100.721788,14,Waypoint,
397500,2021-04-02 10:55:07,40.1849128337912,33.3282554912739,101.377956,,,3553.1928932297,37.073492,0,7.9615816196,15,5,15.352,3553.1928932297,101.377956,0.671082,8.7707679972,0,0,-6.934514,267.6, -9.2, -1.1,0,0,1024,1024,1024,1024,267.9,0,74,3.877,3.892,3.879,3.86,0,0,15.144,89.51,3553.1928932297,101.377956,14,Waypoint,
397600,2021-04-02 10:55:08,40.1849129291578,33.3282557614133,102.362208,,,3554.1771452297,37.073492,0,7.9768375256,15,5,15.352,3554.1771452297,102.362208,0.671082,8.7707679972,0,0,-6.934514,267.6, -9, -0.3,0,0,1024,1024,1024,1024,267.9,0,74,3.877,3.892,3.879,3.86,0,0,15.144,89.51,3554.1771452297,102.362208,14,Waypoint,
397700,2021-04-02 10:55:08,40.1849128801172,33.3282556725216,103.34646,,,3555.1613972297,37.073492,0,7.9769687592,15,5,15.352,3555.1613972297,103.34646,0.671082,8.7707679972,0,0,-6.934514,267.5, -9, -0.4,0,0,1024,1024,1024,1024,267.9,0,74,3.877,3.892,3.879,3.86,0,0,15.144,89.51,3555.1613972297,103.34646,14,Waypoint,
397800,2021-04-02 10:55:08,40.1849128197133,33.3282555603679,104.658796,,,3556.4737332297,37.073492,0,7.976870334,14,5,15.352,3556.4737332297,104.658796,0.671082,8.7707679972,0,0,-6.934514,267.5, -9, -0.4,0,0,1024,1024,1024,1024,267.9,0,74,3.877,3.892,3.879,3.86,0,0,15.144,89.51,3556.4737332297,104.658796,14,Waypoint,
397900,2021-04-02 10:55:08,40.184912804546,33.3282554889235,105.643048,,,3557.4579852297,37.073492,0,7.9699477616,14,5,15.422,3557.4579852297,105.643048,0.671082,8.7707679972,0,0,-7.158208,267.5, -8.8, -0.1,0,0,1024,1024,1024,1024,267.9,0,74,3.874,3.876,3.873,3.848,0,0,14.944,89.51,3557.4579852297,105.643048,14,Waypoint,
398000,2021-04-02 10:55:08,40.1849127884798,33.3282554130533,106.6273,,,3558.4422372297,37.073492,0.31540854,7.9626314884,14,5,15.422,3558.4422372297,106.6273,0.671082,8.7707679972,-0.223694,-0.223694,-6.934514,267.5, -8.5, 0.1,0,0,1024,1024,1024,1024,267.9,0,74,3.874,3.876,3.873,3.848,0,0,14.944,89.51,3558.4422372297,106.6273,14,Waypoint,
398100,2021-04-02 10:55:08,40.1849126529769,33.3282551119406,107.611552,,,3559.4264892297,37.073492,0.31540854,7.9557417244,14,5,15.422,3559.4264892297,107.611552,0.671082,8.7707679972,-0.223694,-0.223694,-6.934514,267.5, -8.2, 0.2,0,0,1024,1024,1024,1024,267.9,0,74,3.874,3.876,3.873,3.848,0,0,14.944,89.51,3559.4264892297,107.611552,14,Waypoint,
398200,2021-04-02 10:55:08,40.1849125055246,33.3282549470133,108.595804,,,3560.4107412297,37.073492,0,7.9746721712,14,5,15.422,3560.4107412297,108.595804,0.671082,8.7707679972,0,0,-6.934514,267.5, -7.9, 0.2,0,0,1024,1024,1024,1024,267.9,0,74,3.874,3.876,3.873,3.848,0,0,14.944,89.51,3560.4107412297,108.595804,14,Waypoint,
398300,2021-04-02 10:55:08,40.1849124454317,33.3282548010203,109.580056,,,3561.3949932297,37.073492,0,7.9704398876,14,5,15.422,3561.3949932297,109.580056,0.671082,8.7707679972,0,0,-6.934514,267.5, -7.8, 0.4,0,0,1024,1024,1024,1024,267.9,0,74,3.874,3.876,3.873,3.848,0,0,14.944,89.51,3561.3949932297,109.580056,14,Waypoint,
398400,2021-04-02 10:55:08,40.184912394805,33.3282546642044,110.564308,,,3562.3792452297,37.073492,0.223694,7.9649936932,15,5,15.422,3562.3792452297,110.564308,0.671082,8.7707679972,-0.223694,0,-6.934514,267.5, -8, 0.5,0,0,1024,1024,1024,1024,267.9,0,74,3.874,3.876,3.873,3.848,0,0,14.944,89.51,3562.3792452297,110.564308,14,Waypoint,
398500,2021-04-02 10:55:08,40.1849119388,33.3282542969787,111.54856,,,3563.3634972297,37.073492,0.223694,8.0504595752,15,5,15.422,3563.3634972297,111.54856,0.671082,8.7707679972,-0.223694,0,-6.934514,267.5, -8, 0.8,0,0,1024,1024,1024,1024,267.9,0,74,3.874,3.876,3.873,3.848,0,0,14.944,89.51,3563.3634972297,111.54856,14,Waypoint,
398600,2021-04-02 10:55:09,40.1849117606727,33.3282541804999,112.532812,,,3564.3477492297,37.073492,0,8.0888125948,15,5,15.422,3564.3477492297,112.532812,0.671082,8.7707679972,0,0,-6.934514,267.5, -7.9, 0.8,0,0,1024,1024,1024,1024,267.9,0,74,3.874,3.876,3.873,3.848,0,0,14.944,89.51,3564.3477492297,112.532812,14,Waypoint,
398700,2021-04-02 10:55:09,40.1849116948151,33.3282541748645,113.517064,,,3565.3320012297,37.073492,0,8.1084976348,15,5,15.422,3565.3320012297,113.517064,0.671082,8.7707679972,0,0,-6.934514,267.5, -8.1, 1,0,0,1024,1024,1024,1024,267.9,0,74,3.874,3.876,3.873,3.848,0,0,14.944,89.51,3565.3320012297,113.517064,14,Waypoint,
398800,2021-04-02 10:55:09,40.1849116484794,33.3282541852104,114.8294,,,3566.6443372297,37.073492,0,8.1244425172,15,5,15.422,3566.6443372297,114.8294,0.671082,8.7707679972,0,0,-6.934514,267.5, -8.4, 0.7,0,0,1024,1024,1024,1024,267.9,0,74,3.874,3.876,3.873,3.848,0,0,14.944,89.51,3566.6443372297,114.8294,14,Waypoint,
398900,2021-04-02 10:55:09,40.1849117496628,33.3282544216955,115.485568,,,3567.3005052297,37.073492,0,8.1274280816,15,5,15.403,3567.3005052297,115.485568,0.671082,8.7707679972,0,0,-6.934514,267.5, -8.5, 0.6,0,0,1024,1024,1024,1024,267.9,0,74,3.874,3.876,3.873,3.848,0,0,15.446,89.51,3567.3005052297,115.485568,14,Waypoint,
399000,2021-04-02 10:55:09,40.1849117553444,33.3282544557128,116.46982,,,3568.2847572297,37.073492,0,8.1306761132,15,5,15.403,3568.2847572297,116.46982,0.671082,8.7707679972,0,0,-6.71082,267.5, -8.5, 0.2,0,0,1024,1024,1024,1024,267.9,0,74,3.874,3.876,3.873,3.848,0,0,15.446,89.51,3568.2847572297,116.46982,14,Waypoint,
399100,2021-04-02 10:55:09,40.1849116728311,33.3282544629515,117.454072,,,3569.2690092297,37.073492,0,8.157316534,15,5,15.403,3569.2690092297,117.454072,0.671082,8.7707679972,0,0,-6.934514,267.5, -8.6, 0.2,0,0,1024,1024,1024,1024,267.9,0,74,3.874,3.876,3.873,3.848,0,0,15.446,89.51,3569.2690092297,117.454072,14,Waypoint,
399200,2021-04-02 10:55:09,40.1849115718872,33.3282544639746,118.438324,,,3570.2532612297,37.073492,0,8.188812598,15,5,15.403,3570.2532612297,118.438324,0.671082,8.7707679972,0,0,-6.934514,267.5, -8.6, 0.6,0,0,1024,1024,1024,1024,267.9,0,74,3.874,3.876,3.873,3.848,0,0,15.446,89.51,3570.2532612297,118.438324,14,Waypoint,
399300,2021-04-02 10:55:09,40.1849115540785,33.3282546709316,119.75066,,,3571.5655972297,37.073492,0,8.2247049876,15,5,15.403,3571.5655972297,119.75066,0.671082,8.7707679972,0,0,-6.934514,267.5, -8.8, 0.7,0,0,1024,1024,1024,1024,267.9,0,74,3.874,3.876,3.873,3.848,0,0,15.446,89.51,3571.5655972297,119.75066,14,Waypoint,
399400,2021-04-02 10:55:09,40.1849115636896,33.3282547305262,120.406828,,,3572.2217652297,37.073492,0,8.2305448828,15,5,15.403,3572.2217652297,120.406828,0.671082,8.7707679972,0,0,-6.71082,267.5, -8.7, 0.7,0,0,1024,1024,1024,1024,267.9,0,74,3.874,3.876,3.873,3.848,0,0,15.446,89.51,3572.2217652297,120.406828,14,Waypoint,
399500,2021-04-02 10:55:09,40.1849115541176,33.328254745085,121.39108,,,3573.2060172297,37.073492,0,8.2356301848,15,5,15.403,3573.2060172297,121.39108,0.671082,8.7707679972,0,0,-6.71082,267.5, -8.8, 0.4,0,0,1024,1024,1024,1024,267.9,0,74,3.874,3.876,3.873,3.848,0,0,15.446,89.51,3573.2060172297,121.39108,14,Waypoint,
399600,2021-04-02 10:55:10,40.184911540735,33.328254742624,122.375332,,,3574.1902692297,37.073492,0,8.2394359592,15,5,15.403,3574.1902692297,122.375332,0.671082,8.7707679972,0,0,-6.71082,267.5, -8.6, 0.2,0,0,1024,1024,1024,1024,267.9,0,74,3.874,3.876,3.873,3.848,0,0,15.446,89.51,3574.1902692297,122.375332,14,Waypoint,
399700,2021-04-02 10:55:10,40.1849115526927,33.3282547054407,123.0315,,,3574.8464372297,37.073492,0,8.2302167988,15,5,15.403,3574.8464372297,123.0315,0.671082,8.7707679972,0,0,-6.934514,267.5, -8.7, 0.3,0,0,1024,1024,1024,1024,267.9,0,74,3.874,3.876,3.873,3.848,0,0,15.446,89.51,3574.8464372297,123.0315,14,Waypoint,
399800,2021-04-02 10:55:10,40.1849116117629,33.3282546146753,124.015752,,,3575.8306892297,37.073492,0,8.1985566928,15,5,15.403,3575.8306892297,124.015752,0.671082,8.7707679972,0,0,-6.934514,267.5, -8.4, 0.5,0,0,1024,1024,1024,1024,267.9,0,74,3.874,3.876,3.873,3.848,0,0,15.446,89.51,3575.8306892297,124.015752,14,Waypoint,
399900,2021-04-02 10:55:10,40.1849115807215,33.3282545083181,125.328088,,,3577.1430252297,37.073492,0,8.1925527556,15,5,15.34,3577.1430252297,125.328088,0.671082,8.7707679972,0,0,-6.934514,267.5, -8.4, 0.4,0,0,1024,1024,1024,1024,267.9,0,74,3.866,3.876,3.871,3.842,0,0,15.446,89.51,3577.1430252297,125.328088,14,Waypoint,
400000,2021-04-02 10:55:10,40.1849115432477,33.3282543947138,126.31234,,,3578.1272772297,37.073492,0,8.1876314956,15,5,15.34,3578.1272772297,126.31234,0.671082,8.7707679972,0,0,-6.934514,267.5, -8.4, 0.4,0,0,1024,1024,1024,1024,267.9,0,74,3.866,3.876,3.871,3.842,0,0,15.446,89.51,3578.1272772297,126.31234,14,Waypoint,
400100,2021-04-02 10:55:10,40.1849115741605,33.3282543274558,127.296592,,,3579.1115292297,37.073492,0,8.1682417312,15,5,15.34,3579.1115292297,127.296592,0.671082,8.7707679972,0,0,-6.934514,267.5, -8.2, 0.4,0,0,1024,1024,1024,1024,267.9,0,74,3.866,3.876,3.871,3.842,0,0,15.446,89.51,3579.1115292297,127.296592,14,Waypoint,
400200,2021-04-02 10:55:10,40.1849116863928,33.3282541811474,128.608928,,,3580.4238652297,37.073492,0,8.112040942,14,5,15.34,3580.4238652297,128.608928,0.671082,8.7707679972,0,0,-6.934514,267.6, -8.2, 0.4,0,0,1024,1024,1024,1024,267.9,0,74,3.866,3.876,3.871,3.842,0,0,15.446,89.51,3580.4238652297,128.608928,14,Waypoint,
400300,2021-04-02 10:55:10,40.1849117513059,33.3282541762716,129.59318,,,3581.4081172297,37.073492,0,8.0911091828,14,5,15.34,3581.4081172297,129.59318,0.671082,8.7707679972,0,0,-6.934514,267.6, -8.2, 0.1,0,0,1024,1024,1024,1024,267.9,0,74,3.866,3.876,3.871,3.842,0,0,15.446,89.51,3581.4081172297,129.59318,14,Waypoint,
400400,2021-04-02 10:55:10,40.1849118125858,33.3282541775526,130.577432,,,3582.3923692297,37.073492,0,8.0722115444,15,5,15.34,3582.3923692297,130.577432,0.671082,8.7707679972,0,0,-6.934514,267.6, -8.4, 0,0,0,1024,1024,1024,1024,267.9,0,74,3.866,3.876,3.871,3.842,0,0,15.446,89.51,3582.3923692297,130.577432,14,Waypoint,
400500,2021-04-02 10:55:10,40.1849117730944,33.3282541147513,131.561684,,,3583.3766212297,37.073492,0,8.0753939592,15,5,15.34,3583.3766212297,131.561684,0.671082,8.7707679972,0,0,-6.71082,267.6, -8.2, 0.1,0,0,1024,1024,1024,1024,267.9,0,74,3.866,3.876,3.871,3.842,0,0,15.446,89.51,3583.3766212297,131.561684,14,Waypoint,
400600,2021-04-02 10:55:11,40.1849116805988,33.3282540317039,132.87402,,,3584.6889572297,37.073492,0.223694,8.0922902852,15,5,15.34,3584.6889572297,132.87402,0.671082,8.7707679972,-0.223694,0,-6.934514,267.6, -8.3, 0.4,0,0,1024,1024,1024,1024,267.9,0,74,3.866,3.876,3.871,3.842,0,0,15.446,89.51,3584.6889572297,132.87402,14,Waypoint,
400700,2021-04-02 10:55:11,40.184911481261,33.3282539345392,133.858272,,,3585.6732092297,37.073492,0.223694,8.1408795256,15,5,15.34,3585.6732092297,133.858272,0.671082,8.7707679972,-0.223694,0,-6.71082,267.6, -8, 0.9,0,0,1024,1024,1024,1024,267.9,0,74,3.866,3.876,3.871,3.842,0,0,15.446,89.51,3585.6732092297,133.858272,14,Waypoint,
400800,2021-04-02 10:55:11,40.1849112652984,33.3282538391754,134.842524,,,3586.6574612297,37.073492,0.223694,8.1954070864,15,5,15.34,3586.6574612297,134.842524,0.671082,8.7707679972,-0.223694,0,-6.71082,267.7, -7.6, 1.4,0,0,1024,1024,1024,1024,267.9,0,74,3.866,3.876,3.871,3.842,0,0,15.446,89.51,3586.6574612297,134.842524,14,Waypoint,
400900,2021-04-02 10:55:11,40.1849111776278,33.3282536938313,135.826776,,,3587.6417132297,37.073492,0,8.2028874016,15,5,15.317,3587.6417132297,135.826776,0.671082,8.7707679972,0,0,-6.71082,267.6, -7.7, 1.6,0,0,1024,1024,1024,1024,267.8,0,74,3.86,3.865,3.861,3.842,0,0,15.73,89.51,3587.6417132297,135.826776,14,Waypoint,
