time(millisecond),datetime(utc),latitude,longitude,height_above_takeoff(feet),height_above_ground_at_drone_location(feet),ground_elevation_at_drone_location(feet),altitude_above_seaLevel(feet),height_sonar(feet),speed(mph),distance(feet),mileage(feet),satellites,gpslevel,voltage(v),max_altitude(feet),max_ascent(feet),max_speed(mph),max_distance(feet), xSpeed(mph), ySpeed(mph), zSpeed(mph), compass_heading(degrees), pitch(degrees), roll(degrees),isPhoto,isVideo,rc_elevator,rc_aileron,rc_throttle,rc_rudder,rc_elevator(percent),rc_aileron(percent),rc_throttle(percent),rc_rudder(percent),gimbal_heading(degrees),gimbal_pitch(degrees),battery_percent,voltageCell1,voltageCell2,voltageCell3,voltageCell4,voltageCell5,voltageCell6,current(A),battery_temperature(f),altitude(feet),ascent(feet),flycStateRaw,flycState,message
0,2021-12-09 10:52:14,40.1849125765532,33.3282370437846,0,Available with any HD 360 subscription,Available with any HD 360 subscription,3451.9114559336,0,0,0,0,11,4,0,3451.9114559336,0,0,0,0,0,-0.223694,259, -0.8, 0.2,0,0,1024,1024,1024,1024,0,0,0,0,258.8,0,93,4.19,4.195,4.2,4.197,0,0,0,60.71,3451.9114559336,0,41,Motors_Started,
100,2021-12-09 10:52:14,40.1849125051589,33.3282370183985,0,,,3451.9114559336,0,0,0.026992126848,0.026992126848,11,4,0,3451.9114559336,0,0,0.026992126848,0,0,0,258.9, -0.8, 0.2,0,0,1024,1024,1024,1024,0,0,0,0,258.8,0,93,4.19,4.195,4.2,4.197,0,0,0,60.71,3451.9114559336,0,41,Motors_Started,
200,2021-12-09 10:52:14,40.1849125794893,33.3282370727,0,,,3451.9114559336,0,0,0.0081305448796,0.058049214456,11,4,0,3451.9114559336,0,0,0.026992126848,0,0,0,258.6, -0.8, 0.2,0,0,1024,1024,1024,1024,0,0,0,0,258.8,0,93,4.19,4.195,4.2,4.197,0,0,0,60.71,3451.9114559336,0,41,Motors_Started,
300,2021-12-09 10:52:14,40.1849126415476,33.3282371272625,0,,,3451.9114559336,0,0,0.033222113924,0.08532480588,11,4,0,3451.9114559336,0,0,0.033222113924,0,0,0,258.9, -0.8, 0.2,0,0,1024,1024,1024,1024,0,0,0,0,258.8,0,93,4.19,4.195,4.2,4.197,0,0,0,60.71,3451.9114559336,0,41,Motors_Started,
400,2021-12-09 10:52:14,40.1849126830404,33.3282371860739,0,,,3451.9114559336,0,0,0.055519686816,0.107638454888,11,4,16.653,3451.9114559336,0,0,0.055519686816,0,0,0,258.8, -0.8, 0.2,0,0,1024,1024,1024,1024,0,0,0,0,258.8,0,93,4.19,4.195,4.2,4.197,0,0,1.298,60.71,3451.9114559336,0,41,Motors_Started,"Setting new Return-To-Home altitude to 200m (656 ft). Data Recorder File Index is 22. Setting new Maximum Flight Altitude to 500m (1640 ft)"
500,2021-12-09 10:52:14,40.1849126501702,33.3282372770225,-0.328084,,,3451.5833719336,0,0,0.070340881516,0.13568241904,11,4,16.653,3451.9114559336,0,0,0.070340881516,0,0,0,258.8, -0.8, 0.2,0,0,1024,1024,1024,1024,0,0,0,0,258.8,0,93,4.19,4.195,4.2,4.197,0,0,1.298,60.71,3451.5833719336,-0.328084,41,Motors_Started,
600,2021-12-09 10:52:14,40.1849126841485,33.3282372836575,-0.328084,,,3451.5833719336,0,0,0.07753281088,0.148216540176,11,4,16.653,3451.9114559336,0,0,0.07753281088,0,0,0,259, -0.7, 0.2,0,0,1024,1024,1024,1024,0,0,0,0,258.8,0,93,4.19,4.195,4.2,4.197,0,0,1.298,60.71,3451.5833719336,-0.328084,41,Motors_Started,
700,2021-12-09 10:52:15,40.1849127158348,33.3282372973495,-0.328084,,,3451.5833719336,0,0,0.087049215384,0.160390753164,11,4,16.653,3451.9114559336,0,0,0.087049215384,0,0,0,258.8, -0.7, 0.2,0,0,1024,1024,1024,1024,0,0,0,0,258.8,0,93,4.19,4.195,4.2,4.197,0,0,1.298,60.71,3451.5833719336,-0.328084,41,Motors_Started,
800,2021-12-09 10:52:15,40.1849127533322,33.3282373368392,-0.328084,,,3451.5833719336,0,0,0.104077759236,0.177949808844,11,4,16.653,3451.9114559336,0,0,0.104077759236,0,0,0,258.9, -0.6, 0.2,0,0,1024,1024,1024,1024,0,0,0,0,258.8,0,93,4.19,4.195,4.2,4.197,0,0,1.298,60.71,3451.5833719336,-0.328084,41,Motors_Started,
900,2021-12-09 10:52:15,40.1849127251446,33.3282373680481,-0.328084,,,3451.5833719336,0,0,0.10539534458,0.191419625548,11,4,16.653,3451.9114559336,0,0,0.10539534458,0,0,0,258.9, -0.6, 0.2,0,0,1024,1024,1024,1024,0,0,0,0,258.8,0,93,4.19,4.195,4.2,4.197,0,0,1.298,60.71,3451.5833719336,-0.328084,41,Motors_Started,
1000,2021-12-09 10:52:15,40.1849127713761,33.3282374260747,-0.328084,,,3451.5833719336,0,0,0.128089242944,0.214788720784,11,4,16.653,3451.9114559336,0,0,0.128089242944,0,0,0,258.8, -0.5, 0.2,0,0,1024,1024,1024,1024,0,0,0,0,258.8,0,93,4.19,4.195,4.2,4.197,0,0,1.298,60.71,3451.5833719336,-0.328084,41,Motors_Started,
1100,2021-12-09 10:52:15,40.1849128285516,33.3282374667175,-0.328084,,,3451.5833719336,0,0,0.1494996767,0.238526582436,11,4,16.653,3451.9114559336,0,0,0.1494996767,0,0,0,258.9, -0.6, 0.2,0,0,1024,1024,1024,1024,0,0,0,0,258.8,0,93,4.19,4.195,4.2,4.197,0,0,1.298,60.71,3451.5833719336,-0.328084,41,Motors_Started,
1200,2021-12-09 10:52:15,40.1849129298066,33.3282374733,-0.328084,,,3451.5833719336,0,0,0.175909126364,0.27551510068,11,4,16.653,3451.9114559336,0,0,0.175909126364,0,0,0,258.9, -0.6, 0.2,0,0,1024,1024,1024,1024,0,0,0,0,258.8,0,93,4.19,4.195,4.2,4.197,0,0,1.298,60.71,3451.5833719336,-0.328084,41,Motors_Started,
1300,2021-12-09 10:52:15,40.1849130074142,33.3282374740961,-0.328084,,,3451.5833719336,0,0,0.19773130554,0.303831046468,11,4,16.653,3451.9114559336,0,0,0.19773130554,0,0,0,258.9, -0.5, 0.2,0,0,1024,1024,1024,1024,0,0,0,0,258.8,0,93,4.19,4.195,4.2,4.197,0,0,1.298,60.71,3451.5833719336,-0.328084,41,Motors_Started,
1400,2021-12-09 10:52:15,40.1849130153057,33.328237336576,-0.328084,,,3451.5833719336,0,0,0.179681436196,0.34227035216,11,4,16.815,3451.9114559336,0,0,0.19773130554,0,0,0,258.9, -0.5, 0.2,0,0,1024,1024,1024,1024,0,0,0,0,258.8,0,93,4.19,4.195,4.2,4.197,0,0,1.298,60.71,3451.5833719336,-0.328084,41,Motors_Started,
1500,2021-12-09 10:52:15,40.1849130315925,33.3282373225635,-0.328084,,,3451.5833719336,0,0,0.18330545206,0.34937993244,11,4,16.815,3451.9114559336,0,0,0.19773130554,0,0,0,258.8, -0.5, 0.2,0,0,1024,1024,1024,1024,0,0,0,0,258.8,0,93,4.19,4.195,4.2,4.197,0,0,1.298,60.71,3451.5833719336,-0.328084,11,AutoTakeoff,
1600,2021-12-09 10:52:16,40.1849130640344,33.3282373022964,-0.328084,,,3451.5833719336,0,0,0.191898956272,0.36249673076,11,4,16.815,3451.9114559336,0,0,0.19773130554,0,0,0,258.8, -0.4, 0.2,0,0,1024,1024,1024,1024,0,0,0,0,258.8,0,93,4.19,4.195,4.2,4.197,0,0,1.298,60.71,3451.5833719336,-0.328084,11,AutoTakeoff,
1700,2021-12-09 10:52:16,40.1849131105232,33.3282373032733,-0.328084,,,3451.5833719336,0,0,0.20781168644,0.37945867356,11,4,16.815,3451.9114559336,0,0,0.20781168644,0,0,0,258.9, -0.4, 0.1,0,0,1024,1024,1024,1024,0,0,0,0,258.8,0,93,4.19,4.195,4.2,4.197,0,0,1.298,60.71,3451.5833719336,-0.328084,11,AutoTakeoff,
1800,2021-12-09 10:52:16,40.184913273756,33.3282373729989,-0.328084,,,3451.5833719336,0,0,0.270419299992,0.44210631336,11,4,16.815,3451.9114559336,0,0,0.270419299992,0,0,0,258.9, -0.3, 0.2,0,0,1024,1024,1024,1024,0,0,0,0,258.8,0,93,4.19,4.195,4.2,4.197,0,0,1.298,60.71,3451.5833719336,-0.328084,11,AutoTakeoff,
1900,2021-12-09 10:52:16,40.184913373797,33.3282374267243,-0.328084,,,3451.5833719336,0,0,0.309839576844,0.48155841436,11,4,16.815,3451.9114559336,0,0,0.309839576844,0,0,0,258.8, 0, 0.2,0,0,1024,1024,1024,1024,0,0,0,0,258.8,0,93,4.19,4.195,4.2,4.197,0,0,1.298,60.71,3451.5833719336,-0.328084,11,AutoTakeoff,
2000,2021-12-09 10:52:16,40.1849134975547,33.3282375094941,-0.328084,,,3451.5833719336,0,0,0.36022967032,0.53226379656,11,4,16.815,3451.9114559336,0,0,0.36022967032,0,0,0,259, 1.2, 0.4,0,0,1024,1024,1024,1024,0,0,0,0,258.8,0,93,4.19,4.195,4.2,4.197,0,0,1.298,60.71,3451.5833719336,-0.328084,11,AutoTakeoff,
2100,2021-12-09 10:52:16,40.1849136196115,33.3282376302697,-0.328084,,,3451.5833719336,0,0.223694,0.41418308412,0.58809057,11,4,16.815,3451.9114559336,0,0.223694,0.41418308412,0,0.223694,0,259.2, 4.8, 1.6,0,0,1024,1024,1024,1024,0,0,0,0,258.8,0,93,4.19,4.195,4.2,4.197,0,0,1.298,60.71,3451.5833719336,-0.328084,11,AutoTakeoff,
2200,2021-12-09 10:52:16,40.1849138317163,33.3282378746253,-0.328084,,,3451.5833719336,0,0.4921268,0.5131725886,0.69117784364,11,4,16.815,3451.9114559336,0,0.4921268,0.5131725886,0.223694,0.447388,-0.223694,259.5, 9, 5.1,0,0,1024,1024,1024,1024,0,0,0,0,258.8,0,93,4.19,4.195,4.2,4.197,0,0,1.298,60.71,3451.5833719336,-0.328084,11,AutoTakeoff,
2300,2021-12-09 10:52:16,40.1849140833109,33.3282382811421,-0.328084,,,3451.5833719336,0,1.006623,0.64897311788,0.83700461996,11,4,16.815,3451.9114559336,0,1.006623,0.64897311788,0.447388,0.894776,-0.447388,259.4, 6.9, 4.6,0,0,1024,1024,1024,1024,0,0,0,0,258.8,0,93,4.19,4.195,4.2,4.197,0,0,1.298,60.71,3451.5833719336,-0.328084,11,AutoTakeoff,
2400,2021-12-09 10:52:16,40.1849144712274,33.3282389427928,0,,,3451.9114559336,0,1.6105968,0.87064963416,1.06947838068,11,4,16.419,3451.9114559336,0,1.6105968,0.87064963416,0.894776,1.342164,-0.894776,259.1, -0.9, 0,0,0,1024,1024,1024,1024,0,0,0,0,258.8,0,93,4.127,4.136,4.142,4.134,0,0,5.044,60.71,3451.9114559336,0,11,AutoTakeoff,
2500,2021-12-09 10:52:16,40.1849149081772,33.3282396449103,0,,,3451.9114559336,0,1.6105968,1.1177329754,1.32189308692,11,4,16.419,3451.9114559336,0,1.6105968,1.1177329754,0.894776,1.342164,-0.894776,259.4, -5.7, -3.1,0,0,1024,1024,1024,1024,0,0,0,0,258.8,0,93,4.127,4.136,4.142,4.134,0,0,5.044,60.71,3451.9114559336,0,11,AutoTakeoff,
2600,2021-12-09 10:52:17,40.1849154737317,33.3282405413535,0,,,3451.9114559336,0,1.4987498,1.4379593636,1.6459482154,11,4,16.419,3451.9114559336,0,1.6105968,1.4379593636,0.671082,1.342164,-1.11847,259.5, -7.2, -3.3,0,0,1024,1024,1024,1024,0,0,0,0,258.8,0,93,4.127,4.136,4.142,4.134,0,0,5.044,60.71,3451.9114559336,0,11,AutoTakeoff,
2700,2021-12-09 10:52:17,40.1849159263024,33.328241257404,0,,,3451.9114559336,0,1.2974252,1.69500661592,1.90498365676,11,4,16.419,3451.9114559336,0,1.6105968,1.69500661592,0.671082,1.11847,-1.11847,259.5, -7.5, -3.5,0,0,1024,1024,1024,1024,0,0,0,0,258.8,0,93,4.127,4.136,4.142,4.134,0,0,5.044,60.71,3451.9114559336,0,11,AutoTakeoff,
2800,2021-12-09 10:52:17,40.1849164084244,33.3282421127433,0,,,3451.9114559336,0,1.006623,1.98766082476,2.2012631938,11,4,16.419,3451.9114559336,0,1.6105968,1.98766082476,0.447388,0.894776,-0.894776,259.4, -7.6, -3.1,0,0,1024,1024,1024,1024,0,0,0,0,258.8,0,93,4.127,4.136,4.142,4.134,0,0,5.044,60.71,3451.9114559336,0,11,AutoTakeoff,
2900,2021-12-09 10:52:17,40.1849168230344,33.328242861235,0.328084,,,3452.2395399336,0,0.9171454,2.24270348384,2.45896333328,11,4,16.419,3452.2395399336,0.328084,1.6105968,2.24270348384,0.223694,0.894776,-0.894776,259.4, -7.3, -2.1,0,0,1024,1024,1024,1024,0,0,0,0,258.8,0,93,4.127,4.136,4.142,4.134,0,0,5.044,60.71,3452.2395399336,0.328084,11,AutoTakeoff,
3000,2021-12-09 10:52:17,40.1849172352245,33.3282435280677,0.328084,,,3452.2395399336,0,0.671082,2.48105979068,2.69805126744,11,4,16.419,3452.2395399336,0.328084,1.6105968,2.48105979068,0,0.671082,-0.894776,259.3, -6.8, -1.9,0,0,1024,1024,1024,1024,0,0,0,0,258.8,0,93,4.127,4.136,4.142,4.134,0,0,5.044,60.71,3452.2395399336,0.328084,11,AutoTakeoff,
3100,2021-12-09 10:52:17,40.1849178480047,33.3282444095534,0.328084,,,3452.2395399336,0,0.447388,2.81321203228,3.03024287912,10,4,16.419,3452.2395399336,0.328084,1.6105968,2.81321203228,0,0.447388,-0.894776,259.2, -6.6, -2.1,0,0,1024,1024,1024,1024,0,0,0,0,258.8,0,93,4.127,4.136,4.142,4.134,0,0,5.044,60.71,3452.2395399336,0.328084,11,AutoTakeoff,
3200,2021-12-09 10:52:17,40.1849180081345,33.3282448437267,0.656168,,,3452.5676239336,0,0.447388,2.94174550096,3.16462608552,10,4,16.419,3452.5676239336,0.656168,1.6105968,2.94174550096,0,0.447388,-0.894776,259.2, -6.1, -1.7,0,0,1024,1024,1024,1024,0,0,0,0,258.8,0,93,4.127,4.136,4.142,4.134,0,0,5.044,60.71,3452.5676239336,0.656168,11,AutoTakeoff,
3300,2021-12-09 10:52:17,40.1849181363158,33.3282452118235,0.656168,,,3452.5676239336,2.296588,0.447388,3.04927503196,3.27738199464,9,4,16.419,3452.5676239336,0.656168,1.6105968,3.04927503196,0,0.447388,-0.894776,259.2, -5.7, -0.7,0,0,1024,1024,1024,1024,0,0,0,0,258.8,0,93,4.127,4.136,4.142,4.134,0,0,5.044,60.71,3452.5676239336,0.656168,11,AutoTakeoff,
3400,2021-12-09 10:52:17,40.1849182735155,33.3282455271216,0.984252,,,3452.8957079336,2.624672,0.447388,3.1482612556,3.3785106068,9,4,16.538,3452.8957079336,0.984252,1.6105968,3.1482612556,0,0.447388,-0.894776,259.3, -5.3, -0.3,0,0,1024,1024,1024,1024,0,0,0,0,258.8,0,93,4.127,4.136,4.142,4.134,0,0,7.832,60.71,3452.8957079336,0.984252,11,AutoTakeoff,
3500,2021-12-09 10:52:17,40.1849182311808,33.3282454296557,0.984252,,,3452.8957079336,2.624672,0.4921268,3.11766414176,3.409777012,9,4,16.538,3452.8957079336,0.984252,1.6105968,3.1482612556,0.223694,0.447388,-0.894776,259.4, -4.7, -0.3,0,0,1024,1024,1024,1024,0,0,0,0,258.8,0,93,4.127,4.136,4.142,4.134,0,0,7.832,60.71,3452.8957079336,0.984252,11,AutoTakeoff,
3600,2021-12-09 10:52:18,40.1849185528946,33.3282457193582,1.312336,,,3453.2237919336,2.952756,0.447388,3.25606309632,3.5522310848,9,4,16.538,3453.2237919336,1.312336,1.6105968,3.25606309632,0,0.447388,-0.894776,259.3, -4.7, -0.9,0,0,1024,1024,1024,1024,0,0,0,0,258.8,0,93,4.127,4.136,4.142,4.134,0,0,7.832,60.71,3453.2237919336,1.312336,11,AutoTakeoff,
3700,2021-12-09 10:52:18,40.18491884301,33.3282460097097,1.312336,,,3453.2237919336,3.28084,0.447388,3.387139216,3.6854988056,10,4,16.538,3453.2237919336,1.312336,1.6105968,3.387139216,0,0.447388,-0.894776,259.3, -4.9, -0.4,0,0,1024,1024,1024,1024,0,0,0,0,258.9,0,93,4.127,4.136,4.142,4.134,0,0,7.832,60.71,3453.2237919336,1.312336,11,AutoTakeoff,
3800,2021-12-09 10:52:18,40.1849191133887,33.3282463599275,1.64042,,,3453.5518759336,3.28084,0.447388,3.525754706,3.8242783376,10,4,16.538,3453.5518759336,1.64042,1.6105968,3.525754706,0,0.447388,-0.894776,259.2, -4.7, -0.8,0,0,1024,1024,1024,1024,0,0,0,0,258.9,0,93,4.127,4.136,4.142,4.134,0,0,7.832,60.71,3453.5518759336,1.64042,11,AutoTakeoff,
3900,2021-12-09 10:52:18,40.1849194844151,33.3282465868751,1.64042,,,3453.5518759336,3.608924,0.447388,3.664370196,3.9736877912,10,4,16.538,3453.5518759336,1.64042,1.6105968,3.664370196,0,0.447388,-0.894776,259.2, -5, -0.7,0,0,1024,1024,1024,1024,0,0,0,0,258.9,0,93,4.127,4.136,4.142,4.134,0,0,7.832,60.71,3453.5518759336,1.64042,11,AutoTakeoff,
4000,2021-12-09 10:52:18,40.1849196442208,33.328246927724,1.64042,,,3453.5518759336,3.608924,0.447388,3.7734909344,4.0851707344,10,4,16.538,3453.5518759336,1.64042,1.6105968,3.7734909344,0,0.447388,-0.894776,259.2, -5.3, 0,0,0,1024,1024,1024,1024,0,0,0,0,258.9,0,93,4.127,4.136,4.142,4.134,0,0,7.832,60.71,3453.5518759336,1.64042,14,Waypoint,
4100,2021-12-09 10:52:18,40.1849198303519,33.3282472702785,1.968504,,,3453.8799599336,3.937008,0.447388,3.8896326704,4.2023295308,9,4,16.538,3453.8799599336,1.968504,1.6105968,3.8896326704,0,0.447388,-0.894776,259.2, -5.8, 0,0,0,1024,1024,1024,1024,0,0,0,0,258.9,0,93,4.127,4.136,4.142,4.134,0,0,7.832,60.71,3453.8799599336,1.968504,14,Waypoint,
4200,2021-12-09 10:52:18,40.1849201258152,33.3282476867802,2.296588,,,3454.2080439336,3.937008,0.447388,4.048064434,4.3607612944,9,4,16.538,3454.2080439336,2.296588,1.6105968,4.048064434,0,0.447388,-0.894776,259.1, -4.9, -0.6,0,0,1024,1024,1024,1024,0,0,0,0,258.9,0,93,4.127,4.136,4.142,4.134,0,0,7.832,60.71,3454.2080439336,2.296588,14,Waypoint,
4300,2021-12-09 10:52:18,40.1849203237623,33.3282482073055,2.296588,,,3454.2080439336,4.265092,0.447388,4.2037731004,4.5228347904,11,4,16.538,3454.2080439336,2.296588,1.6105968,4.2037731004,0,0.447388,-1.11847,259.2, -6.1, -0.1,0,0,1024,1024,1024,1024,0,0,0,0,258.9,0,93,4.127,4.136,4.142,4.134,0,0,7.832,60.71,3454.2080439336,2.296588,14,Waypoint,
4400,2021-12-09 10:52:18,40.184920522382,33.3282486421978,2.624672,,,3454.5361279336,4.593176,0.7158208,4.3423229736,4.664042144,11,4,15.925,3454.5361279336,2.624672,1.6105968,4.3423229736,0.223694,0.671082,-1.11847,259.3, -7.1, -0.9,0,0,1024,1024,1024,1024,0,0,0,0,258.9,0,93,4.01,4.036,4.037,4.014,0,0,7.832,60.71,3454.5361279336,2.624672,14,Waypoint,
4500,2021-12-09 10:52:18,40.184920731085,33.3282490416756,2.624672,,,3454.5361279336,4.593176,0.4921268,4.4760828204,4.7989502848,9,4,15.925,3454.5361279336,2.624672,1.6105968,4.4760828204,0.223694,0.447388,-1.11847,259.2, -8.4, -1.1,0,0,1024,1024,1024,1024,0,0,0,0,258.9,0,93,4.01,4.036,4.037,4.014,0,0,7.832,60.71,3454.5361279336,2.624672,14,Waypoint,
4600,2021-12-09 10:52:19,40.1849210389635,33.3282494220831,3.28084,,,3455.1922959336,4.92126,0.4921268,4.6299870248,4.953412232,9,4,15.925,3455.1922959336,3.28084,1.6105968,4.6299870248,0.223694,0.447388,-1.342164,259.2, -8.4, -1.5,0,0,1024,1024,1024,1024,0,0,0,0,258.9,0,93,4.01,4.036,4.037,4.014,0,0,7.832,60.71,3455.1922959336,3.28084,14,Waypoint,
4700,2021-12-09 10:52:19,40.1849213315102,33.3282497559988,3.608924,,,3455.5203799336,5.249344,0.4921268,4.7705710188,5.0950132864,8,4,15.925,3455.5203799336,3.608924,1.6105968,4.7705710188,0.223694,0.447388,-1.565858,259.2, -8.1, -2.2,0,0,1024,1024,1024,1024,0,0,0,0,258.9,0,93,4.01,4.036,4.037,4.014,0,0,7.832,60.71,3455.5203799336,3.608924,14,Waypoint,
4800,2021-12-09 10:52:19,40.1849216015535,33.3282500592636,3.937008,,,3455.8484639336,5.577428,0.3131716,4.8993439888,5.2248361252,8,4,15.925,3455.8484639336,3.937008,1.6105968,4.8993439888,0.223694,0.223694,-2.013246,259.2, -8, -3.1,0,0,1024,1024,1024,1024,0,0,0,0,258.9,0,93,4.01,4.036,4.037,4.014,0,0,7.832,60.71,3455.8484639336,3.937008,14,Waypoint,
4900,2021-12-09 10:52:19,40.1849218186332,33.3282503196776,4.265092,,,3456.1765479336,5.905512,0.223694,5.0063321812,5.3322836352,11,4,15.925,3456.1765479336,4.265092,1.6105968,5.0063321812,0,0.223694,-2.460634,259.3, -8.2, -3.1,0,0,1024,1024,1024,1024,0,0,0,0,258.9,0,93,4.01,4.036,4.037,4.014,0,0,7.832,60.71,3456.1765479336,4.265092,14,Waypoint,
5000,2021-12-09 10:52:19,40.184922033293,33.3282505177039,4.92126,,,3456.8327159336,6.233596,0.3131716,5.099901738,5.4280841632,11,4,15.925,3456.8327159336,4.92126,1.6105968,5.099901738,0.223694,0.223694,-3.131716,259.3, -8.4, -2.6,0,0,1024,1024,1024,1024,0,0,0,0,258.9,0,93,4.01,4.036,4.037,4.014,0,0,7.832,60.71,3456.8327159336,4.92126,14,Waypoint,
5100,2021-12-09 10:52:19,40.1849222279247,33.3282506493761,5.249344,,,3457.1607999336,6.889764,0.223694,5.1750657824,5.508038234,10,4,15.925,3457.1607999336,5.249344,1.6105968,5.1750657824,0.223694,0,-3.802798,259.2, -7.7, -2.5,0,0,1024,1024,1024,1024,0,0,0,0,258.9,0,93,4.01,4.036,4.037,4.014,0,0,7.832,60.71,3457.1607999336,5.249344,14,Waypoint,
5200,2021-12-09 10:52:19,40.1849225539375,33.3282505543699,5.905512,,,3457.8169679336,7.545932,0.223694,5.2376314012,5.6298886316,10,4,15.925,3457.8169679336,5.905512,1.6105968,5.2376314012,0,0.223694,-4.697574,259.3, -7.4, -3.2,0,0,1024,1024,1024,1024,0,0,0,0,258.9,0,93,4.01,4.036,4.037,4.014,0,0,7.832,60.71,3457.8169679336,5.905512,14,Waypoint,
5300,2021-12-09 10:52:19,40.1849227273831,33.3282506200526,6.889764,,,3458.8012199336,8.530184,0,5.2948820592,5.6957678988,9,4,15.925,3458.8012199336,6.889764,1.6105968,5.2948820592,0,0,-5.368656,259.4, -7.5, -3.5,0,0,1024,1024,1024,1024,0,0,0,0,258.9,0,93,4.01,4.036,4.037,4.014,0,0,7.832,60.71,3458.8012199336,6.889764,14,Waypoint,
5400,2021-12-09 10:52:19,40.1849228093199,33.3282507502378,7.545932,,,3459.4573879336,9.186352,0,5.3417324544,5.742782336,9,4,16.218,3459.4573879336,7.545932,1.6105968,5.3417324544,0,0,-6.039738,259.4, -7.8, -3.8,0,0,1024,1024,1024,1024,0,0,0,0,258.9,0,93,3.988,4.009,4.011,3.99,0,0,11.224,60.71,3459.4573879336,7.545932,14,Waypoint,
5500,2021-12-09 10:52:19,40.1849228487006,33.3282508601476,8.530184,,,3460.4416399336,10.170604,0,5.373687836,5.7766077964,10,4,16.218,3460.4416399336,8.530184,1.6105968,5.373687836,0,0,-6.487126,259.4, -7.5, -4.2,0,0,1024,1024,1024,1024,0,0,0,0,258.9,0,93,3.988,4.009,4.011,3.99,0,0,11.224,60.71,3460.4416399336,8.530184,14,Waypoint,
5600,2021-12-09 10:52:20,40.1849226110862,33.3282510071691,9.514436,,,3461.4258919336,11.48294,0.223694,5.3433728744,5.8725067496,10,4,16.218,3461.4258919336,9.514436,1.6105968,5.373687836,-0.223694,0,-6.71082,259.3, -7.4, -3.6,0,0,1024,1024,1024,1024,0,0,0,0,258.9,0,93,3.988,4.009,4.011,3.99,0,0,11.224,60.71,3461.4258919336,9.514436,14,Waypoint,
5700,2021-12-09 10:52:20,40.1849225682906,33.3282510603546,10.498688,,,3462.4101439336,12.467192,0.223694,5.343504108,5.89402906,10,4,16.218,3462.4101439336,10.498688,1.6105968,5.373687836,-0.223694,0,-6.934514,259.3, -6.8, -2.6,0,0,1024,1024,1024,1024,0,0,0,0,258.9,0,93,3.988,4.009,4.011,3.99,0,0,11.224,60.71,3462.4101439336,10.498688,14,Waypoint,
5800,2021-12-09 10:52:20,40.1849225107593,33.3282510270816,11.811024,,,3463.7224799336,13.451444,0.223694,5.3224083068,5.91699494,10,4,16.218,3463.7224799336,11.811024,1.6105968,5.373687836,-0.223694,0,-6.934514,259.2, -6.6, -1.9,0,0,1024,1024,1024,1024,0,0,0,0,258.9,0,93,3.988,4.009,4.011,3.99,0,0,11.224,60.71,3463.7224799336,11.811024,14,Waypoint,
5900,2021-12-09 10:52:20,40.1849224903598,33.3282510250929,12.795276,,,3464.7067319336,14.435696,0,5.3169621124,5.9244424468,10,4,16.218,3464.7067319336,12.795276,1.6105968,5.373687836,0,0,-6.934514,259.2, -6.6, -1.6,0,0,1024,1024,1024,1024,0,0,0,0,258.9,0,93,3.988,4.009,4.011,3.99,0,0,11.224,60.71,3464.7067319336,12.795276,14,Waypoint,
6000,2021-12-09 10:52:20,40.1849226230357,33.3282510475071,13.779528,,,3465.6909839336,15.419948,0,5.3545605388,5.973261346,10,4,16.218,3465.6909839336,13.779528,1.6105968,5.373687836,0,0,-6.934514,259.3, -7.4, -1.8,0,0,1024,1024,1024,1024,0,0,0,0,258.9,0,93,3.988,4.009,4.011,3.99,0,0,11.224,60.71,3465.6909839336,13.779528,14,Waypoint,
6100,2021-12-09 10:52:20,40.1849227388555,33.328251159208,14.76378,,,3466.6752359336,16.732284,0,5.406168152,6.025754786,10,4,16.218,3466.6752359336,14.76378,1.6105968,5.406168152,0,0,-6.934514,259.2, -7.3, -3,0,0,1024,1024,1024,1024,0,0,0,0,258.9,0,93,3.988,4.009,4.011,3.99,0,0,11.224,60.71,3466.6752359336,14.76378,14,Waypoint,
6200,2021-12-09 10:52:20,40.1849228591487,33.3282513346813,15.748032,,,3467.6594879336,17.716536,0,5.4718833772,6.0914700112,10,4,16.218,3467.6594879336,15.748032,1.6105968,5.4718833772,0,0,-6.71082,259.2, -7.3, -3.7,0,0,1024,1024,1024,1024,0,0,0,0,258.9,0,93,3.988,4.009,4.011,3.99,0,0,11.224,60.71,3467.6594879336,15.748032,14,Waypoint,
6300,2021-12-09 10:52:20,40.1849229639846,33.3282515282704,16.732284,,,3468.6437399336,18.700788,0,5.537401752,6.1576117456,10,4,16.218,3468.6437399336,16.732284,1.6105968,5.537401752,0,0,-6.71082,259.3, -7.7, -3.5,0,0,1024,1024,1024,1024,0,0,0,0,258.9,0,93,3.988,4.009,4.011,3.99,0,0,11.224,60.71,3468.6437399336,16.732284,14,Waypoint,
6400,2021-12-09 10:52:20,40.1849230692424,33.3282517725587,17.716536,,,3469.6279919336,19.68504,0,5.613353198,6.2357613544,10,4,15.666,3469.6279919336,17.716536,1.6105968,5.613353198,0,0,-6.71082,259.3, -7.7, -3.4,0,0,1024,1024,1024,1024,0,0,0,0,258.9,0,93,3.893,3.914,3.912,3.88,0,0,16.48,60.71,3469.6279919336,17.716536,14,Waypoint,
6500,2021-12-09 10:52:20,40.1849232954446,33.3282522735009,18.700788,,,3470.6122439336,20.669292,0,5.7718505784,6.397966084,10,4,15.666,3470.6122439336,18.700788,1.6105968,5.7718505784,0,0,-6.71082,259.2, -8, -3.2,0,0,1024,1024,1024,1024,0,0,0,0,258.9,0,93,3.893,3.914,3.912,3.88,0,0,16.48,60.71,3470.6122439336,18.700788,14,Waypoint,
6600,2021-12-09 10:52:21,40.1849234548498,33.3282524417999,19.68504,,,3471.5964959336,21.653544,0,5.8457679036,6.4726708108,10,4,15.666,3471.5964959336,19.68504,1.6105968,5.8457679036,0,0,-6.71082,259.3, -8.2, -3.3,0,0,1024,1024,1024,1024,0,0,0,0,258.9,0,93,3.893,3.914,3.912,3.88,0,0,16.48,60.71,3471.5964959336,19.68504,14,Waypoint,
6700,2021-12-09 10:52:21,40.1849235899227,33.3282525956789,20.669292,,,3472.5807479336,22.96588,0,5.9107285356,6.5380251436,11,4,15.666,3472.5807479336,20.669292,1.6105968,5.9107285356,0,0,-6.71082,259.3, -8.7, -3.6,0,0,1024,1024,1024,1024,0,0,0,0,258.9,0,93,3.893,3.914,3.912,3.88,0,0,16.48,60.71,3472.5807479336,20.669292,14,Waypoint,
6800,2021-12-09 10:52:21,40.1849236721982,33.3282527387005,21.653544,,,3473.5649999336,23.950132,0,5.9603676448,6.58792672,11,4,15.666,3473.5649999336,21.653544,1.6105968,5.9603676448,0,0,-6.71082,259.3, -8.9, -3.6,0,0,1024,1024,1024,1024,0,0,0,0,258.9,0,93,3.893,3.914,3.912,3.88,0,0,16.48,60.71,3473.5649999336,21.653544,14,Waypoint,
6900,2021-12-09 10:52:21,40.1849238412307,33.3282528116472,22.637796,,,3474.5492519336,24.934384,0,6.0172574104,6.6528545436,11,4,15.666,3474.5492519336,22.637796,1.6105968,6.0172574104,0,0,-6.71082,259.4, -8.7, -3.7,0,0,1024,1024,1024,1024,0,0,0,0,258.9,0,93,3.893,3.914,3.912,3.88,0,0,16.48,60.71,3474.5492519336,22.637796,14,Waypoint,
7000,2021-12-09 10:52:21,40.1849238867098,33.3282528532185,23.622048,,,3475.5335039336,25.918636,0,6.037073684,6.6730973264,11,4,15.666,3475.5335039336,23.622048,1.6105968,6.037073684,0,0,-6.71082,259.4, -8.6, -3.6,0,0,1024,1024,1024,1024,0,0,0,0,258.9,0,93,3.893,3.914,3.912,3.88,0,0,16.48,60.71,3475.5335039336,23.622048,14,Waypoint,
7100,2021-12-09 10:52:21,40.1849239259749,33.3282528863962,24.6063,,,3476.5177559336,26.902888,0,6.0536091176,6.6901576944,10,4,15.666,3476.5177559336,24.6063,1.6105968,6.0536091176,0,0,-6.71082,259.4, -8.7, -3.6,0,0,1024,1024,1024,1024,0,0,0,0,258.9,0,93,3.893,3.914,3.912,3.88,0,0,16.48,60.71,3476.5177559336,24.6063,14,Waypoint,
7200,2021-12-09 10:52:21,40.1849239728041,33.3282529338243,25.590552,,,3477.5020079336,27.88714,0.223694,6.0749345776,6.7117456216,10,4,15.666,3477.5020079336,25.590552,1.6105968,6.0749345776,0,-0.223694,-6.71082,259.4, -8.5, -3.8,0,0,1024,1024,1024,1024,0,0,0,0,258.9,0,93,3.893,3.914,3.912,3.88,0,0,16.48,60.71,3477.5020079336,25.590552,14,Waypoint,
7300,2021-12-09 10:52:21,40.1849239666746,33.3282528402364,26.574804,,,3478.4862599336,28.871392,0.3131716,6.0544293276,6.7379267248,10,4,15.666,3478.4862599336,26.574804,1.6105968,6.0749345776,-0.223694,-0.223694,-6.71082,259.4, -8.2, -3.7,0,0,1024,1024,1024,1024,0,0,0,0,258.9,0,93,3.893,3.914,3.912,3.88,0,0,16.48,60.71,3478.4862599336,26.574804,14,Waypoint,
7400,2021-12-09 10:52:21,40.1849239135205,33.3282527951964,27.88714,,,3479.7985959336,29.855644,0.223694,6.031988382,6.7610238384,10,4,15.775,3479.7985959336,27.88714,1.6105968,6.0749345776,0,-0.223694,-6.71082,259.4, -8, -3.7,0,0,1024,1024,1024,1024,0,0,0,0,258.9,0,93,3.928,3.956,3.956,3.933,0,0,13.248,60.71,3479.7985959336,27.88714,14,Waypoint,
7500,2021-12-09 10:52:21,40.1849238801896,33.3282527448545,28.871392,,,3480.7828479336,30.839896,0.3131716,6.0134188276,6.7795933928,10,4,15.775,3480.7828479336,28.871392,1.6105968,6.0749345776,-0.223694,-0.223694,-6.71082,259.4, -7.8, -3.8,0,0,1024,1024,1024,1024,0,0,0,0,258.9,0,93,3.928,3.956,3.956,3.933,0,0,13.248,60.71,3480.7828479336,28.871392,14,Waypoint,
7600,2021-12-09 10:52:22,40.1849239123188,33.3282526962211,29.855644,,,3481.7670999336,31.824148,0.223694,6.0116143656,6.7975067792,10,4,15.775,3481.7670999336,29.855644,1.6105968,6.0749345776,-0.223694,0,-6.71082,259.4, -7.8, -3.6,0,0,1024,1024,1024,1024,0,0,0,0,258.9,0,93,3.928,3.956,3.956,3.933,0,0,13.248,60.71,3481.7670999336,29.855644,14,Waypoint,
7700,2021-12-09 10:52:22,40.1849237797455,33.3282526057992,30.839896,,,3482.7513519336,32.8084,0.223694,5.9600723692,6.8520671484,10,4,15.775,3482.7513519336,30.839896,1.6105968,6.0749345776,-0.223694,0,-6.71082,259.4, -7.6, -3.5,0,0,1024,1024,1024,1024,0,0,0,0,258.9,0,93,3.928,3.956,3.956,3.933,0,0,13.248,60.71,3482.7513519336,30.839896,14,Waypoint,
7800,2021-12-09 10:52:22,40.1849237087339,33.3282526027972,31.496064,,,3483.4075199336,33.792652,0.223694,5.9417324736,6.8779857844,10,4,15.775,3483.4075199336,31.496064,1.6105968,6.0749345776,-0.223694,0,-6.487126,259.4, -7.6, -3.5,0,0,1024,1024,1024,1024,0,0,0,0,258.9,0,93,3.928,3.956,3.956,3.933,0,0,13.248,60.71,3483.4075199336,31.496064,14,Waypoint,
7900,2021-12-09 10:52:22,40.1849236597308,33.3282526118999,32.480316,,,3484.3917719336,34.776904,0.223694,5.9313978276,6.8960304044,10,4,15.775,3484.3917719336,32.480316,1.6105968,6.0749345776,-0.223694,0,-6.487126,259.4, -7.7, -3.3,0,0,1024,1024,1024,1024,0,0,0,0,258.9,0,93,3.928,3.956,3.956,3.933,0,0,13.248,60.71,3484.3917719336,32.480316,14,Waypoint,
8000,2021-12-09 10:52:22,40.1849236736963,33.3282526675422,33.464568,,,3485.3760239336,35.761156,0.223694,5.946194416,6.9123689876,10,4,15.775,3485.3760239336,33.464568,1.6105968,6.0749345776,-0.223694,0,-6.487126,259.4, -7.6, -3.3,0,0,1024,1024,1024,1024,0,0,0,0,258.9,0,93,3.928,3.956,3.956,3.933,0,0,13.248,60.71,3485.3760239336,33.464568,14,Waypoint,
8100,2021-12-09 10:52:22,40.1849236913764,33.3282527050814,34.120736,,,3486.0321919336,36.745408,0.223694,5.9582679072,6.9246721376,10,4,15.775,3486.0321919336,34.120736,1.6105968,6.0749345776,-0.223694,0,-6.487126,259.4, -7.8, -3.3,0,0,1024,1024,1024,1024,0,0,0,0,258.9,0,93,3.928,3.956,3.956,3.933,0,0,13.248,60.71,3486.0321919336,34.120736,14,Waypoint,
8200,2021-12-09 10:52:22,40.1849237902213,33.3282529103772,35.104988,,,3487.0164439336,37.72966,0.223694,6.0247377256,6.99229025,10,4,15.775,3487.0164439336,35.104988,1.6105968,6.0749345776,0,-0.223694,-6.71082,259.4, -7.7, -3.5,0,0,1024,1024,1024,1024,0,0,0,0,258.9,0,93,3.928,3.956,3.956,3.933,0,0,13.248,60.71,3487.0164439336,35.104988,14,Waypoint,
8300,2021-12-09 10:52:22,40.184923820569,33.3282528792387,36.417324,,,3488.3287799336,38.713912,0.223694,6.025918828,7.0063650536,10,4,15.775,3488.3287799336,36.417324,1.6105968,6.0749345776,0,-0.223694,-6.71082,259.5, -7.9, -3.6,0,0,1024,1024,1024,1024,0,0,0,0,258.9,0,93,3.928,3.956,3.956,3.933,0,0,13.248,60.71,3488.3287799336,36.417324,14,Waypoint,
8400,2021-12-09 10:52:22,40.1849238544862,33.3282527916422,37.401576,,,3489.3130319336,39.698164,0.223694,6.0165028172,7.0337272592,10,4,15.717,3489.3130319336,37.401576,1.6105968,6.0749345776,0,-0.223694,-6.71082,259.4, -7.5, -4,0,0,1024,1024,1024,1024,0,0,0,0,258.9,0,93,3.928,3.956,3.956,3.933,0,0,13.248,60.71,3489.3130319336,37.401576,14,Waypoint,
8500,2021-12-09 10:52:23,40.1849238826534,33.3282526610477,38.385828,,,3490.2972839336,40.682416,0.223694,5.997047436,7.0715553444,10,4,15.717,3490.2972839336,38.385828,1.6105968,6.0749345776,0,-0.223694,-6.71082,259.4, -7.4, -4.4,0,0,1024,1024,1024,1024,0,0,0,0,258.9,0,93,3.928,3.956,3.956,3.933,0,0,13.248,60.71,3490.2972839336,38.385828,14,Waypoint,
8600,2021-12-09 10:52:23,40.184923933951,33.3282521736636,39.37008,,,3491.2815359336,40.682416,0.223694,5.9123033388,7.2086944564,10,4,15.717,3491.2815359336,39.37008,1.6105968,6.0749345776,0,-0.223694,-6.71082,259.5, -7.2, -4.5,0,0,1024,1024,1024,1024,0,0,0,0,258.9,0,93,3.928,3.956,3.956,3.933,0,0,13.248,60.71,3491.2815359336,39.37008,14,Waypoint,
8700,2021-12-09 10:52:23,40.1849239578077,33.3282519923573,40.354332,,,3492.2657879336,40.682416,0.223694,5.8825133116,7.2599739856,10,4,15.717,3492.2657879336,40.354332,1.6105968,6.0749345776,0,-0.223694,-6.71082,259.5, -7.1, -4.7,0,0,1024,1024,1024,1024,0,0,0,0,258.9,0,93,3.928,3.956,3.956,3.933,0,0,13.248,60.71,3492.2657879336,40.354332,14,Waypoint,
8800,2021-12-09 10:52:23,40.1849240024987,33.3282519270965,41.338584,,,3493.2500399336,40.682416,0.3131716,5.8811681672,7.2844162436,10,4,15.717,3493.2500399336,41.338584,1.6105968,6.0749345776,-0.223694,-0.223694,-6.71082,259.5, -7.3, -4.8,0,0,1024,1024,1024,1024,0,0,0,0,258.9,0,93,3.928,3.956,3.956,3.933,0,0,13.248,60.71,3493.2500399336,41.338584,14,Waypoint,
8900,2021-12-09 10:52:23,40.184924024854,33.328251860685,42.322836,,,3494.2342919336,40.682416,0.3131716,5.8739175108,7.304626218,10,4,15.717,3494.2342919336,42.322836,1.6105968,6.0749345776,-0.223694,-0.223694,-6.487126,259.5, -7.1, -4.7,0,0,1024,1024,1024,1024,0,0,0,0,258.9,0,93,3.928,3.956,3.956,3.933,0,0,13.248,60.71,3494.2342919336,42.322836,14,Waypoint,
9000,2021-12-09 10:52:23,40.1849239950795,33.3282517747044,43.307088,,,3495.2185439336,40.682416,0.223694,5.8493768276,7.3309385548,10,4,15.717,3495.2185439336,43.307088,1.6105968,6.0749345776,-0.223694,0,-6.71082,259.5, -7.1, -4.3,0,0,1024,1024,1024,1024,0,0,0,0,258.9,0,93,3.928,3.956,3.956,3.933,0,0,13.248,60.71,3495.2185439336,43.307088,14,Waypoint,
9100,2021-12-09 10:52:23,40.1849239487015,33.3282516740586,44.619424,,,3496.5308799336,40.682416,0.223694,5.8176182964,7.3637141464,10,4,15.717,3496.5308799336,44.619424,1.6105968,6.0749345776,-0.223694,0,-6.71082,259.5, -7.4, -4.1,0,0,1024,1024,1024,1024,0,0,0,0,258.9,0,93,3.928,3.956,3.956,3.933,0,0,13.248,60.71,3496.5308799336,44.619424,14,Waypoint,
9200,2021-12-09 10:52:23,40.18492391688,33.328251621599,45.603676,,,3497.5151319336,40.682416,0.3131716,5.7990815504,7.382382126,10,4,15.717,3497.5151319336,45.603676,1.6105968,6.0749345776,-0.223694,-0.223694,-6.71082,259.5, -7.3, -4.1,0,0,1024,1024,1024,1024,0,0,0,0,258.9,0,93,3.928,3.956,3.956,3.933,0,0,13.248,60.71,3497.5151319336,45.603676,14,Waypoint,
9300,2021-12-09 10:52:23,40.1849238685462,33.3282515575954,46.259844,,,3498.1712999336,40.682416,0.3131716,5.7740159328,7.407480552,9,4,15.717,3498.1712999336,46.259844,1.6105968,6.0749345776,-0.223694,-0.223694,-6.487126,259.4, -7, -3.6,0,0,1024,1024,1024,1024,0,0,0,0,258.9,0,93,3.928,3.956,3.956,3.933,0,0,13.248,60.71,3498.1712999336,46.259844,14,Waypoint,
9400,2021-12-09 10:52:23,40.1849237856014,33.3282515033643,46.916012,,,3498.8274679336,40.682416,0.4921268,5.7418308924,7.4413060124,9,4,15.618,3498.8274679336,46.916012,1.6105968,6.0749345776,-0.447388,-0.223694,-6.487126,259.4, -6.5, -3.1,0,0,1024,1024,1024,1024,0,0,0,0,258.9,0,93,3.927,3.947,3.944,3.921,0,0,13.448,60.71,3498.8274679336,46.916012,14,Waypoint,
9500,2021-12-09 10:52:23,40.1849236812198,33.328251372596,47.900264,,,3499.8117199336,40.682416,0.4921268,5.689140602,7.4939963028,10,4,15.618,3499.8117199336,47.900264,1.6105968,6.0749345776,-0.447388,-0.223694,-6.71082,259.5, -6.1, -2.9,0,0,1024,1024,1024,1024,0,0,0,0,258.9,0,93,3.927,3.947,3.944,3.921,0,0,13.448,60.71,3499.8117199336,47.900264,14,Waypoint,
9600,2021-12-09 10:52:24,40.1849235058917,33.3282512081848,48.884516,,,3500.7959719336,40.682416,0.4921268,5.6114175024,7.5727036544,10,4,15.618,3500.7959719336,48.884516,1.6105968,6.0749345776,-0.447388,-0.223694,-6.71082,259.4, -6.3, -2.8,0,0,1024,1024,1024,1024,0,0,0,0,258.9,0,93,3.927,3.947,3.944,3.921,0,0,13.448,60.71,3500.7959719336,48.884516,14,Waypoint,
9700,2021-12-09 10:52:24,40.1849233631048,33.3282510370757,49.868768,,,3501.7802239336,40.682416,0.3131716,5.540846634,7.6433401396,9,4,15.618,3501.7802239336,49.868768,1.6105968,6.0749345776,-0.223694,-0.223694,-6.71082,259.4, -6.3, -3.2,0,0,1024,1024,1024,1024,0,0,0,0,258.9,0,93,3.927,3.947,3.944,3.921,0,0,13.448,60.71,3501.7802239336,49.868768,14,Waypoint,
9800,2021-12-09 10:52:24,40.1849233064529,33.328250829487,50.85302,,,3502.7644759336,40.682416,0.4921268,5.4854988632,7.7047574644,9,4,15.618,3502.7644759336,50.85302,1.6105968,6.0749345776,-0.447388,-0.223694,-6.71082,259.4, -5.9, -3.4,0,0,1024,1024,1024,1024,0,0,0,0,258.9,0,93,3.927,3.947,3.944,3.921,0,0,13.448,60.71,3502.7644759336,50.85302,14,Waypoint,
9900,2021-12-09 10:52:24,40.1849231919896,33.3282505586389,51.509188,,,3503.4206439336,40.682416,0.4921268,5.4028545036,7.7910435564,10,4,15.618,3503.4206439336,51.509188,1.6105968,6.0749345776,-0.447388,-0.223694,-6.71082,259.3, -5.4, -2.9,0,0,1024,1024,1024,1024,0,0,0,0,258.9,0,93,3.927,3.947,3.944,3.921,0,0,13.448,60.71,3503.4206439336,51.509188,14,Waypoint,
10000,2021-12-09 10:52:24,40.1849230388263,33.3282504360595,52.821524,,,3504.7329799336,40.682416,0.4921268,5.3390093572,7.8565291228,10,4,15.618,3504.7329799336,52.821524,1.6105968,6.0749345776,-0.447388,-0.223694,-6.934514,259.3, -5.3, -2.5,0,0,1024,1024,1024,1024,0,0,0,0,258.9,0,93,3.927,3.947,3.944,3.921,0,0,13.448,60.71,3504.7329799336,52.821524,14,Waypoint,
10100,2021-12-09 10:52:24,40.1849229039455,33.328250326629,53.477692,,,3505.3891479336,40.682416,0.3131716,5.2825132924,7.9144359488,9,4,15.618,3505.3891479336,53.477692,1.6105968,6.0749345776,-0.223694,-0.223694,-6.934514,259.3, -5.4, -2.2,0,0,1024,1024,1024,1024,0,0,0,0,258.9,0,93,3.927,3.947,3.944,3.921,0,0,13.448,60.71,3505.3891479336,53.477692,14,Waypoint,
10200,2021-12-09 10:52:24,40.1849227987545,33.3282501873915,54.790028,,,3506.7014839336,40.682416,0.3131716,5.2279201148,7.9690291264,9,4,15.618,3506.7014839336,54.790028,1.6105968,6.0749345776,-0.223694,-0.223694,-6.934514,259.3, -5.7, -2.2,0,0,1024,1024,1024,1024,0,0,0,0,258.9,0,93,3.927,3.947,3.944,3.921,0,0,13.448,60.71,3506.7014839336,54.790028,14,Waypoint,
10300,2021-12-09 10:52:24,40.1849226562331,33.3282500257846,55.77428,,,3507.6857359336,40.682416,0.3131716,5.159284942,8.0378283412,10,4,15.618,3507.6857359336,55.77428,1.6105968,6.0749345776,-0.223694,-0.223694,-6.934514,259.3, -5.9, -2.4,0,0,1024,1024,1024,1024,0,0,0,0,258.9,0,93,3.927,3.947,3.944,3.921,0,0,13.448,60.71,3507.6857359336,55.77428,14,Waypoint,
10400,2021-12-09 10:52:24,40.1849226631524,33.3282498983477,56.758532,,,3508.6699879336,40.682416,0.223694,5.1362206368,8.0734254552,10,4,15.659,3508.6699879336,56.758532,1.6105968,6.0749345776,-0.223694,0,-6.934514,259.3, -6.1, -2.4,0,0,1024,1024,1024,1024,0,0,0,0,258.9,0,92,3.908,3.93,3.929,3.903,0,0,13.458,60.71,3508.6699879336,56.758532,14,Waypoint,
10500,2021-12-09 10:52:24,40.1849226838239,33.3282497909956,57.742784,,,3509.6542399336,40.682416,0.223694,5.1208334972,8.1042981596,9,4,15.659,3509.6542399336,57.742784,1.6105968,6.0749345776,-0.223694,0,-6.934514,259.4, -6.2, -3,0,0,1024,1024,1024,1024,0,0,0,0,258.9,0,92,3.908,3.93,3.929,3.903,0,0,13.458,60.71,3509.6542399336,57.742784,14,Waypoint,
10600,2021-12-09 10:52:25,40.1849227036762,33.3282497087514,58.727036,,,3510.6384919336,40.682416,0.223694,5.1101707672,8.1283139084,9,4,15.659,3510.6384919336,58.727036,1.6105968,6.0749345776,-0.223694,0,-6.934514,259.4, -6.2, -3.4,0,0,1024,1024,1024,1024,0,0,0,0,258.9,0,92,3.908,3.93,3.929,3.903,0,0,13.458,60.71,3510.6384919336,58.727036,14,Waypoint,
10700,2021-12-09 10:52:25,40.1849228417422,33.3282495910703,59.711288,,,3511.6227439336,40.682416,0,5.1242783792,8.1884517056,9,4,15.659,3511.6227439336,59.711288,1.6105968,6.0749345776,0,0,-6.934514,259.4, -6.3, -3.8,0,0,1024,1024,1024,1024,0,0,0,0,258.9,0,92,3.908,3.93,3.929,3.903,0,0,13.458,60.71,3511.6227439336,59.711288,14,Waypoint,
10800,2021-12-09 10:52:25,40.1849228349304,33.328249547799,60.69554,,,3512.6069959336,40.682416,0,5.1142390088,8.2007548556,9,4,15.659,3512.6069959336,60.69554,1.6105968,6.0749345776,0,0,-6.934514,259.4, -6.3, -3.9,0,0,1024,1024,1024,1024,0,0,0,0,258.9,0,92,3.908,3.93,3.929,3.903,0,0,13.458,60.71,3512.6069959336,60.69554,14,Waypoint,
10900,2021-12-09 10:52:25,40.1849228236893,33.328249526799,61.679792,,,3513.5912479336,40.682416,0.223694,5.1072508196,8.2079070868,9,4,15.659,3513.5912479336,61.679792,1.6105968,6.0749345776,-0.223694,0,-6.934514,259.4, -6.3, -4.1,0,0,1024,1024,1024,1024,0,0,0,0,258.9,0,92,3.908,3.93,3.929,3.903,0,0,13.458,60.71,3513.5912479336,61.679792,14,Waypoint,
11000,2021-12-09 10:52:25,40.1849228024332,33.3282495450871,62.992128,,,3514.9035839336,40.682416,0.223694,5.1050526568,8.217191864,9,4,15.659,3514.9035839336,62.992128,1.6105968,6.0749345776,-0.223694,0,-6.934514,259.4, -6.7, -3.9,0,0,1024,1024,1024,1024,0,0,0,0,258.9,0,92,3.908,3.93,3.929,3.903,0,0,13.458,60.71,3514.9035839336,62.992128,14,Waypoint,
11100,2021-12-09 10:52:25,40.1849227012417,33.3282496330354,64.304464,,,3516.2159199336,40.682416,0.223694,5.094980478,8.2615160124,10,4,15.659,3516.2159199336,64.304464,1.6105968,6.0749345776,-0.223694,0,-6.934514,259.4, -7, -4.1,0,0,1024,1024,1024,1024,0,0,0,0,258.9,0,92,3.908,3.93,3.929,3.903,0,0,13.458,60.71,3516.2159199336,64.304464,14,Waypoint,
11200,2021-12-09 10:52:25,40.1849226850061,33.3282496146015,65.288716,,,3517.2001719336,40.682416,0.223694,5.0871392704,8.26935722,10,4,15.659,3517.2001719336,65.288716,1.6105968,6.0749345776,-0.223694,0,-6.71082,259.3, -6.9, -3.6,0,0,1024,1024,1024,1024,0,0,0,0,258.9,0,92,3.908,3.93,3.929,3.903,0,0,13.458,60.71,3517.2001719336,65.288716,14,Waypoint,
11300,2021-12-09 10:52:25,40.1849226647108,33.3282496055941,66.272968,,,3518.1844239336,40.682416,0.223694,5.080052656,8.2771656192,9,4,15.659,3518.1844239336,66.272968,1.6105968,6.0749345776,-0.223694,0,-6.71082,259.4, -7, -3.2,0,0,1024,1024,1024,1024,0,0,0,0,258.9,0,92,3.908,3.93,3.929,3.903,0,0,13.458,60.71,3518.1844239336,66.272968,14,Waypoint,
11400,2021-12-09 10:52:25,40.1849226474607,33.3282496085134,67.585304,,,3519.4967599336,40.682416,0.223694,5.0760500312,8.2834976404,9,4,15.63,3519.4967599336,67.585304,1.6105968,6.0749345776,-0.223694,0,-6.71082,259.4, -6.8, -3.3,0,0,1024,1024,1024,1024,0,0,0,0,258.9,0,92,3.909,3.941,3.945,3.922,0,0,13.258,60.71,3519.4967599336,67.585304,14,Waypoint,
11500,2021-12-09 10:52:25,40.1849226423278,33.3282496080817,68.241472,,,3520.1529279336,40.682416,0.223694,5.0746064616,8.2853677192,9,4,15.63,3520.1529279336,68.241472,1.6105968,6.0749345776,-0.223694,0,-6.487126,259.4, -7.5, -3.1,0,0,1024,1024,1024,1024,0,0,0,0,258.9,0,92,3.909,3.941,3.945,3.922,0,0,13.258,60.71,3520.1529279336,68.241472,14,Waypoint,
11600,2021-12-09 10:52:26,40.1849226686321,33.3282495534527,69.225724,,,3521.1371799336,40.682416,0,5.0710959628,8.3033795308,9,4,15.63,3521.1371799336,69.225724,1.6105968,6.0749345776,0,0,-6.487126,259.4, -7.4, -3.8,0,0,1024,1024,1024,1024,0,0,0,0,258.9,0,92,3.909,3.941,3.945,3.922,0,0,13.258,60.71,3521.1371799336,69.225724,14,Waypoint,
11700,2021-12-09 10:52:26,40.1849226698078,33.328249540877,70.53806,,,3522.4495159336,40.682416,0.223694,5.0689962252,8.306922838,9,4,15.63,3522.4495159336,70.53806,1.6105968,6.0749345776,-0.223694,0,-6.487126,259.4, -7.4, -3.9,0,0,1024,1024,1024,1024,0,0,0,0,258.9,0,92,3.909,3.941,3.945,3.922,0,0,13.258,60.71,3522.4495159336,70.53806,14,Waypoint,
11800,2021-12-09 10:52:26,40.1849226343941,33.3282495393424,71.522312,,,3523.4337679336,40.682416,0.223694,5.0593177472,8.3198493476,9,4,15.63,3523.4337679336,71.522312,1.6105968,6.0749345776,-0.223694,0,-6.487126,259.4, -7.4, -3.5,0,0,1024,1024,1024,1024,0,0,0,0,258.9,0,92,3.909,3.941,3.945,3.922,0,0,13.258,60.71,3523.4337679336,71.522312,14,Waypoint,
11900,2021-12-09 10:52:26,40.1849225918526,33.3282495252783,72.506564,,,3524.4180199336,40.682416,0.223694,5.0453741772,8.3358598468,9,4,15.63,3524.4180199336,72.506564,1.6105968,6.0749345776,-0.223694,0,-6.487126,259.3, -7.1, -3.4,0,0,1024,1024,1024,1024,0,0,0,0,258.9,0,92,3.909,3.941,3.945,3.922,0,0,13.258,60.71,3524.4180199336,72.506564,14,Waypoint,
12000,2021-12-09 10:52:26,40.1849224168209,33.3282493942031,73.162732,,,3525.0741879336,40.682416,0.223694,4.9739502904,8.4094162796,9,4,15.63,3525.0741879336,73.162732,1.6105968,6.0749345776,-0.223694,0,-6.487126,259.3, -7.1, -3.5,0,0,1024,1024,1024,1024,0,0,0,0,258.9,0,92,3.909,3.941,3.945,3.922,0,0,13.258,60.71,3525.0741879336,73.162732,14,Waypoint,
12100,2021-12-09 10:52:26,40.1849223514845,33.32824935206,74.146984,,,3526.0584399336,40.682416,0.223694,4.9486222056,8.4359910836,10,4,15.63,3526.0584399336,74.146984,1.6105968,6.0749345776,-0.223694,0,-6.263432,259.3, -7.3, -3.6,0,0,1024,1024,1024,1024,0,0,0,0,258.9,0,92,3.909,3.941,3.945,3.922,0,0,13.258,60.71,3526.0584399336,74.146984,14,Waypoint,
12200,2021-12-09 10:52:26,40.1849222594286,33.3282493442999,75.131236,,,3527.0426919336,40.682416,0.223694,4.9229660368,8.469652502,10,4,15.63,3527.0426919336,75.131236,1.6105968,6.0749345776,-0.223694,0,-6.487126,259.2, -7.2, -3.2,0,0,1024,1024,1024,1024,0,0,0,0,258.9,0,92,3.909,3.941,3.945,3.922,0,0,13.258,60.71,3527.0426919336,75.131236,14,Waypoint,
12300,2021-12-09 10:52:26,40.1849221677748,33.3282493310726,75.787404,,,3527.6988599336,40.682416,0.223694,4.8964568496,8.503281112,10,4,15.63,3527.6988599336,75.787404,1.6105968,6.0749345776,-0.223694,0,-6.487126,259.2, -7.1, -2.9,0,0,1024,1024,1024,1024,0,0,0,0,258.9,0,92,3.909,3.941,3.945,3.922,0,0,13.258,60.71,3527.6988599336,75.787404,14,Waypoint,
12400,2021-12-09 10:52:26,40.1849220806156,33.3282491306091,77.09974,,,3529.0111959336,40.682416,0.223694,4.8346786324,8.567585576,10,4,15.583,3529.0111959336,77.09974,1.6105968,6.0749345776,-0.447388,0,-6.487126,259.3, -7.2, -2.4,0,0,1024,1024,1024,1024,0,0,0,0,258.9,0,92,3.909,3.941,3.945,3.922,0,0,13.03,60.71,3529.0111959336,77.09974,14,Waypoint,
12500,2021-12-09 10:52:26,40.1849220015742,33.3282490860022,77.755908,,,3529.6673639336,40.682416,0.447388,4.8053479228,8.5989832148,11,4,15.583,3529.6673639336,77.755908,1.6105968,6.0749345776,-0.447388,0,-6.487126,259.3, -7.6, -1.9,0,0,1024,1024,1024,1024,0,0,0,0,258.9,0,92,3.909,3.941,3.945,3.922,0,0,13.03,60.71,3529.6673639336,77.755908,14,Waypoint,
12600,2021-12-09 10:52:27,40.1849218629057,33.3282491044922,78.74016,,,3530.6516159336,40.682416,0.223694,4.7729004152,8.6498362348,11,4,15.583,3530.6516159336,78.74016,1.6105968,6.0749345776,-0.223694,0,-6.487126,259.3, -7.6, -1.8,0,0,1024,1024,1024,1024,0,0,0,0,258.9,0,92,3.909,3.941,3.945,3.922,0,0,13.03,60.71,3530.6516159336,78.74016,14,Waypoint,
12700,2021-12-09 10:52:27,40.1849217514403,33.3282491128479,79.724412,,,3531.6358679336,40.682416,0.223694,4.7457678684,8.6905842676,11,4,15.583,3531.6358679336,79.724412,1.6105968,6.0749345776,-0.223694,0,-6.487126,259.4, -7.3, -1.6,0,0,1024,1024,1024,1024,0,0,0,0,258.9,0,92,3.909,3.941,3.945,3.922,0,0,13.03,60.71,3531.6358679336,79.724412,14,Waypoint,
12800,2021-12-09 10:52:27,40.1849217693386,33.3282490680406,80.708664,,,3532.6201199336,40.682416,0.223694,4.7415355848,8.7046590712,11,4,15.583,3532.6201199336,80.708664,1.6105968,6.0749345776,-0.223694,0,-6.71082,259.4, -7.5, -1.1,0,0,1024,1024,1024,1024,0,0,0,0,258.9,0,92,3.909,3.941,3.945,3.922,0,0,13.03,60.71,3532.6201199336,80.708664,14,Waypoint,
12900,2021-12-09 10:52:27,40.1849217845482,33.3282490234659,82.021,,,3533.9324559336,40.682416,0,4.7366799416,8.7182745572,11,4,15.583,3533.9324559336,82.021,1.6105968,6.0749345776,0,0,-6.71082,259.4, -7.3, -1.9,0,0,1024,1024,1024,1024,0,0,0,0,258.9,0,92,3.909,3.941,3.945,3.922,0,0,13.03,60.71,3533.9324559336,82.021,14,Waypoint,
13000,2021-12-09 10:52:27,40.1849217946788,33.3282489466441,83.005252,,,3534.9167079336,40.682416,0,4.724245558,8.7400265264,11,4,15.583,3534.9167079336,83.005252,1.6105968,6.0749345776,0,0,-6.71082,259.4, -7.2, -3.3,0,0,1024,1024,1024,1024,0,0,0,0,258.9,0,92,3.909,3.941,3.945,3.922,0,0,13.03,60.71,3534.9167079336,83.005252,14,Waypoint,
13100,2021-12-09 10:52:27,40.1849218126259,33.3282488876662,83.989504,,,3535.9009599336,40.682416,0,4.7173886024,8.757710254,11,4,15.583,3535.9009599336,83.989504,1.6105968,6.0749345776,0,0,-6.71082,259.4, -7.3, -3.7,0,0,1024,1024,1024,1024,0,0,0,0,258.9,0,92,3.909,3.941,3.945,3.922,0,0,13.03,60.71,3535.9009599336,83.989504,14,Waypoint,
13200,2021-12-09 10:52:27,40.1849218210531,33.3282488731663,85.30184,,,3537.2132959336,40.682416,0,4.7167652428,8.762795556,11,4,15.583,3537.2132959336,85.30184,1.6105968,6.0749345776,0,0,-6.71082,259.3, -7.2, -3.7,0,0,1024,1024,1024,1024,0,0,0,0,258.9,0,92,3.909,3.941,3.945,3.922,0,0,13.03,60.71,3537.2132959336,85.30184,14,Waypoint,
13300,2021-12-09 10:52:27,40.184921785737,33.3282488276302,85.958008,,,3537.8694639336,40.682416,0,4.6986878144,8.7808729844,11,4,15.583,3537.8694639336,85.958008,1.6105968,6.0749345776,0,0,-6.487126,259.3, -7.1, -3.7,0,0,1024,1024,1024,1024,0,0,0,0,258.9,0,92,3.909,3.941,3.945,3.922,0,0,13.03,60.71,3537.8694639336,85.958008,14,Waypoint,
13400,2021-12-09 10:52:27,40.1849218169494,33.3282488226464,86.94226,,,3538.8537159336,40.682416,0,4.705872854,8.7923559244,11,4,15.66,3538.8537159336,86.94226,1.6105968,6.0749345776,0,0,-6.487126,259.3, -7.4, -3.8,0,0,1024,1024,1024,1024,0,0,0,0,258.9,0,92,3.903,3.931,3.925,3.9,0,0,13.03,60.71,3538.8537159336,86.94226,14,Waypoint,
13500,2021-12-09 10:52:27,40.1849218525569,33.3282488266085,87.926512,,,3539.8379679336,40.682416,0,4.7159450328,8.8053808592,10,4,15.66,3539.8379679336,87.926512,1.6105968,6.0749345776,0,0,-6.487126,259.3, -7.7, -4.1,0,0,1024,1024,1024,1024,0,0,0,0,258.9,0,92,3.903,3.931,3.925,3.9,0,0,13.03,60.71,3539.8379679336,87.926512,14,Waypoint,
13600,2021-12-09 10:52:28,40.184921911435,33.3282488403039,89.238848,,,3541.1503039336,40.682416,0.223694,4.7340224612,8.8271984452,10,4,15.66,3541.1503039336,89.238848,1.6105968,6.0749345776,-0.223694,0,-6.487126,259.3, -8, -3.8,0,0,1024,1024,1024,1024,0,0,0,0,258.9,0,92,3.903,3.931,3.925,3.9,0,0,13.03,60.71,3541.1503039336,89.238848,14,Waypoint,
13700,2021-12-09 10:52:28,40.1849219862131,33.3282488446808,89.895016,,,3541.8064719336,40.682416,0.223694,4.7545277112,8.854495034,11,4,15.66,3541.8064719336,89.895016,1.6105968,6.0749345776,-0.223694,0,-6.487126,259.3, -8.1, -3.5,0,0,1024,1024,1024,1024,0,0,0,0,258.9,0,92,3.903,3.931,3.925,3.9,0,0,13.03,60.71,3541.8064719336,89.895016,14,Waypoint,
13800,2021-12-09 10:52:28,40.184921900158,33.3282488517037,90.551184,,,3542.4626399336,40.682416,0.223694,4.733267868,8.8859582896,11,4,15.66,3542.4626399336,90.551184,1.6105968,6.0749345776,-0.223694,0,-6.263432,259.4, -8.1, -3.3,0,0,1024,1024,1024,1024,0,0,0,0,258.9,0,92,3.903,3.931,3.925,3.9,0,0,13.03,60.71,3542.4626399336,90.551184,14,Waypoint,
13900,2021-12-09 10:52:28,40.1849218073611,33.3282488766126,91.535436,,,3543.4468919336,40.682416,0.223694,4.7138781036,8.9205383432,10,4,15.66,3543.4468919336,91.535436,1.6105968,6.0749345776,-0.223694,0,-6.487126,259.3, -8, -2.8,0,0,1024,1024,1024,1024,0,0,0,0,258.9,0,92,3.903,3.931,3.925,3.9,0,0,13.03,60.71,3543.4468919336,91.535436,14,Waypoint,
14000,2021-12-09 10:52:28,40.184921747221,33.3282489840193,92.847772,,,3544.7592279336,40.682416,0.223694,4.7192914896,8.9576446436,10,4,15.66,3544.7592279336,92.847772,1.6105968,6.0749345776,-0.223694,0,-6.71082,259.4, -8, -2,0,0,1024,1024,1024,1024,0,0,0,0,258.9,0,92,3.903,3.931,3.925,3.9,0,0,13.03,60.71,3544.7592279336,92.847772,14,Waypoint,
14100,2021-12-09 10:52:28,40.1849215883989,33.3282492150564,93.175856,,,3545.0873119336,40.682416,0.223694,4.7244096,9.044291628,11,4,15.66,3545.0873119336,93.175856,1.6105968,6.0749345776,-0.223694,0,-6.487126,259.3, -8.2, -2.2,0,0,1024,1024,1024,1024,0,0,0,0,258.9,0,92,3.903,3.931,3.925,3.9,0,0,13.03,60.71,3545.0873119336,93.175856,14,Waypoint,
14200,2021-12-09 10:52:28,40.1849214408309,33.3282492240541,94.488192,,,3546.3996479336,40.682416,0.223694,4.6889109112,9.0981630208,11,4,15.66,3546.3996479336,94.488192,1.6105968,6.0749345776,-0.223694,0,-6.71082,259.3, -7.9, -2,0,0,1024,1024,1024,1024,0,0,0,0,258.9,0,92,3.903,3.931,3.925,3.9,0,0,13.03,60.71,3546.3996479336,94.488192,14,Waypoint,
14300,2021-12-09 10:52:28,40.1849213028187,33.3282492175371,95.472444,,,3547.3838999336,40.682416,0.223694,4.6529857132,9.1485567232,9,4,15.66,3547.3838999336,95.472444,1.6105968,6.0749345776,-0.223694,0,-6.71082,259.2, -8.2, -2.2,0,0,1024,1024,1024,1024,0,0,0,0,258.9,0,92,3.903,3.931,3.925,3.9,0,0,13.03,60.71,3547.3838999336,95.472444,14,Waypoint,
14400,2021-12-09 10:52:28,40.1849211642495,33.3282491710396,96.456696,,,3548.3681519336,40.682416,0.223694,4.6090224572,9.2007548876,9,4,15.567,3548.3681519336,96.456696,1.6105968,6.0749345776,-0.223694,0,-6.71082,259.2, -8, -1.9,0,0,1024,1024,1024,1024,0,0,0,0,258.9,0,92,3.901,3.921,3.928,3.903,0,0,13.422,60.71,3548.3681519336,96.456696,14,Waypoint,
14500,2021-12-09 10:52:28,40.1849207968595,33.3282489018003,97.440948,,,3549.3524039336,40.682416,0.223694,4.4631235024,9.3543638164,9,4,15.567,3549.3524039336,97.440948,1.6105968,6.0749345776,-0.223694,0,-6.71082,259.2, -8, -1.8,0,0,1024,1024,1024,1024,0,0,0,0,258.9,0,92,3.901,3.921,3.928,3.903,0,0,13.422,60.71,3549.3524039336,97.440948,14,Waypoint,
14600,2021-12-09 10:52:29,40.1849207273363,33.3282488531669,98.4252,,,3550.3366559336,40.682416,0,4.4360565724,9.3831367832,9,4,15.567,3550.3366559336,98.4252,1.6105968,6.0749345776,0,0,-6.71082,259.3, -7.8, -1.7,0,0,1024,1024,1024,1024,0,0,0,0,258.9,0,92,3.901,3.921,3.928,3.903,0,0,13.422,60.71,3550.3366559336,98.4252,14,Waypoint,
14700,2021-12-09 10:52:29,40.1849206859853,33.328248804085,99.409452,,,3551.3209079336,40.682416,0,4.4157809812,9.4035107996,10,4,15.567,3551.3209079336,99.409452,1.6105968,6.0749345776,0,0,-6.71082,259.3, -7.6, -2,0,0,1024,1024,1024,1024,0,0,0,0,258.9,0,92,3.901,3.921,3.928,3.903,0,0,13.422,60.71,3551.3209079336,99.409452,14,Waypoint,
14800,2021-12-09 10:52:29,40.1849206735765,33.328248740691,100.393704,,,3552.3051599336,40.682416,0,4.3996392484,9.42175227,10,4,15.567,3552.3051599336,100.393704,1.6105968,6.0749345776,0,0,-6.71082,259.3, -7.5, -2.3,0,0,1024,1024,1024,1024,0,0,0,0,258.9,0,92,3.901,3.921,3.928,3.903,0,0,13.422,60.71,3552.3051599336,100.393704,14,Waypoint,
14900,2021-12-09 10:52:29,40.1849206858713,33.3282486866421,101.377956,,,3553.2894119336,40.682416,0,4.3915027652,9.4374674936,10,4,15.567,3553.2894119336,101.377956,1.6105968,6.0749345776,0,0,-6.71082,259.3, -7.8, -2.6,0,0,1024,1024,1024,1024,0,0,0,0,258.9,0,92,3.901,3.921,3.928,3.903,0,0,13.422,60.71,3553.2894119336,101.377956,14,Waypoint,
15000,2021-12-09 10:52:29,40.1849208158797,33.3282485485047,102.690292,,,3554.6017479336,40.682416,0,4.3954397732,9.4985567344,10,4,15.567,3554.6017479336,102.690292,1.6105968,6.0749345776,0,0,-6.71082,259.3, -7.7, -2.9,0,0,1024,1024,1024,1024,0,0,0,0,258.9,0,92,3.901,3.921,3.928,3.903,0,0,13.422,60.71,3554.6017479336,102.690292,14,Waypoint,
15100,2021-12-09 10:52:29,40.1849208748913,33.3282485085634,103.674544,,,3555.5859999336,40.682416,0,4.4020998784,9.522802142,11,4,15.567,3555.5859999336,103.674544,1.6105968,6.0749345776,0,0,-6.71082,259.3, -7.8, -3.5,0,0,1024,1024,1024,1024,0,0,0,0,258.9,0,92,3.901,3.921,3.928,3.903,0,0,13.422,60.71,3555.5859999336,103.674544,14,Waypoint,
15200,2021-12-09 10:52:29,40.1849209202728,33.3282484767045,104.330712,,,3556.2421679336,40.682416,0,4.4070867552,9.5415685468,11,4,15.567,3556.2421679336,104.330712,1.6105968,6.0749345776,0,0,-6.487126,259.4, -7.7, -3.4,0,0,1024,1024,1024,1024,0,0,0,0,258.9,0,92,3.901,3.921,3.928,3.903,0,0,13.422,60.71,3556.2421679336,104.330712,14,Waypoint,
15300,2021-12-09 10:52:29,40.1849209585396,33.3282484488974,105.643048,,,3557.5545039336,40.682416,0,4.4111549968,9.5575462376,9,4,15.567,3557.5545039336,105.643048,1.6105968,6.0749345776,0,0,-6.71082,259.4, -7.7, -3.3,0,0,1024,1024,1024,1024,0,0,0,0,258.9,0,92,3.901,3.921,3.928,3.903,0,0,13.422,60.71,3557.5545039336,105.643048,14,Waypoint,
15400,2021-12-09 10:52:29,40.1849209959221,33.32824838686,106.6273,,,3558.5387559336,40.682416,0,4.4082022408,9.579560674,9,4,15.538,3558.5387559336,106.6273,1.6105968,6.0749345776,0,0,-6.71082,259.4, -7.7, -3.6,0,0,1024,1024,1024,1024,0,0,0,0,258.9,0,92,3.901,3.921,3.928,3.903,0,0,13.422,60.71,3558.5387559336,106.6273,14,Waypoint,
15500,2021-12-09 10:52:29,40.1849210129394,33.328248372468,106.955384,,,3558.8668399336,40.682416,0,4.4096458104,9.5869753724,11,4,15.538,3558.8668399336,106.955384,1.6105968,6.0749345776,0,0,-6.487126,259.4, -7.5, -3.4,0,0,1024,1024,1024,1024,0,0,0,0,258.9,0,92,3.901,3.921,3.928,3.903,0,0,13.422,60.71,3558.8668399336,106.955384,14,Waypoint,
15600,2021-12-09 10:52:30,40.1849209900711,33.3282483967252,108.26772,,,3560.1791759336,40.682416,0,4.4086943668,9.5977037192,11,4,15.538,3560.1791759336,108.26772,1.6105968,6.0749345776,0,0,-6.487126,259.4, -7.8, -3.3,0,0,1024,1024,1024,1024,0,0,0,0,258.9,0,92,3.901,3.921,3.928,3.903,0,0,13.422,60.71,3560.1791759336,108.26772,14,Waypoint,
15700,2021-12-09 10:52:30,40.1849209627979,33.3282484186432,108.923888,,,3560.8353439336,40.682416,0,4.40616812,9.6093835096,11,4,15.538,3560.8353439336,108.923888,1.6105968,6.0749345776,0,0,-6.487126,259.4, -8, -2.7,0,0,1024,1024,1024,1024,0,0,0,0,258.9,0,92,3.901,3.921,3.928,3.903,0,0,13.422,60.71,3560.8353439336,108.923888,14,Waypoint,
15800,2021-12-09 10:52:30,40.1849209453475,33.3282485405737,110.236224,,,3562.1476799336,40.682416,0,4.4262796692,9.6439635632,11,4,15.538,3562.1476799336,110.236224,1.6105968,6.0749345776,0,0,-6.71082,259.4, -7.7, -2.6,0,0,1024,1024,1024,1024,0,0,0,0,258.9,0,92,3.901,3.921,3.928,3.903,0,0,13.422,60.71,3562.1476799336,110.236224,14,Waypoint,
15900,2021-12-09 10:52:30,40.1849209472268,33.3282485478741,110.892392,,,3562.8038479336,40.682416,0,4.4282153648,9.6460961092,9,4,15.538,3562.8038479336,110.892392,1.6105968,6.0749345776,0,0,-6.71082,259.4, -7.7, -2.6,0,0,1024,1024,1024,1024,0,0,0,0,258.9,0,92,3.901,3.921,3.928,3.903,0,0,13.422,60.71,3562.8038479336,110.892392,14,Waypoint,
16000,2021-12-09 10:52:30,40.1849209357674,33.3282485442148,112.204728,,,3564.1161839336,40.682416,0,4.4246064408,9.6503940096,9,4,15.538,3564.1161839336,112.204728,1.6105968,6.0749345776,0,0,-6.71082,259.4, -7.6, -2.9,0,0,1024,1024,1024,1024,0,0,0,0,258.9,0,92,3.901,3.921,3.928,3.903,0,0,13.422,60.71,3564.1161839336,112.204728,14,Waypoint,
16100,2021-12-09 10:52:30,40.1849209342432,33.3282485271207,113.18898,,,3565.1004359336,40.682416,0,4.420767858,9.6552168444,11,4,15.538,3565.1004359336,113.18898,1.6105968,6.0749345776,0,0,-6.71082,259.4, -7.5, -2.9,0,0,1024,1024,1024,1024,0,0,0,0,258.9,0,92,3.901,3.921,3.928,3.903,0,0,13.422,60.71,3565.1004359336,113.18898,14,Waypoint,
16200,2021-12-09 10:52:30,40.1849209215674,33.3282483583605,114.501316,,,3566.4127719336,40.682416,0,4.3836287492,9.7024609404,11,4,15.538,3566.4127719336,114.501316,1.6105968,6.0749345776,0,0,-6.934514,259.4, -7.8, -3,0,0,1024,1024,1024,1024,0,0,0,0,258.9,0,92,3.901,3.921,3.928,3.903,0,0,13.422,60.71,3566.4127719336,114.501316,14,Waypoint,
16300,2021-12-09 10:52:30,40.18492094943,33.3282482973014,115.485568,,,3567.3970239336,40.682416,0,4.3784778304,9.7223100224,10,4,15.538,3567.3970239336,115.485568,1.6105968,6.0749345776,0,0,-6.71082,259.4, -7.7, -3.3,0,0,1024,1024,1024,1024,0,0,0,0,258.9,0,92,3.901,3.921,3.928,3.903,0,0,13.422,60.71,3567.3970239336,115.485568,14,Waypoint,
16400,2021-12-09 10:52:30,40.1849209993858,33.3282482734689,116.141736,,,3568.0531919336,40.682416,0,4.38648308,9.7416997868,10,4,15.577,3568.0531919336,116.141736,1.6105968,6.0749345776,0,0,-6.487126,259.4, -7.3, -3.6,0,0,1024,1024,1024,1024,0,0,0,0,258.9,0,92,3.902,3.919,3.914,3.9,0,0,13.412,60.71,3568.0531919336,116.141736,14,Waypoint,
16500,2021-12-09 10:52:30,40.1849210448227,33.3282482652673,117.125988,,,3569.0374439336,40.682416,0,4.396489642,9.7584320708,9,4,15.577,3569.0374439336,117.125988,1.6105968,6.0749345776,0,0,-6.71082,259.4, -7.2, -3.6,0,0,1024,1024,1024,1024,0,0,0,0,258.9,0,92,3.902,3.919,3.914,3.9,0,0,13.412,60.71,3569.0374439336,117.125988,14,Waypoint,
16600,2021-12-09 10:52:31,40.1849210806093,33.3282482959448,118.11024,,,3570.0216959336,40.682416,0,4.411745548,9.7740488692,9,4,15.577,3570.0216959336,118.11024,1.6105968,6.0749345776,0,0,-6.487126,259.4, -7.6, -3.6,0,0,1024,1024,1024,1024,0,0,0,0,258.9,0,92,3.902,3.919,3.914,3.9,0,0,13.412,60.71,3570.0216959336,118.11024,14,Waypoint,
16700,2021-12-09 10:52:31,40.1849211404009,33.3282483901325,119.422576,,,3571.3340319336,40.682416,0,4.4457350504,9.8081696052,9,4,15.577,3571.3340319336,119.422576,1.6105968,6.0749345776,0,0,-6.71082,259.4, -8, -3.5,0,0,1024,1024,1024,1024,0,0,0,0,258.9,0,92,3.902,3.919,3.914,3.9,0,0,13.412,60.71,3571.3340319336,119.422576,14,Waypoint,
16800,2021-12-09 10:52:31,40.1849212009009,33.3282483935774,120.078744,,,3571.9901999336,40.682416,0,4.4619752084,9.8302496584,9,4,15.577,3571.9901999336,120.078744,1.6105968,6.0749345776,0,0,-6.71082,259.4, -8.4, -3.7,0,0,1024,1024,1024,1024,0,0,0,0,258.9,0,92,3.902,3.919,3.914,3.9,0,0,13.412,60.71,3571.9901999336,120.078744,14,Waypoint,
16900,2021-12-09 10:52:31,40.1849212516806,33.3282483970531,121.062996,,,3572.9744519336,40.682416,0,4.475721928,9.8488192128,10,4,15.577,3572.9744519336,121.062996,1.6105968,6.0749345776,0,0,-6.71082,259.4, -8.2, -3.8,0,0,1024,1024,1024,1024,0,0,0,0,258.9,0,92,3.902,3.919,3.914,3.9,0,0,13.412,60.71,3572.9744519336,121.062996,14,Waypoint,
17000,2021-12-09 10:52:31,40.1849212861271,33.3282484138431,121.719164,,,3573.6306199336,40.682416,0,4.4879266528,9.8622378484,10,4,15.577,3573.6306199336,121.719164,1.6105968,6.0749345776,0,0,-6.487126,259.4, -8.1, -3.6,0,0,1024,1024,1024,1024,0,0,0,0,258.9,0,92,3.902,3.919,3.914,3.9,0,0,13.412,60.71,3573.6306199336,121.719164,14,Waypoint,
17100,2021-12-09 10:52:31,40.1849213525204,33.3282484062301,123.0315,,,3574.9429559336,40.682416,0,4.503609068,9.8865488728,9,4,15.577,3574.9429559336,123.0315,1.6105968,6.0749345776,0,0,-6.71082,259.4, -8.2, -3.5,0,0,1024,1024,1024,1024,0,0,0,0,258.9,0,92,3.902,3.919,3.914,3.9,0,0,13.412,60.71,3574.9429559336,123.0315,14,Waypoint,
