time(millisecond),datetime(utc),latitude,longitude,height_above_takeoff(feet),height_above_ground_at_drone_location(feet),ground_elevation_at_drone_location(feet),altitude_above_seaLevel(feet),height_sonar(feet),speed(mph),distance(feet),mileage(feet),satellites,gpslevel,voltage(v),max_altitude(feet),max_ascent(feet),max_speed(mph),max_distance(feet), xSpeed(mph), ySpeed(mph), zSpeed(mph), compass_heading(degrees), pitch(degrees), roll(degrees),isPhoto,isVideo,rc_elevator,rc_aileron,rc_throttle,rc_rudder,rc_elevator(percent),rc_aileron(percent),rc_throttle(percent),rc_rudder(percent),gimbal_heading(degrees),gimbal_pitch(degrees),battery_percent,voltageCell1,voltageCell2,voltageCell3,voltageCell4,voltageCell5,voltageCell6,current(A),battery_temperature(f),altitude(feet),ascent(feet),flycStateRaw,flycState,message
0,2021-12-14 08:13:12,40.1848750129901,33.3282056931266,0,Available with any HD 360 subscription,Available with any HD 360 subscription,3451.7740868347,0,0,0,0,12,4,17.012,3451.7740868347,0,0,0,0,0,0,252.4, -0.1, 1,0,0,364,364,364,1684,-100,-100,-100,100,256.9,0,100,4.256,4.256,4.258,4.257,0,0,1.298,49.91,3451.7740868347,0,41,Motors_Started,"Setting new Return-To-Home altitude to 203m (666 ft). Data Recorder File Index is 30. Setting new Maximum Flight Altitude to 500m (1640 ft)"
100,2021-12-14 08:13:12,40.1848749908445,33.3282056872925,0,,,3451.7740868347,0,0,0.0082418309724,0.0082418309724,12,4,17.012,3451.7740868347,0,0,0.0082418309724,0,0,0,252.2, -0.1, 1,0,0,364,364,364,1684,-100,-100,-100,100,256.9,0,100,4.256,4.256,4.258,4.257,0,0,1.298,49.91,3451.7740868347,0,41,Motors_Started,
200,2021-12-14 08:13:12,40.1848749478658,33.3282057291213,0,,,3451.7740868347,0,0,0.0257919299592,0.0277820218864,12,4,17.012,3451.7740868347,0,0,0.0257919299592,0,0,0,252.4, -0.1, 1,0,0,364,364,364,1684,-100,-100,-100,100,256.9,0,100,4.256,4.256,4.258,4.257,0,0,1.298,49.91,3451.7740868347,0,41,Motors_Started,
300,2021-12-14 08:13:12,40.1848748917219,33.3282057388939,0,,,3451.7740868347,0,0,0.046046917484,0.04844652386,13,4,17.012,3451.7740868347,0,0,0.046046917484,0,0,0,252.4, -0.1, 1,0,0,364,364,364,1684,-100,-100,-100,100,256.9,0,100,4.256,4.256,4.258,4.257,0,0,1.298,49.91,3451.7740868347,0,41,Motors_Started,
400,2021-12-14 08:13:12,40.1848748383428,33.3282057518059,0,,,3451.7740868347,0,0,0.06578576326,0.068251642604,13,4,17.012,3451.7740868347,0,0,0.06578576326,0,0,0,252.3, -0.1, 1,0,0,364,364,364,1684,-100,-100,-100,100,256.9,0,100,4.256,4.256,4.258,4.257,0,0,1.298,49.91,3451.7740868347,0,41,Motors_Started,
500,2021-12-14 08:13:12,40.184874786601,33.3282057703765,0,,,3451.7740868347,0,0,0.085358270448,0.087826118296,13,4,17.012,3451.7740868347,0,0,0.085358270448,0,0,0,252.3, -0.1, 1,0,0,466,421,364,1585,-85,-91,-100,85,256.9,0,100,4.256,4.256,4.258,4.257,0,0,1.298,49.91,3451.7740868347,0,41,Motors_Started,
600,2021-12-14 08:13:12,40.1848747306403,33.3282058232295,0,,,3451.7740868347,0,0,0.109211617668,0.113003284456,13,4,17.012,3451.7740868347,0,0,0.109211617668,0,0,0,252.3, -0.1, 1,0,0,898,868,683,1225,-19,-24,-52,30,256.5,0,100,4.256,4.256,4.258,4.257,0,0,1.298,49.91,3451.7740868347,0,41,Motors_Started,
700,2021-12-14 08:13:12,40.1848746787101,33.3282058780663,0,,,3451.7740868347,0,0,0.132408468804,0.137346789172,13,4,17.012,3451.7740868347,0,0,0.132408468804,0,0,0,252.3, -0.1, 1,0,0,1022,1024,1023,1024,-0,0,-0,0,255,0,100,4.256,4.256,4.258,4.257,0,0,1.298,49.91,3451.7740868347,0,41,Motors_Started,
800,2021-12-14 08:13:12,40.1848745548416,33.3282060059429,0,,,3451.7740868347,0,0,0.188529533592,0.194904533796,13,4,17.012,3451.7740868347,0,0,0.188529533592,0,0,0,252.4, -0.1, 0.9,0,0,1022,1024,1024,1024,-0,0,0,0,254.1,0,100,4.256,4.256,4.258,4.257,0,0,1.298,49.91,3451.7740868347,0,41,Motors_Started,
900,2021-12-14 08:13:13,40.184874504171,33.3282060638048,0,,,3451.7740868347,0,0,0.21245735588,0.219437999148,13,4,17.012,3451.7740868347,0,0,0.21245735588,0,0,0,252.3, 0, 1,0,0,1022,1024,1024,1024,-0,0,0,0,254.1,0,100,4.256,4.256,4.258,4.257,0,0,1.298,49.91,3451.7740868347,0,41,Motors_Started,
1000,2021-12-14 08:13:13,40.1848744532039,33.3282060794326,0,,,3451.7740868347,0,0,0.230883537572,0.23853675304,13,4,17.076,3451.7740868347,0,0,0.230883537572,0,0,0,252.4, 0, 1,0,0,1022,1024,1024,1024,-0,0,0,0,253.6,0,100,4.256,4.256,4.258,4.257,0,0,1.298,49.91,3451.7740868347,0,41,Motors_Started,
1100,2021-12-14 08:13:13,40.1848744050191,33.3282060905657,0,,,3451.7740868347,0,0,0.247941937068,0.256388787732,13,4,17.076,3451.7740868347,0,0,0.247941937068,0,0,0,252.4, 0, 1,0,0,1022,1024,1024,1024,-0,0,0,0,253.4,0,100,4.256,4.256,4.258,4.257,0,0,1.298,49.91,3451.7740868347,0,41,Motors_Started,
1200,2021-12-14 08:13:13,40.1848743405343,33.3282059556533,0,,,3451.7740868347,0,0,0.256024942576,0.300746728784,13,4,17.076,3451.7740868347,0,0,0.256024942576,0,0,0,252.3, -0.1, 1,0,0,1023,1024,1024,1024,-0,0,0,0,253.2,0,100,4.256,4.256,4.258,4.257,0,0,1.298,49.91,3451.7740868347,0,41,Motors_Started,
1300,2021-12-14 08:13:13,40.1848742925278,33.3282059466788,0,,,3451.7740868347,0,0,0.272195218684,0.318439642736,13,4,17.076,3451.7740868347,0,0,0.272195218684,0,0,0,252.3, 0, 1,0,0,1023,1024,1024,1024,-0,0,0,0,253.1,0,100,4.256,4.256,4.258,4.257,0,0,1.298,49.91,3451.7740868347,0,41,Motors_Started,
1400,2021-12-14 08:13:13,40.1848742423286,33.32820593269,0,,,3451.7740868347,0,0,0.288995416072,0.33716536512,13,4,17.076,3451.7740868347,0,0,0.288995416072,0,0,0,252.3, 0, 1,0,0,1022,1024,1024,1024,-0,0,0,0,253,0,100,4.256,4.256,4.258,4.257,0,0,1.298,49.91,3451.7740868347,0,41,Motors_Started,
1500,2021-12-14 08:13:13,40.1848742030505,33.3282059200275,0,,,3451.7740868347,0,0,0.3021981724,0.35192258344,13,4,17.076,3451.7740868347,0,0,0.3021981724,0,0,0,252.4, 0, 1,0,0,1023,1024,1024,1024,-0,0,0,0,253,0,100,4.256,4.256,4.258,4.257,0,0,1.298,49.91,3451.7740868347,0,10,Assisted_Takeoff,
1600,2021-12-14 08:13:13,40.1848742793798,33.3282058422121,0,,,3451.7740868347,0,0,0.270863853812,0.387221141,13,4,17.076,3451.7740868347,0,0,0.3021981724,0,0,0,252.3, 0, 1,0,0,1023,1024,1024,1024,-0,0,0,0,252.9,0,100,4.256,4.256,4.258,4.257,0,0,1.298,49.91,3451.7740868347,0,10,Assisted_Takeoff,
1700,2021-12-14 08:13:13,40.1848742757158,33.3282058370283,0,,,3451.7740868347,0,0,0.271968184556,0.389189645,13,4,17.076,3451.7740868347,0,0,0.3021981724,0,0,0,252.3, -0.1, 1,0,0,1023,1024,1024,1024,-0,0,0,0,252.9,0,100,4.256,4.256,4.258,4.257,0,0,1.298,49.91,3451.7740868347,0,10,Assisted_Takeoff,
1800,2021-12-14 08:13:13,40.1848742419565,33.3282058369085,0,,,3451.7740868347,0,0,0.284151583896,0.4015091992,13,4,17.076,3451.7740868347,0,0,0.3021981724,0,0,0,252.4, -0.1, 1,0,0,1022,1024,1024,1024,-0,0,0,0,252.9,0,100,4.256,4.256,4.258,4.257,0,0,1.298,49.91,3451.7740868347,0,10,Assisted_Takeoff,
1900,2021-12-14 08:13:13,40.1848742091881,33.3282058331297,0,,,3451.7740868347,0,0,0.295851715504,0.41351051192,13,4,17.076,3451.7740868347,0,0,0.3021981724,0,0,0,252.4, 0, 1,0,0,1022,1024,1024,1024,-0,0,0,0,252.8,0,100,4.256,4.256,4.258,4.257,0,0,1.298,49.91,3451.7740868347,0,10,Assisted_Takeoff,
2000,2021-12-14 08:13:14,40.1848741159223,33.328205687844,0,,,3451.7740868347,0,0,0.327297910736,0.4664042144,13,4,16.685,3451.7740868347,0,0,0.327297910736,0,0,0,252.4, 0, 1,0,0,1023,1024,1024,1024,-0,0,0,0,252.8,0,100,4.205,4.205,4.204,4.202,0,0,2.742,49.91,3451.7740868347,0,10,Assisted_Takeoff,
2100,2021-12-14 08:13:14,40.1848740714454,33.3282056465183,0,,,3451.7740868347,0,0,0.3437664152,0.48630578984,13,4,16.685,3451.7740868347,0,0,0.3437664152,0,0,0,252.4, -0.1, 1,0,0,1022,1024,1024,1024,-0,0,0,0,252.8,0,100,4.205,4.205,4.204,4.202,0,0,2.742,49.91,3451.7740868347,0,10,Assisted_Takeoff,
2200,2021-12-14 08:13:14,40.1848740681966,33.3282056381679,0,,,3451.7740868347,0,0,0.3450459428,0.48891733848,13,4,16.685,3451.7740868347,0,0,0.3450459428,0,0,0,252.4, 0, 1,0,0,1022,1024,1024,1024,-0,0,0,0,252.8,0,100,4.205,4.205,4.204,4.202,0,0,2.742,49.91,3451.7740868347,0,10,Assisted_Takeoff,
2300,2021-12-14 08:13:14,40.1848740630418,33.3282056270435,0,,,3451.7740868347,0,0,0.34707678276,0.49254266668,13,4,16.685,3451.7740868347,0,0,0.34707678276,0,0,0,252.4, 0, 1,0,0,1023,1024,1024,1024,-0,0,0,0,252.8,0,100,4.205,4.205,4.204,4.202,0,0,2.742,49.91,3451.7740868347,0,10,Assisted_Takeoff,
2400,2021-12-14 08:13:14,40.1848740262178,33.3282055841397,0,,,3451.7740868347,0,0,0.361302505,0.51052823156,13,4,16.685,3451.7740868347,0,0,0.361302505,0,0,0,252.4, 0, 1,0,0,1022,1024,1024,1024,-0,0,0,0,252.8,0,100,4.205,4.205,4.204,4.202,0,0,2.742,49.91,3451.7740868347,0,10,Assisted_Takeoff,
2500,2021-12-14 08:13:14,40.1848740256161,33.328205485038,0,,,3451.7740868347,0,0,0.36488190144,0.53815290436,13,4,16.685,3451.7740868347,0,0,0.36488190144,0,0,0,252.4, -0.1, 1,0,0,1022,1024,1024,1024,-0,0,0,0,252.8,0,100,4.205,4.205,4.204,4.202,0,0,2.742,49.91,3451.7740868347,0,10,Assisted_Takeoff,
2600,2021-12-14 08:13:14,40.1848739727315,33.3282054791997,0,,,3451.7740868347,0,0,0.38419292568,0.55751642204,13,4,16.685,3451.7740868347,0,0,0.38419292568,0,0,0,252.4, -0.1, 1,0,0,1023,1024,1024,1024,-0,0,0,0,252.7,0,100,4.205,4.205,4.204,4.202,0,0,2.742,49.91,3451.7740868347,0,10,Assisted_Takeoff,
2700,2021-12-14 08:13:14,40.1848739271245,33.3282054713212,0,,,3451.7740868347,0,0,0.40097114144,0.57430119948,13,4,16.685,3451.7740868347,0,0,0.40097114144,0,0,0,252.4, 0, 1,0,0,1023,1024,1024,1024,-0,0,0,0,252.7,0,100,4.205,4.205,4.204,4.202,0,0,2.742,49.91,3451.7740868347,0,10,Assisted_Takeoff,
2800,2021-12-14 08:13:14,40.1848739224077,33.3282054299037,0,,,3451.7740868347,0,0,0.40460631216,0.58597114736,13,4,16.685,3451.7740868347,0,0,0.40460631216,0,0,0,252.5, 0, 1,0,0,1023,1024,1024,1024,-0,0,0,0,252.7,0,100,4.205,4.205,4.204,4.202,0,0,2.742,49.91,3451.7740868347,0,10,Assisted_Takeoff,
2900,2021-12-14 08:13:15,40.1848739130588,33.3282053732744,0,,,3451.7740868347,0,0,0.41109253284,0.60212272268,13,4,16.685,3451.7740868347,0,0,0.41109253284,0,0,0,252.5, 0, 1,0,0,1023,1024,1024,1024,-0,0,0,0,252.7,0,100,4.205,4.205,4.204,4.202,0,0,2.742,49.91,3451.7740868347,0,10,Assisted_Takeoff,
3000,2021-12-14 08:13:15,40.1848738773292,33.3282053719213,0,,,3451.7740868347,0,0,0.42390749388,0.61516406168,13,4,16.971,3451.7740868347,0,0,0.42390749388,0,0,0,252.5, 0, 1,0,0,1023,1024,1024,1024,-0,0,0,0,252.7,0,100,4.212,4.218,4.216,4.211,0,0,3.328,49.91,3451.7740868347,0,10,Assisted_Takeoff,
3100,2021-12-14 08:13:15,40.1848738377604,33.3282053733974,0,,,3451.7740868347,0,0,0.43794620824,0.62960631936,13,4,16.971,3451.7740868347,0,0,0.43794620824,0,0,0,252.5, -0.1, 1,0,0,1023,1024,1024,1024,-0,0,0,0,252.7,0,100,4.212,4.218,4.216,4.211,0,0,3.328,49.91,3451.7740868347,0,10,Assisted_Takeoff,
3200,2021-12-14 08:13:15,40.1848737831611,33.3282053868318,0,,,3451.7740868347,0,0,0.45675198312,0.64987534888,13,4,16.971,3451.7740868347,0,0,0.45675198312,0,0,0,252.5, -0.1, 1,0,0,1023,1024,1024,1024,-0,0,0,0,252.7,0,100,4.212,4.218,4.216,4.211,0,0,3.328,49.91,3451.7740868347,0,10,Assisted_Takeoff,
3300,2021-12-14 08:13:15,40.1848736804999,33.3282054472736,0,,,3451.7740868347,0,0,0.49096458264,0.690944904,13,4,16.971,3451.7740868347,0,0,0.49096458264,0,0,0,252.5, 0, 1,0,0,1023,1024,1024,1024,-0,0,0,0,252.7,0,100,4.212,4.218,4.216,4.211,0,0,3.328,49.91,3451.7740868347,0,10,Assisted_Takeoff,
3400,2021-12-14 08:13:15,40.1848736755877,33.3282054596618,0,,,3451.7740868347,0,0,0.49227035696,0.69483598024,13,4,16.971,3451.7740868347,0,0,0.49227035696,0,0,0,252.5, 0, 1,0,0,1023,1024,1024,1024,-0,0,0,0,252.7,0,100,4.212,4.218,4.216,4.211,0,0,3.328,49.91,3451.7740868347,0,10,Assisted_Takeoff,
3500,2021-12-14 08:13:15,40.1848736692857,33.3282054724399,0,,,3451.7740868347,0,0,0.494094504,0.69907482552,13,4,16.971,3451.7740868347,0,0,0.494094504,0,0,0,252.5, -0.1, 1,0,0,1023,1024,1024,1024,-0,0,0,0,252.7,0,100,4.212,4.218,4.216,4.211,0,0,3.328,49.91,3451.7740868347,0,10,Assisted_Takeoff,
3600,2021-12-14 08:13:15,40.1848736309106,33.3282054819207,0,,,3451.7740868347,0,0,0.5076771816,0.71332351364,13,4,16.971,3451.7740868347,0,0,0.5076771816,0,0,0,252.4, 0, 1,0,0,1023,1024,1024,1024,-0,0,0,0,252.7,0,100,4.212,4.218,4.216,4.211,0,0,3.328,49.91,3451.7740868347,0,10,Assisted_Takeoff,
3700,2021-12-14 08:13:15,40.1848736140814,33.3282055372333,0,,,3451.7740868347,0,0,0.5122375492,0.72991800236,13,4,16.971,3451.7740868347,0,0,0.5122375492,0,0,0,252.4, -0.1, 1,0,0,1023,1024,1024,1024,-0,0,0,0,252.7,0,100,4.212,4.218,4.216,4.211,0,0,3.328,49.91,3451.7740868347,0,10,Assisted_Takeoff,
3800,2021-12-14 08:13:15,40.1848735600277,33.3282055439563,0,,,3451.7740868347,0,0,0.531742143,0.74972771428,13,4,16.971,3451.7740868347,0,0,0.531742143,0,0,0,252.4, -0.1, 1,0,0,1023,1024,1024,1024,-0,0,0,0,252.7,0,100,4.212,4.218,4.216,4.211,0,0,3.328,49.91,3451.7740868347,0,10,Assisted_Takeoff,
3900,2021-12-14 08:13:15,40.1848735133336,33.328205550351,0,,,3451.7740868347,0,0,0.54859253724,0.76685697992,13,4,16.971,3451.7740868347,0,0,0.54859253724,0,0,0,252.4, -0.1, 1,0,0,1023,1024,1024,1024,-0,0,0,0,252.7,0,100,4.212,4.218,4.216,4.211,0,0,3.328,49.91,3451.7740868347,0,10,Assisted_Takeoff,
4000,2021-12-14 08:13:16,40.184873507981,33.3282055538971,0,,,3451.7740868347,0,0,0.55047245856,0.7690453002,13,4,16.957,3451.7740868347,0,0,0.55047245856,0,0,0,252.4, -0.1, 1,0,0,1023,1024,1024,1024,-0,0,0,0,252.7,0,100,4.212,4.218,4.216,4.211,0,0,1.8,49.91,3451.7740868347,0,10,Assisted_Takeoff,
4100,2021-12-14 08:13:16,40.1848735004909,33.3282055579671,0,,,3451.7740868347,0,0,0.55312009644,0.77200461788,13,4,16.957,3451.7740868347,0,0,0.55312009644,0,0,0,252.4, -0.1, 1,0,0,1023,1024,1024,1024,-0,0,0,0,252.7,0,100,4.212,4.218,4.216,4.211,0,0,1.8,49.91,3451.7740868347,0,10,Assisted_Takeoff,
4200,2021-12-14 08:13:16,40.1848734500662,33.3282055323442,0,,,3451.7740868347,0,0,0.57199148812,0.79173887048,13,4,16.957,3451.7740868347,0,0,0.57199148812,0,0,0,252.4, -0.1, 1,0,0,1023,1024,1024,1024,-0,0,0,0,252.7,0,100,4.212,4.218,4.216,4.211,0,0,1.8,49.91,3451.7740868347,0,10,Assisted_Takeoff,
4300,2021-12-14 08:13:16,40.1848734105137,33.328205534862,0,,,3451.7740868347,0,0,0.58632547808,0.80618768984,13,4,16.957,3451.7740868347,0,0,0.58632547808,0,0,0,252.4, -0.1, 1,0,0,1023,1024,1024,1024,-0,0,0,0,252.7,0,100,4.212,4.218,4.216,4.211,0,0,1.8,49.91,3451.7740868347,0,10,Assisted_Takeoff,
4400,2021-12-14 08:13:16,40.1848733560528,33.3282055374096,0,,,3451.7740868347,0,0,0.60608925824,0.82606958024,13,4,16.957,3451.7740868347,0,0,0.60608925824,0,0,0,252.4, -0.1, 1,0,0,1022,1024,1024,1024,-0,0,0,0,252.7,0,100,4.212,4.218,4.216,4.211,0,0,1.8,49.91,3451.7740868347,0,10,Assisted_Takeoff,
4500,2021-12-14 08:13:16,40.1848733033206,33.3282055400871,0,,,3451.7740868347,0,0,0.6252296788,0.8453248302,13,4,16.957,3451.7740868347,0,0,0.6252296788,0,0,0,252.4, -0.1, 1,0,0,1023,1024,1024,1024,-0,0,0,0,252.7,0,100,4.212,4.218,4.216,4.211,0,0,1.8,49.91,3451.7740868347,0,10,Assisted_Takeoff,
4600,2021-12-14 08:13:16,40.1848731843082,33.3282055323358,0,,,3451.7740868347,0,0,0.66869752796,0.88879924104,13,4,16.957,3451.7740868347,0,0,0.66869752796,0,0,0,252.4, -0.1, 1,0,0,1023,1024,1024,1024,-0,0,0,0,252.7,0,100,4.212,4.218,4.216,4.211,0,0,1.8,49.91,3451.7740868347,0,10,Assisted_Takeoff,
4700,2021-12-14 08:13:16,40.1848731290339,33.3282055413225,0,,,3451.7740868347,0,0,0.68866143936,0.909120764,13,4,16.957,3451.7740868347,0,0,0.68866143936,0,0,0,252.4, 0, 1,0,0,1021,1024,1024,1024,-0,0,0,0,252.7,0,100,4.212,4.218,4.216,4.211,0,0,1.8,49.91,3451.7740868347,0,10,Assisted_Takeoff,
4800,2021-12-14 08:13:16,40.1848730721996,33.328205595912,0,,,3451.7740868347,0,0,0.70861550824,0.9348425496,13,4,16.957,3451.7740868347,0,0,0.70861550824,0,0,0,252.4, 0, 1,0,0,1022,1024,1024,1024,-0,0,0,0,252.7,0,100,4.212,4.218,4.216,4.211,0,0,1.8,49.91,3451.7740868347,0,10,Assisted_Takeoff,
4900,2021-12-14 08:13:16,40.1848730227348,33.3282056460212,0,,,3451.7740868347,0,0,0.7262631466,0.9576607918,13,4,16.957,3451.7740868347,0,0,0.7262631466,0,0,0,252.4, -0.1, 1,0,0,1023,1024,1024,1024,-0,0,0,0,252.7,0,100,4.212,4.218,4.216,4.211,0,0,1.8,49.91,3451.7740868347,0,10,Assisted_Takeoff,
5000,2021-12-14 08:13:17,40.184873069283,33.3282057211734,0,,,3451.7740868347,0,0,0.7092027786,0.9846292966,13,4,16.957,3451.7740868347,0,0,0.7262631466,0,0,0,252.4, -0.1, 0.9,0,0,1022,1024,1024,1024,-0,0,0,0,252.7,0,100,4.235,4.237,4.238,4.237,0,0,1.8,49.91,3451.7740868347,0,10,Assisted_Takeoff,
5100,2021-12-14 08:13:17,40.1848730589432,33.3282057308038,0,,,3451.7740868347,0,0,0.71301183384,0.98925856184,13,4,16.957,3451.7740868347,0,0,0.7262631466,0,0,0,252.4, -0.1, 1,0,0,1022,1024,1024,1024,-0,0,0,0,252.7,0,100,4.235,4.237,4.238,4.237,0,0,1.8,49.91,3451.7740868347,0,10,Assisted_Takeoff,
5200,2021-12-14 08:13:17,40.1848729700212,33.3282056784476,0,,,3451.7740868347,0,0,0.74538716296,1.02483270996,13,4,16.957,3451.7740868347,0,0,0.74538716296,0,0,0,252.4, -0.1, 1,0,0,1023,1024,1024,1024,-0,0,0,0,252.7,0,100,4.235,4.237,4.238,4.237,0,0,1.8,49.91,3451.7740868347,0,10,Assisted_Takeoff,
5300,2021-12-14 08:13:17,40.1848728853356,33.3282056297473,0,,,3451.7740868347,0,0,0.77647312196,1.0585794302,12,4,16.957,3451.7740868347,0,0,0.77647312196,0,0,0,252.4, -0.1, 1,0,0,1023,1024,1024,1024,-0,0,0,0,252.7,0,100,4.235,4.237,4.238,4.237,0,0,1.8,49.91,3451.7740868347,0,10,Assisted_Takeoff,
5400,2021-12-14 08:13:17,40.1848727069209,33.3282054751798,0,,,3451.7740868347,0,0,0.84355973828,1.13664045632,12,4,16.957,3451.7740868347,0,0,0.84355973828,0,0,0,252.4, -0.1, 1,0,0,1022,1024,1024,1024,-0,0,0,0,252.7,0,100,4.235,4.237,4.238,4.237,0,0,1.8,49.91,3451.7740868347,0,10,Assisted_Takeoff,
5500,2021-12-14 08:13:17,40.184872645531,33.3282054535866,0,,,3451.7740868347,0,0,0.86634189124,1.15983271428,12,4,16.957,3451.7740868347,0,0,0.86634189124,0,0,0,252.4, 0, 1,0,0,1022,1024,1024,1024,-0,0,0,0,252.7,0,100,4.235,4.237,4.238,4.237,0,0,1.8,49.91,3451.7740868347,0,10,Assisted_Takeoff,
5600,2021-12-14 08:13:17,40.1848726397329,33.3282054020167,0,,,3451.7740868347,0,0,0.86967522468,1.17436355464,12,4,16.957,3451.7740868347,0,0,0.86967522468,0,0,0,252.4, 0, 1,0,0,1023,1024,1024,1024,-0,0,0,0,252.7,0,100,4.235,4.237,4.238,4.237,0,0,1.8,49.91,3451.7740868347,0,10,Assisted_Takeoff,
5700,2021-12-14 08:13:17,40.1848726335301,33.3282053569753,0,,,3451.7740868347,0,0,0.87318572348,1.18711946056,13,4,16.957,3451.7740868347,0,0,0.87318572348,0,0,0,252.4, -0.1, 0.9,0,0,1022,1024,1242,1024,-0,0,33,0,252.7,0,100,4.235,4.237,4.238,4.237,0,0,1.8,49.91,3451.7740868347,0,10,Assisted_Takeoff,
5800,2021-12-14 08:13:17,40.1848725999541,33.328205348408,0,,,3451.7740868347,0,0,0.88562338792,1.19959977592,13,4,16.957,3451.7740868347,0,0,0.88562338792,0,0,0,252.4, -0.1, 0.9,0,0,1023,1024,1365,1024,-0,0,52,0,252.7,0,100,4.235,4.237,4.238,4.237,0,0,1.8,49.91,3451.7740868347,0,10,Assisted_Takeoff,
5900,2021-12-14 08:13:17,40.1848726540428,33.3282052803754,0,,,3451.7740868347,0,0,0.86831695692,1.2269685432,13,4,16.957,3451.7740868347,0,0,0.88562338792,0,0,0,252.5, -0.1, 0.9,0,0,1022,1024,1521,1024,-0,0,75,0,252.7,0,100,4.235,4.237,4.238,4.237,0,0,1.8,49.91,3451.7740868347,0,10,Assisted_Takeoff,
6000,2021-12-14 08:13:18,40.1848726059907,33.3282052373522,0,,,3451.7740868347,0,0,0.88733270556,1.24820870136,13,4,16.889,3451.7740868347,0,0,0.88733270556,0,0,0,252.5, -0.1, 1,0,0,1022,1024,1660,1024,-0,0,96,0,252.7,0,100,4.236,4.237,4.239,4.237,0,0,1.794,49.91,3451.7740868347,0,10,Assisted_Takeoff,
6100,2021-12-14 08:13:18,40.1848725596265,33.3282051946919,0,,,3451.7740868347,0,0,0.90582680064,1.26888783588,13,4,16.889,3451.7740868347,0,0,0.90582680064,0,0,0,252.5, 0, 1,0,0,1023,1024,1684,1024,-0,0,100,0,252.7,0,100,4.236,4.237,4.239,4.237,0,0,1.794,49.91,3451.7740868347,0,10,Assisted_Takeoff,
6200,2021-12-14 08:13:18,40.1848725065986,33.328205139756,0,,,3451.7740868347,0,0,0.92737207692,1.29355975268,13,4,16.889,3451.7740868347,0,0,0.92737207692,0,0,0,252.5, 0, 1,0,0,1023,1024,1684,1032,-0,0,100,1,252.7,0,100,4.236,4.237,4.239,4.237,0,0,1.794,49.91,3451.7740868347,0,10,Assisted_Takeoff,
6300,2021-12-14 08:13:18,40.1848724258018,33.3282049900906,0,,,3451.7740868347,0,0,0.9640584298,1.34464243148,13,4,16.889,3451.7740868347,0,0,0.9640584298,0,0,0,252.5, 0, 1.1,0,0,1023,1024,1684,1038,-0,0,100,2,252.7,0,100,4.236,4.237,4.239,4.237,0,0,1.794,49.91,3451.7740868347,0,10,Assisted_Takeoff,
6400,2021-12-14 08:13:18,40.1848723743828,33.328204933756,0,,,3451.7740868347,0,0,0.98568900792,1.36910765536,13,4,16.889,3451.7740868347,0,0,0.98568900792,0,0,0,252.6, 0, 1.1,0,0,1023,1024,1684,1067,-0,0,100,7,252.7,0,100,4.236,4.237,4.239,4.237,0,0,1.794,49.91,3451.7740868347,0,10,Assisted_Takeoff,
6500,2021-12-14 08:13:18,40.1848723286423,33.3282048856453,0,,,3451.7740868347,0,0,1.00491144948,1.39051513636,13,4,16.889,3451.7740868347,0,0,1.00491144948,0,0,0,253.1, -0.1, 0.9,0,0,1023,1024,1684,1139,-0,0,100,17,252.7,0,100,4.236,4.237,4.239,4.237,0,0,1.794,49.91,3451.7740868347,0,10,Assisted_Takeoff,
6600,2021-12-14 08:13:18,40.184872290119,33.3282048875703,0,,,3451.7740868347,0,0,1.01849740792,1.40458009744,13,4,16.889,3451.7740868347,0,0,1.01849740792,0,0,-0.223694,253.9, -0.3, 0.4,0,0,1023,1024,1684,1245,-0,0,100,33,252.9,0,100,4.236,4.237,4.239,4.237,0,0,1.794,49.91,3451.7740868347,0,10,Assisted_Takeoff,
6700,2021-12-14 08:13:18,40.184872238008,33.3282049101659,0,,,3451.7740868347,0,0,1.03570541372,1.42460962564,13,4,16.889,3451.7740868347,0,0,1.03570541372,0,0,-0.894776,255.5, -0.3, 0.1,0,0,1023,1024,1684,1409,-0,0,100,58,254.1,0,100,4.236,4.237,4.239,4.237,0,0,1.794,49.91,3451.7740868347,0,6,P-GPS,
6800,2021-12-14 08:13:18,40.1848721977048,33.3282048685737,0,,,3451.7740868347,0,0,1.05255252712,1.44333337952,13,4,16.889,3451.7740868347,0,0,1.05255252712,0,0,-1.789552,259.3, -0.3, -0.1,0,0,1023,1024,1684,1438,-0,0,100,63,256.4,0,100,4.236,4.237,4.239,4.237,0,0,1.794,49.91,3451.7740868347,0,6,P-GPS,
6900,2021-12-14 08:13:18,40.1848721444506,33.3282048247978,0.328084,,,3452.1021708347,0,0,1.07420607112,1.46627629364,13,4,16.889,3452.1021708347,0.328084,0,1.07420607112,0,0,-2.684328,265.5, 0, -0.3,0,0,1023,1024,1684,1463,-0,0,100,67,260.8,0,100,4.236,4.237,4.239,4.237,0,0,1.794,49.91,3452.1021708347,0.328084,6,P-GPS,
7000,2021-12-14 08:13:19,40.1848720657658,33.3282048172655,0.656168,,,3452.4302548347,0,0,1.1026575156,1.4950623838,13,4,16.686,3452.4302548347,0.656168,0,1.1026575156,0,0,-3.579104,273.2, 0.4, 0.1,0,0,1023,1024,1684,1474,-0,0,100,68,267.6,0,100,4.216,4.211,4.207,4.198,0,0,1.842,49.91,3452.4302548347,0.656168,6,P-GPS,
7100,2021-12-14 08:13:19,40.1848719506918,33.3282048805628,1.312336,,,3453.0864228347,0,0,1.14000331732,1.54060372384,13,4,16.686,3453.0864228347,1.312336,0,1.14000331732,0,0,-4.47388,281.7, 0.3, 0.9,0,0,1023,1024,1684,1471,-0,0,100,68,275.4,0,100,4.216,4.211,4.207,4.198,0,0,1.842,49.91,3453.0864228347,1.312336,6,P-GPS,
7200,2021-12-14 08:13:19,40.1848718327957,33.3282048992931,1.968504,,,3453.7425908347,0,0.223694,1.1812008252,1.58393377772,13,4,16.686,3453.7425908347,1.968504,0.223694,1.1812008252,0,0.223694,-5.59235,290.7, -0.5, 0.8,0,0,1023,1024,1684,1460,-0,0,100,66,285.2,0,100,4.216,4.211,4.207,4.198,0,0,1.842,49.91,3453.7425908347,1.968504,6,P-GPS,
7300,2021-12-14 08:13:19,40.1848717115906,33.3282049377453,2.952756,,,3454.7268428347,0,0.223694,1.22277891052,1.62943574768,13,4,16.686,3454.7268428347,2.952756,0.223694,1.22277891052,0,0.223694,-6.71082,299.6, -1.1, 0.2,0,0,1023,1024,1684,1398,-0,0,100,57,294.9,0,100,4.216,4.211,4.207,4.198,0,0,1.842,49.91,3454.7268428347,2.952756,6,P-GPS,
7400,2021-12-14 08:13:19,40.1848715665329,33.3282050477889,3.937008,,,3455.7110948347,5.249344,0.3131716,1.27023954196,1.69060372864,13,4,16.686,3455.7110948347,3.937008,0.3131716,1.27023954196,-0.223694,0.223694,-7.82929,308.1, -1.6, 0.2,0,0,1023,1024,1684,1361,-0,0,100,51,303.6,0,100,4.216,4.211,4.207,4.198,0,0,1.842,49.91,3455.7110948347,3.937008,6,P-GPS,
7500,2021-12-14 08:13:19,40.1848714189462,33.3282051416116,5.249344,,,3457.0234308347,6.56168,0.3131716,1.32026579028,1.75046593528,12,4,16.686,3457.0234308347,5.249344,0.3131716,1.32026579028,-0.223694,0.223694,-8.94776,315.6, -2, 0.2,0,0,1023,1024,1684,1267,-0,0,100,37,312,0,100,4.216,4.211,4.207,4.198,0,0,1.842,49.91,3457.0234308347,5.249344,6,P-GPS,
7600,2021-12-14 08:13:19,40.1848713255835,33.3282055811016,6.56168,,,3458.3357668347,7.874016,0,1.34571198532,1.87761488948,12,4,16.686,3458.3357668347,6.56168,0.3131716,1.34571198532,0,0,-9.842536,322.1, -2.2, 0.4,0,0,1023,1024,1684,1150,-0,0,100,19,318.8,0,100,4.216,4.211,4.207,4.198,0,0,1.842,49.91,3458.3357668347,6.56168,6,P-GPS,
7700,2021-12-14 08:13:19,40.1848712193804,33.3282056744656,8.2021,,,3459.9761868347,9.514436,0,1.38410765584,1.92429140016,10,4,16.686,3459.9761868347,8.2021,0.3131716,1.38410765584,0,0,-10.737312,326.5, -3.1, 0,0,0,1023,1024,1684,1089,-0,0,100,10,323,0,100,4.216,4.211,4.207,4.198,0,0,1.842,49.91,3459.9761868347,8.2021,6,P-GPS,
7800,2021-12-14 08:13:19,40.1848711982489,33.3282055213974,9.84252,,,3461.6166068347,11.154856,0,1.39262799732,1.96764770076,10,4,16.686,3461.6166068347,9.84252,0.3131716,1.39262799732,0,0,-11.1847,328.4, -2.9, 0,0,0,1023,1024,1684,1160,-0,0,100,21,325.5,0,100,4.216,4.211,4.207,4.198,0,0,1.842,49.91,3461.6166068347,9.84252,6,P-GPS,
7900,2021-12-14 08:13:20,40.1848711948943,33.3282053527298,11.48294,,,3463.2570268347,13.12336,0,1.39625660636,2.01467526132,11,4,16.686,3463.2570268347,11.48294,0.3131716,1.39625660636,0,0,-11.408394,329.3, -2.6, -0.1,0,0,1023,1024,1684,1198,-0,0,100,26,327.3,0,100,4.216,4.211,4.207,4.198,0,0,1.842,49.91,3463.2570268347,11.48294,6,P-GPS,
8000,2021-12-14 08:13:20,40.1848719924948,33.3282044553655,13.12336,,,3464.8974468347,14.76378,0,1.15476709732,2.39840230772,11,4,15.878,3464.8974468347,13.12336,0.3131716,1.39625660636,0.223694,0,-11.408394,330.5, -1.7, -0.5,0,0,1023,1024,1684,1187,-0,0,100,25,327.3,0,100,3.858,3.861,3.856,3.842,0,0,20.806,49.91,3464.8974468347,13.12336,6,P-GPS,
8100,2021-12-14 08:13:20,40.184872178183,33.3282041322941,14.76378,,,3466.5378668347,16.4042,0.223694,1.12205384168,2.51109260004,12,4,15.878,3466.5378668347,14.76378,0.3131716,1.39625660636,0.223694,0,-11.408394,332.7, 0, -0.4,0,0,1023,1024,1634,1105,-0,0,92,12,329.1,0,100,3.858,3.861,3.856,3.842,0,0,20.806,49.91,3466.5378668347,14.76378,6,P-GPS,
8200,2021-12-14 08:13:20,40.1848724018042,33.3282036974104,16.732284,,,3468.5063708347,18.372704,0,1.10320213504,2.65720809028,12,4,15.878,3468.5063708347,16.732284,0.3131716,1.39625660636,0,0,-11.408394,334.9, 0.9, -0.2,0,0,1023,1024,1544,1026,-0,0,79,0,330.8,0,100,3.858,3.861,3.856,3.842,0,0,20.806,49.91,3468.5063708347,16.732284,6,P-GPS,
8300,2021-12-14 08:13:20,40.1848725620292,33.3282033117964,18.372704,,,3470.1467908347,20.013124,0,1.11365161044,2.7795604564,12,4,15.878,3470.1467908347,18.372704,0.3131716,1.39625660636,0,0,-11.408394,335.7, 0.1, 0,0,0,1023,1024,1162,1024,-0,0,21,0,332.2,0,100,3.858,3.861,3.856,3.842,0,0,20.806,49.91,3470.1467908347,18.372704,6,P-GPS,
8400,2021-12-14 08:13:20,40.1848727879962,33.3282030621117,20.341208,,,3472.1152948347,21.653544,0.223694,1.09398297464,2.8874508798,12,4,15.878,3472.1152948347,20.341208,0.3131716,1.39625660636,0,0.223694,-11.1847,335.8, -0.9, -0.2,0,0,1023,1024,1031,1024,-0,0,1,0,333,0,100,3.858,3.861,3.856,3.842,0,0,20.806,49.91,3472.1152948347,20.341208,6,P-GPS,
8500,2021-12-14 08:13:20,40.1848727251529,33.3282029640636,22.309712,,,3474.0837988347,23.293964,0.223694,1.12932746396,2.92312345312,12,4,15.878,3474.0837988347,22.309712,0.3131716,1.39625660636,0,0.223694,-10.289924,335.8, -1.8, -1.3,0,0,1023,1024,1024,1024,-0,0,0,0,333.5,0,100,3.858,3.861,3.856,3.842,0,0,20.806,49.91,3474.0837988347,22.309712,6,P-GPS,
8600,2021-12-14 08:13:20,40.1848725611898,33.3282031892984,23.950132,,,3475.7242188347,24.6063,0.4921268,1.13457352712,3.009842616,12,4,15.878,3475.7242188347,23.950132,0.4921268,1.39625660636,-0.447388,0.223694,-9.395148,335.7, -2.1, -2.1,0,0,1023,1024,1024,1024,-0,0,0,0,333.8,0,100,3.858,3.861,3.856,3.842,0,0,20.806,49.91,3475.7242188347,23.950132,6,P-GPS,
8700,2021-12-14 08:13:20,40.1848723591618,33.3282034073527,25.590552,,,3477.3646388347,25.918636,0.4921268,1.15906171688,3.10537739596,12,4,15.878,3477.3646388347,25.590552,0.4921268,1.39625660636,-0.447388,0.223694,-8.276678,335.8, -3.1, -2.4,0,0,1023,1024,1024,1024,-0,0,0,0,334,0,100,3.858,3.861,3.856,3.842,0,0,20.806,49.91,3477.3646388347,25.590552,6,P-GPS,
8800,2021-12-14 08:13:20,40.1848711443295,33.3282042028071,27.88714,,,3479.6612268347,27.230972,0.447388,1.47133534892,3.6009843672,12,4,15.878,3479.6612268347,27.88714,0.4921268,1.47133534892,-0.447388,0,-7.158208,336, -4.2, -2.2,0,0,1023,1024,1024,1024,-0,0,0,0,334.2,0,100,3.858,3.861,3.856,3.842,0,0,20.806,49.91,3479.6612268347,27.88714,6,P-GPS,
8900,2021-12-14 08:13:20,40.1848706744013,33.3282042473327,28.871392,,,3480.6454788347,28.215224,0.447388,1.63342524912,3.7728675748,12,4,15.878,3480.6454788347,28.871392,0.4921268,1.63342524912,-0.447388,0,-5.816044,336.1, -5.4, -2,0,0,1023,1024,1024,1024,-0,0,0,0,334.3,0,100,3.858,3.861,3.856,3.842,0,0,20.806,49.91,3480.6454788347,28.871392,6,P-GPS,
9000,2021-12-14 08:13:21,40.1848702354102,33.3282041034128,29.855644,,,3481.6297308347,28.871392,0.447388,1.79853680296,3.937992252,12,4,15.642,3481.6297308347,29.855644,0.4921268,1.79853680296,-0.447388,0,-4.250186,336.2, -5.9, -1.5,0,0,1023,1024,1024,1024,-0,0,0,0,334.4,0,100,3.858,3.861,3.856,3.842,0,0,20.806,49.91,3481.6297308347,29.855644,6,P-GPS,
9100,2021-12-14 08:13:21,40.1848698211341,33.3282039359084,30.511812,,,3482.2858988347,29.52756,0.447388,1.9565453382,4.0961943568,10,4,15.642,3482.2858988347,30.511812,0.4921268,1.9565453382,-0.447388,0,-2.908022,336.3, -5.7, -0.7,0,0,1023,1024,1024,1024,-0,0,0,0,334.6,0,100,3.858,3.861,3.856,3.842,0,0,20.806,49.91,3482.2858988347,30.511812,6,P-GPS,
9200,2021-12-14 08:13:21,40.1848694476073,33.3282035854041,30.839896,,,3482.6139828347,29.855644,0.8052984,2.11380912276,4.2638780892,10,4,15.642,3482.6139828347,30.839896,0.8052984,2.11380912276,-0.671082,-0.447388,-2.013246,336.3, -5.5, 0,0,0,1023,1024,1024,1024,-0,0,0,0,334.7,0,100,3.858,3.861,3.856,3.842,0,0,20.806,49.91,3482.6139828347,30.839896,6,P-GPS,
9300,2021-12-14 08:13:21,40.1848687441749,33.328202657464,31.16798,,,3482.9420668347,29.855644,0.8052984,2.43867133788,4.6282481796,9,4,15.642,3482.9420668347,31.16798,0.8052984,2.43867133788,-0.671082,-0.447388,-1.342164,336.2, -5.4, 2.1,0,0,1023,1024,1024,1024,-0,0,0,0,334.7,0,100,3.858,3.861,3.856,3.842,0,0,20.806,49.91,3482.9420668347,31.16798,6,P-GPS,
9400,2021-12-14 08:13:21,40.1848683739204,33.3282021734598,31.496064,,,3483.2701508347,30.183728,0.8052984,2.61338919124,4.8191602592,9,4,15.642,3483.2701508347,31.496064,0.8052984,2.61338919124,-0.671082,-0.447388,-0.671082,336.2, -5.4, 3.7,0,0,1023,1024,1024,1024,-0,0,0,0,334.8,0,100,3.858,3.861,3.856,3.842,0,0,20.806,49.91,3483.2701508347,31.496064,6,P-GPS,
9500,2021-12-14 08:13:21,40.1848680590518,33.3282017346625,31.496064,,,3483.2701508347,30.183728,0.6263432,2.76667003604,4.9869424168,9,4,15.642,3483.2701508347,31.496064,0.8052984,2.76667003604,-0.447388,-0.447388,-0.223694,336.2, -5.2, 4.4,0,0,1023,1024,1024,1024,-0,0,0,0,334.9,0,100,3.858,3.861,3.856,3.842,0,0,20.806,49.91,3483.2701508347,31.496064,6,P-GPS,
9600,2021-12-14 08:13:21,40.1848678165659,33.3282013609346,31.496064,,,3483.2701508347,30.183728,0.6263432,2.88997384576,5.1236222112,9,4,15.642,3483.2701508347,31.496064,0.8052984,2.88997384576,-0.447388,-0.447388,0,336.1, -5.2, 4.2,0,0,1023,1024,1024,1024,-0,0,0,0,335,0,100,3.858,3.861,3.856,3.842,0,0,20.806,49.91,3483.2701508347,31.496064,6,P-GPS,
9700,2021-12-14 08:13:21,40.1848674695282,33.3282003141137,31.16798,,,3482.9420668347,30.183728,0.4921268,3.13411427352,5.4416996492,9,4,15.642,3483.2701508347,31.496064,0.8052984,3.13411427352,-0.223694,-0.447388,0,336.1, -4.9, 4.1,0,0,1023,1024,1024,1024,-0,0,0,0,335,0,100,3.858,3.861,3.856,3.842,0,0,20.806,49.91,3482.9420668347,31.16798,6,P-GPS,
9800,2021-12-14 08:13:21,40.1848673353119,33.3281999187958,30.839896,,,3482.6139828347,30.183728,0.6263432,3.23066283304,5.5622705192,9,4,15.642,3483.2701508347,31.496064,0.8052984,3.23066283304,-0.447388,-0.447388,0,336.1, -4.9, 4.5,0,0,1023,1024,1024,1024,-0,0,0,0,335,0,100,3.858,3.861,3.856,3.842,0,0,20.806,49.91,3482.6139828347,30.839896,6,P-GPS,
9900,2021-12-14 08:13:22,40.1848672101904,33.3281995856371,30.839896,,,3482.6139828347,30.183728,0.4921268,3.3169948568,5.6657482128,9,4,15.642,3483.2701508347,31.496064,0.8052984,3.3169948568,-0.447388,-0.223694,0.223694,336.1, -5.3, 5.2,0,0,1023,1024,1024,1024,-0,0,0,0,335.1,0,100,3.858,3.861,3.856,3.842,0,0,20.806,49.91,3482.6139828347,30.839896,6,P-GPS,
10000,2021-12-14 08:13:22,40.1848669120581,33.3281992493222,30.839896,,,3482.6139828347,30.183728,0.4921268,3.4585631028,5.8093505796,9,4,15.929,3483.2701508347,31.496064,0.8052984,3.4585631028,0,0.223694,0,336.2, -5.2, 5,0,0,1023,1024,1024,1024,-0,0,0,0,335.1,0,100,4.053,4.065,4.079,4.089,0,0,11.85,49.91,3482.6139828347,30.839896,6,P-GPS,
10100,2021-12-14 08:13:22,40.1848664055615,33.3281985798178,30.183728,,,3481.9578148347,30.183728,0.447388,3.7139436884,6.0719818216,8,4,15.929,3483.2701508347,31.496064,0.8052984,3.7139436884,0,0.447388,0,336.2, -5, 2.6,0,0,1023,1024,1024,1024,-0,0,0,0,335.2,0,100,4.053,4.065,4.079,4.089,0,0,11.85,49.91,3481.9578148347,30.183728,6,P-GPS,
10200,2021-12-14 08:13:22,40.1848668653071,33.3281994025214,30.183728,,,3481.9578148347,30.183728,0.447388,3.4512468296,6.3560697572,8,4,15.929,3483.2701508347,31.496064,0.8052984,3.7139436884,0,0,0,336.1, -4.9, 1,0,0,1023,1024,1024,1024,-0,0,0,0,335.2,0,100,4.053,4.065,4.079,4.089,0,0,11.85,49.91,3481.9578148347,30.183728,6,P-GPS,
10300,2021-12-14 08:13:22,40.1848672996815,33.3282000893967,30.183728,,,3481.9578148347,30.183728,0,3.21859590352,6.6046261956,8,4,15.929,3483.2701508347,31.496064,0.8052984,3.7139436884,0,0,0,336, -4.5, 1,0,0,1023,1024,1024,1024,-0,0,0,0,335.2,0,100,4.053,4.065,4.079,4.089,0,0,11.85,49.91,3481.9578148347,30.183728,6,P-GPS,
10400,2021-12-14 08:13:22,40.1848675258545,33.3282000820304,30.511812,,,3482.2858988347,30.183728,0.223694,3.147719917,6.68717213,8,4,15.929,3483.2701508347,31.496064,0.8052984,3.7139436884,0,-0.223694,0,336, -4.1, 1.4,0,0,1023,1024,1024,1024,-0,0,0,0,335.3,0,100,4.053,4.065,4.079,4.089,0,0,11.85,49.91,3482.2858988347,30.511812,6,P-GPS,
10500,2021-12-14 08:13:22,40.1848677455641,33.3281999632513,30.511812,,,3482.2858988347,30.183728,0.223694,3.09536427228,6.7738847312,8,4,15.929,3483.2701508347,31.496064,0.8052984,3.7139436884,0,-0.223694,0,336, -3.9, 2.2,0,0,1023,1024,1024,1024,-0,0,0,0,335.3,0,100,4.053,4.065,4.079,4.089,0,0,11.85,49.91,3482.2858988347,30.511812,6,P-GPS,
10600,2021-12-14 08:13:22,40.1848679559656,33.3281992645775,30.511812,,,3482.2858988347,30.183728,0.447388,3.13688658332,6.9832351316,8,4,15.929,3483.2701508347,31.496064,0.8052984,3.7139436884,0,-0.447388,-0.223694,335.9, -3.5, 4,0,0,1023,1024,1024,1024,-0,0,0,0,335.3,0,100,4.053,4.065,4.079,4.089,0,0,11.85,49.91,3482.2858988347,30.511812,6,P-GPS,
10700,2021-12-14 08:13:22,40.1848681459888,33.3281986676133,30.511812,,,3482.2858988347,30.183728,0.223694,3.17991151908,7.1634844812,8,4,15.929,3483.2701508347,31.496064,0.8052984,3.7139436884,0,-0.223694,-0.223694,335.9, -3.4, 4.6,0,0,1023,1024,1024,1024,-0,0,0,0,335.3,0,100,4.053,4.065,4.079,4.089,0,0,11.85,49.91,3482.2858988347,30.511812,6,P-GPS,
10800,2021-12-14 08:13:22,40.1848682100167,33.3281984093675,30.511812,,,3482.2858988347,30.183728,0,3.20662083752,7.2391406516,8,4,15.929,3483.2701508347,31.496064,0.8052984,3.7139436884,0,0,-0.223694,335.9, -3.5, 4.2,0,0,1023,1024,1024,1062,-0,0,0,6,335.4,0,100,4.053,4.065,4.079,4.089,0,0,11.85,49.91,3482.2858988347,30.511812,6,P-GPS,
10900,2021-12-14 08:13:22,40.1848682824442,33.3281982517059,30.511812,,,3482.2858988347,30.183728,0.223694,3.21439314748,7.2904201808,8,4,15.929,3483.2701508347,31.496064,0.8052984,3.7139436884,0.223694,0,-0.223694,335.9, -3.5, 4.7,0,0,1023,1024,1024,1131,-0,0,0,16,335.5,0,100,4.053,4.065,4.079,4.089,0,0,11.85,49.91,3482.2858988347,30.511812,6,P-GPS,
11000,2021-12-14 08:13:23,40.1848682439429,33.3281982600042,30.511812,,,3482.2858988347,30.183728,1.006623,3.22364839712,7.3046590264,8,4,16.265,3483.2701508347,31.496064,1.006623,3.7139436884,0.447388,0.894776,-0.223694,336.5, -3.3, 3.3,0,0,1023,1024,1024,1143,-0,0,0,18,335.9,0,100,3.993,3.993,3.995,3.994,0,0,10.996,49.91,3482.2858988347,30.511812,6,P-GPS,
11100,2021-12-14 08:13:23,40.1848684244315,33.328198656547,30.511812,,,3482.2858988347,30.183728,1.006623,3.10245088668,7.4333335712,9,4,16.265,3483.2701508347,31.496064,1.006623,3.7139436884,0.447388,0.894776,-0.223694,337.5, -3.4, 1.2,0,0,1023,1024,1024,1130,-0,0,0,16,336.6,0,100,3.993,3.993,3.995,3.994,0,0,10.996,49.91,3482.2858988347,30.511812,6,P-GPS,
11200,2021-12-14 08:13:23,40.184868949266,33.3282000020462,30.511812,,,3482.2858988347,30.183728,1.2974252,2.72227699,7.8544293852,9,4,16.265,3483.2701508347,31.496064,1.2974252,3.7139436884,0.671082,1.11847,-0.223694,338.8, -3.3, -0.4,0,0,1023,1024,1024,1131,-0,0,0,16,337.3,0,100,3.993,3.993,3.995,3.994,0,0,10.996,49.91,3482.2858988347,30.511812,6,P-GPS,
11300,2021-12-14 08:13:23,40.184869459017,33.3282012950915,30.511812,,,3482.2858988347,30.183728,1.2974252,2.36831700492,8.260006826,10,4,16.265,3483.2701508347,31.496064,1.2974252,3.7139436884,0.671082,1.11847,-0.223694,340.1, -3.1, -1.9,0,0,1023,1024,1024,1132,-0,0,0,16,338.1,0,100,3.993,3.993,3.995,3.994,0,0,10.996,49.91,3482.2858988347,30.511812,6,P-GPS,
11400,2021-12-14 08:13:23,40.1848711291687,33.3282052092787,30.511812,,,3482.2858988347,30.183728,1.11847,1.42341211904,9.5096459736,10,4,16.265,3483.2701508347,31.496064,1.2974252,3.7139436884,0.671082,0.894776,0,341.3, -2.7, -3.3,0,0,1023,1024,1024,1143,-0,0,0,18,338.1,0,100,3.993,3.993,3.995,3.994,0,0,10.996,49.91,3482.2858988347,30.511812,6,P-GPS,
11500,2021-12-14 08:13:23,40.1848716524382,33.3282063026665,30.511812,,,3482.2858988347,30.183728,1.11847,1.2378117194,9.869258846,10,4,16.265,3483.2701508347,31.496064,1.2974252,3.7139436884,0.447388,0.671082,0,342.6, -2.5, -4.5,0,0,1023,1024,1024,1155,-0,0,0,20,339,0,100,3.993,3.993,3.995,3.994,0,0,10.996,49.91,3482.2858988347,30.511812,6,P-GPS,
11600,2021-12-14 08:13:23,40.1848721461279,33.3282071039717,30.511812,,,3482.2858988347,30.183728,0.6263432,1.117454104,10.1562011124,10,4,16.265,3483.2701508347,31.496064,1.2974252,3.7139436884,0.447388,0.447388,0,343.9, -2.4, -4.4,0,0,1023,1024,1024,1146,-0,0,0,18,340.1,0,100,3.993,3.993,3.995,3.994,0,0,10.996,49.91,3482.2858988347,30.511812,6,P-GPS,
11700,2021-12-14 08:13:23,40.1848725637888,33.3282077617557,30.511812,,,3482.2858988347,30.183728,0.3131716,1.0634678818,10.3945869468,10,4,16.265,3483.2701508347,31.496064,1.2974252,3.7139436884,0.223694,0.223694,0,345.2, -2, -4.5,0,0,1023,1024,1024,1112,-0,0,0,13,341.4,0,100,3.993,3.993,3.995,3.994,0,0,10.996,49.91,3482.2858988347,30.511812,6,P-GPS,
11800,2021-12-14 08:13:23,40.1848729950301,33.3282079523497,30.183728,,,3481.9578148347,30.183728,0,0.96881892864,10.5606630676,10,4,16.265,3483.2701508347,31.496064,1.2974252,3.7139436884,0,0,-0.223694,346.5, -2.4, -3.3,0,0,1023,1024,1024,1028,-0,0,0,1,342.5,0,100,3.993,3.993,3.995,3.994,0,0,10.996,49.91,3481.9578148347,30.183728,6,P-GPS,
11900,2021-12-14 08:13:23,40.184873122056,33.3282081278083,30.183728,,,3481.9578148347,30.183728,0.3131716,0.96772968976,10.6280515212,10,4,16.265,3483.2701508347,31.496064,1.2974252,3.7139436884,-0.223694,-0.223694,0,347.3, -2.9, -1.7,0,0,1023,1024,1042,1024,-0,0,3,0,343.2,0,100,3.993,3.993,3.995,3.994,0,0,10.996,49.91,3481.9578148347,30.183728,6,P-GPS,
12000,2021-12-14 08:13:24,40.1848728399427,33.3282077930217,30.183728,,,3481.9578148347,30.183728,0.4921268,0.985482315,10.7669622868,10,4,15.826,3483.2701508347,31.496064,1.2974252,3.7139436884,-0.223694,-0.447388,0,347.4, -3.4, -0.6,0,0,1023,1024,1157,1024,-0,0,20,0,343.7,0,100,3.972,3.977,3.981,3.979,0,0,10.926,49.91,3481.9578148347,30.183728,6,P-GPS,
12100,2021-12-14 08:13:24,40.1848725373827,33.3282074282063,30.183728,,,3481.9578148347,30.183728,0.4921268,1.02455055772,10.9170607168,11,4,15.826,3483.2701508347,31.496064,1.2974252,3.7139436884,-0.223694,-0.447388,-0.223694,347.3, -4, 0.2,0,0,1023,1024,1276,1024,-0,0,38,0,344.1,0,100,3.972,3.977,3.981,3.979,0,0,10.926,49.91,3481.9578148347,30.183728,6,P-GPS,
12200,2021-12-14 08:13:24,40.1848710913872,33.3282051327863,30.183728,,,3481.9578148347,30.183728,0.4921268,1.43929466548,11.7463258352,11,4,15.826,3483.2701508347,31.496064,1.2974252,3.7139436884,-0.447388,-0.223694,0,347.2, -4.6, 1.1,0,0,1023,1024,1339,1024,-0,0,48,0,344.3,0,100,3.972,3.977,3.981,3.979,0,0,10.926,49.91,3481.9578148347,30.183728,6,P-GPS,
12300,2021-12-14 08:13:24,40.1848707688185,33.3282047121187,29.855644,,,3481.6297308347,30.183728,0.3131716,1.5724409952,11.9124675728,11,4,15.826,3483.2701508347,31.496064,1.2974252,3.7139436884,-0.223694,-0.223694,-0.447388,347.3, -5.5, 2.6,0,0,1023,1024,1405,1024,-0,0,58,0,344.5,0,100,3.972,3.977,3.981,3.979,0,0,10.926,49.91,3481.6297308347,29.855644,6,P-GPS,
12400,2021-12-14 08:13:24,40.1848705133327,33.3282045252022,30.183728,,,3481.9578148347,30.511812,0,1.67366147088,12.0192261064,11,4,15.826,3483.2701508347,31.496064,1.2974252,3.7139436884,0,0,-1.565858,347.3, -5.7, 2.2,0,0,1023,1024,1427,1024,-0,0,61,0,344.7,0,100,3.972,3.977,3.981,3.979,0,0,10.926,49.91,3481.9578148347,30.183728,6,P-GPS,
12500,2021-12-14 08:13:24,40.1848703675568,33.3282044771329,30.511812,,,3482.2858988347,30.839896,0,1.72844165636,12.0740817512,11,4,15.826,3483.2701508347,31.496064,1.2974252,3.7139436884,0,0,-2.684328,347.4, -5, 0.9,0,0,1023,1024,1441,1024,-0,0,63,0,344.9,0,100,3.972,3.977,3.981,3.979,0,0,10.926,49.91,3482.2858988347,30.511812,6,P-GPS,
12600,2021-12-14 08:13:24,40.1848706192703,33.3282049440304,30.839896,,,3482.6139828347,31.16798,0.3131716,1.61658797824,12.2333665332,11,4,15.826,3483.2701508347,31.496064,1.2974252,3.7139436884,0.223694,0.223694,-3.802798,347.5, -5, 0.6,0,0,1023,1024,1448,1024,-0,0,64,0,345.1,0,100,3.972,3.977,3.981,3.979,0,0,10.926,49.91,3482.6139828347,30.839896,6,P-GPS,
12700,2021-12-14 08:13:24,40.1848712533408,33.3282059779129,31.496064,,,3483.2701508347,31.824148,0.4921268,1.3739993878,12.6029203508,11,4,15.826,3483.2701508347,31.496064,1.2974252,3.7139436884,0.447388,0.223694,-4.697574,347.5, -3.9, -1.1,0,0,1023,1024,1449,1024,-0,0,64,0,345.2,0,100,3.972,3.977,3.981,3.979,0,0,10.926,49.91,3483.2701508347,31.496064,6,P-GPS,
12800,2021-12-14 08:13:24,40.1848715795694,33.328206470401,31.824148,,,3483.5982348347,32.480316,0.4921268,1.27127956824,12.78461327,11,4,15.826,3483.5982348347,31.824148,1.2974252,3.7139436884,0.223694,0.447388,-5.144962,347.4, -2.9, -3,0,0,1023,1024,1453,1024,-0,0,65,0,345.3,0,100,3.972,3.977,3.981,3.979,0,0,10.926,49.91,3483.5982348347,31.824148,6,P-GPS,
12900,2021-12-14 08:13:24,40.1848718666812,33.3282068921148,32.8084,,,3484.5824868347,33.464568,0.4921268,1.1955873086,12.9420607816,12,4,15.826,3484.5824868347,32.8084,1.2974252,3.7139436884,0.223694,0.223694,-5.59235,347.4, -2.8, -3.4,0,0,1023,1024,1457,1024,-0,0,66,0,345.3,0,100,3.972,3.977,3.981,3.979,0,0,10.926,49.91,3484.5824868347,32.8084,6,P-GPS,
13000,2021-12-14 08:13:25,40.1848720468897,33.3282071998083,33.792652,,,3485.5667388347,34.120736,0.4921268,1.1608104046,13.0501316512,12,4,15.937,3485.5667388347,33.792652,1.2974252,3.7139436884,0.223694,0.447388,-5.816044,347.3, -2.5, -3.2,0,0,1023,1024,1469,1024,-0,0,67,0,345.4,0,100,3.972,3.977,3.981,3.979,0,0,10.926,49.91,3485.5667388347,33.792652,6,P-GPS,
13100,2021-12-14 08:13:25,40.1848725873809,33.3282082424057,34.120736,,,3485.8948228347,34.776904,0.4921268,1.13494426204,13.4013127648,13,4,15.937,3485.8948228347,34.120736,1.2974252,3.7139436884,0.223694,0.223694,-5.816044,347.3, -2.4, -3.9,0,0,1023,1024,1472,1024,-0,0,68,0,345.5,0,100,3.972,3.977,3.981,3.979,0,0,10.926,49.91,3485.8948228347,34.120736,6,P-GPS,
13200,2021-12-14 08:13:25,40.1848727819596,33.328208112787,34.776904,,,3486.5509908347,35.761156,0,1.05709320968,13.48097156,13,4,15.937,3486.5509908347,34.776904,1.2974252,3.7139436884,0,0,-5.816044,347.3, -2.9, -3.8,0,0,1023,1024,1472,1024,-0,0,68,0,345.5,0,100,3.972,3.977,3.981,3.979,0,0,10.926,49.91,3486.5509908347,34.776904,6,P-GPS,
13300,2021-12-14 08:13:25,40.1848729232206,33.3282078882623,35.433072,,,3487.2071588347,36.417324,0,0.97759845648,13.5620411164,13,4,15.937,3487.2071588347,35.433072,1.2974252,3.7139436884,0,0,-5.816044,347.4, -3.2, -3.5,0,0,1023,1024,1472,1024,-0,0,68,0,345.6,0,100,3.972,3.977,3.981,3.979,0,0,10.926,49.91,3487.2071588347,35.433072,6,P-GPS,
13400,2021-12-14 08:13:25,40.1848728588172,33.328207329086,36.417324,,,3488.1914108347,37.073492,0,0.90865160388,13.71965267,13,4,15.937,3488.1914108347,36.417324,1.2974252,3.7139436884,0,0,-5.816044,347.3, -3.7, -2.5,0,0,1023,1024,1472,1024,-0,0,68,0,345.7,0,100,3.972,3.977,3.981,3.979,0,0,10.926,49.91,3488.1914108347,36.417324,6,P-GPS,
13500,2021-12-14 08:13:25,40.1848725454045,33.3282055711107,36.745408,,,3488.5194948347,38.057744,0.223694,0.90093834904,14.2228351008,12,4,15.937,3488.5194948347,36.745408,1.2974252,3.7139436884,-0.223694,0,-5.816044,347.3, -4.4, -1.9,0,0,1023,1024,1472,1019,-0,0,68,-1,345.7,0,100,3.972,3.977,3.981,3.979,0,0,10.926,49.91,3488.5194948347,36.745408,6,P-GPS,
13600,2021-12-14 08:13:25,40.1848723669245,33.3282050095827,37.72966,,,3489.5037468347,38.713912,0.223694,0.98403546456,14.3923561036,12,4,15.937,3489.5037468347,37.72966,1.2974252,3.7139436884,0,-0.223694,-6.039738,347.4, -5, -1.3,0,0,1023,1024,1473,1013,-0,0,68,-2,345.8,0,100,3.972,3.977,3.981,3.979,0,0,10.926,49.91,3489.5037468347,37.72966,6,P-GPS,
13700,2021-12-14 08:13:25,40.1848722193639,33.3282044308456,38.385828,,,3490.1599148347,39.698164,0.223694,1.07827103188,14.5624348492,13,4,15.937,3490.1599148347,38.385828,1.2974252,3.7139436884,0,-0.223694,-6.039738,348, -4.9, -1,0,0,1023,1024,1474,1011,-0,0,68,-2,345.8,0,100,3.972,3.977,3.981,3.979,0,0,10.926,49.91,3490.1599148347,38.385828,6,P-GPS,
13800,2021-12-14 08:13:25,40.1848721987071,33.3282037750282,39.37008,,,3491.1441668347,40.682416,0.223694,1.15764111316,14.7453744876,13,4,15.937,3491.1441668347,39.37008,1.2974252,3.7139436884,0,-0.223694,-6.039738,349.2, -4.2, -0.7,0,0,1023,1024,1474,1009,-0,0,68,-2,346.1,0,100,3.972,3.977,3.981,3.979,0,0,10.926,49.91,3491.1441668347,39.37008,6,P-GPS,
13900,2021-12-14 08:13:25,40.1848725513084,33.3282026422528,40.354332,,,3492.1284188347,41.338584,0.3131716,1.23685371412,15.0863193804,12,4,15.937,3492.1284188347,40.354332,1.2974252,3.7139436884,0.223694,-0.223694,-6.263432,349.7, -3.5, -0.1,0,0,1023,1024,1475,1009,-0,0,68,-2,346.4,0,100,3.972,3.977,3.981,3.979,0,0,10.926,49.91,3492.1284188347,40.354332,6,P-GPS,
14000,2021-12-14 08:13:26,40.1848727456835,33.3282020953557,40.682416,,,3492.4565028347,42.322836,0.4921268,1.29997707572,15.254429622,12,4,15.148,3492.4565028347,40.682416,1.2974252,3.7139436884,0.223694,-0.447388,-6.039738,349.8, -2.6, 0.4,0,0,1023,1024,1474,1008,-0,0,68,-2,346.7,0,100,3.877,3.871,3.874,3.877,0,0,10.926,49.91,3492.4565028347,40.682416,6,P-GPS,
14100,2021-12-14 08:13:26,40.1848729263122,33.3282015814695,41.666668,,,3493.4407548347,43.307088,0.4921268,1.37588258996,15.4121067924,13,4,15.148,3493.4407548347,41.666668,1.2974252,3.7139436884,0.223694,-0.447388,-6.039738,349.7, -1.7, 0.7,0,0,1023,1024,1479,1006,-0,0,69,-3,346.9,0,100,3.877,3.871,3.874,3.877,0,0,10.926,49.91,3493.4407548347,41.666668,6,P-GPS,
14200,2021-12-14 08:13:26,40.184873109745,33.3282011357501,42.322836,,,3494.0969228347,44.29134,0.447388,1.44769689672,15.5532157208,13,4,15.148,3494.0969228347,42.322836,1.2974252,3.7139436884,0,-0.447388,-6.039738,349.6, -1.2, 0.7,0,0,1023,1024,1484,1002,-0,0,70,-3,347.1,0,100,3.877,3.871,3.874,3.877,0,0,10.926,49.91,3494.0969228347,42.322836,6,P-GPS,
14300,2021-12-14 08:13:26,40.1848732531523,33.3282007158744,42.979004,,,3494.7530908347,45.275592,0.447388,1.52870083632,15.681430948,12,4,15.148,3494.7530908347,42.979004,1.2974252,3.7139436884,0,-0.447388,-6.039738,349.5, -1.4, 0.8,0,0,1023,1024,1486,999,-0,0,70,-4,347.3,0,100,3.877,3.871,3.874,3.877,0,0,10.926,49.91,3494.7530908347,42.979004,6,P-GPS,
14400,2021-12-14 08:13:26,40.1848732853873,33.3282004504642,43.963256,,,3495.7373428347,45.93176,0.447388,1.59144690132,15.7563325252,12,4,15.148,3495.7373428347,43.963256,1.2974252,3.7139436884,0,-0.447388,-6.263432,350.6, -1.6, 1.7,0,0,1023,1024,1489,997,-0,0,70,-4,347.6,0,100,3.877,3.871,3.874,3.877,0,0,10.926,49.91,3495.7373428347,43.963256,6,P-GPS,
14500,2021-12-14 08:13:26,40.1848732433498,33.3282000400843,44.29134,,,3496.0654268347,46.916012,0.4921268,1.702837981,15.8717524764,13,4,15.148,3496.0654268347,44.29134,1.2974252,3.7139436884,-0.223694,-0.447388,-6.263432,351.8, -1.9, 2.3,0,0,1023,1024,1492,996,-0,0,71,-4,347.6,0,100,3.877,3.871,3.874,3.877,0,0,10.926,49.91,3496.0654268347,44.29134,6,P-GPS,
14600,2021-12-14 08:13:26,40.1848730738313,33.3281995485198,45.275592,,,3497.0496788347,47.900264,0.4921268,1.85308076796,16.0220805652,13,4,15.148,3497.0496788347,45.275592,1.2974252,3.7139436884,-0.223694,-0.447388,-6.263432,352.9, -2.6, 2.4,0,0,1023,1024,1496,995,-0,0,72,-4,348,0,100,3.877,3.871,3.874,3.877,0,0,10.926,49.91,3497.0496788347,45.275592,6,P-GPS,
14700,2021-12-14 08:13:26,40.1848728890762,33.3281991248116,46.259844,,,3498.0339308347,48.884516,0.4921268,1.98804468304,16.1580713832,13,4,15.148,3498.0339308347,46.259844,1.2974252,3.7139436884,-0.223694,-0.223694,-6.263432,353.9, -3.5, 2.5,0,0,1023,1024,1496,996,-0,0,72,-4,348.7,0,100,3.877,3.871,3.874,3.877,0,0,10.926,49.91,3498.0339308347,46.259844,6,P-GPS,
14800,2021-12-14 08:13:26,40.1848723360273,33.3281987000215,46.916012,,,3498.6900988347,49.2126,0.3131716,2.18021332436,16.3919952752,13,4,15.148,3498.6900988347,46.916012,1.2974252,3.7139436884,-0.223694,-0.223694,-6.487126,354.8, -4.4, 2.3,0,0,1023,1024,1497,996,-0,0,72,-4,349.4,0,100,3.877,3.871,3.874,3.877,0,0,10.926,49.91,3498.6900988347,46.916012,6,P-GPS,
14900,2021-12-14 08:13:26,40.1848721416326,33.3281984111362,47.900264,,,3499.6743508347,49.2126,0.223694,2.28414049304,16.4993115516,13,4,15.148,3499.6743508347,47.900264,1.2974252,3.7139436884,-0.223694,0,-6.487126,355.7, -5.4, 2,0,0,1023,1024,1499,996,-0,0,72,-4,350.2,0,100,3.877,3.871,3.874,3.877,0,0,10.926,49.91,3499.6743508347,47.900264,6,P-GPS,
15000,2021-12-14 08:13:27,40.1848719795829,33.3281981978631,48.556432,,,3500.3305188347,49.2126,0,2.36421595492,16.583169822,13,4,15.618,3500.3305188347,48.556432,1.2974252,3.7139436884,0,0,-6.487126,356.5, -5.5, 1.5,0,0,1023,1024,1501,996,-0,0,72,-4,351,0,100,3.877,3.871,3.874,3.877,0,0,16.772,49.91,3500.3305188347,48.556432,6,P-GPS,
15100,2021-12-14 08:13:27,40.1848718533491,33.3281980340391,49.540684,,,3501.3147708347,49.2126,0,2.42620414588,16.6479992204,12,4,15.618,3501.3147708347,49.540684,1.2974252,3.7139436884,0,0,-6.487126,357.2, -4.9, 0.8,0,0,1023,1024,1500,995,-0,0,72,-4,351.8,0,100,3.877,3.871,3.874,3.877,0,0,16.772,49.91,3501.3147708347,49.540684,6,P-GPS,
15200,2021-12-14 08:13:27,40.1848720004872,33.3281980752712,50.524936,,,3502.2990228347,49.2126,0,2.39094823924,16.702920482,12,4,15.618,3502.2990228347,50.524936,1.2974252,3.7139436884,0,0,-6.71082,358, -4.6, 0.4,0,0,1023,1024,1445,1016,-0,0,64,-1,352.5,0,100,3.877,3.871,3.874,3.877,0,0,16.772,49.91,3502.2990228347,50.524936,6,P-GPS,
15300,2021-12-14 08:13:27,40.1848720189782,33.3281979512722,51.181104,,,3502.9551908347,49.2126,0,2.41864180968,16.7381238952,12,4,15.618,3502.9551908347,51.181104,1.2974252,3.7139436884,0,0,-6.71082,358.6, -4.5, 0.4,0,0,1023,1024,1348,1024,-0,0,49,0,353.4,0,100,3.877,3.871,3.874,3.877,0,0,16.772,49.91,3502.9551908347,51.181104,6,P-GPS,
15400,2021-12-14 08:13:27,40.1848721023374,33.32819774298,51.837272,,,3503.6113588347,49.2126,0,2.4572835432,16.8036750784,12,4,15.618,3503.6113588347,51.837272,1.2974252,3.7139436884,0,0,-6.487126,359.2, -4.7, 0.2,0,0,1023,1024,1243,1024,-0,0,33,0,354.1,0,100,3.877,3.871,3.874,3.877,0,0,16.772,49.91,3503.6113588347,51.837272,6,P-GPS,
15500,2021-12-14 08:13:27,40.1848721870409,33.328197533561,52.821524,,,3504.5956108347,49.2126,0,2.49713262584,16.8697183876,12,4,15.618,3504.5956108347,52.821524,1.2974252,3.7139436884,0,0,-5.816044,359.4, -5.2, 0.5,0,0,1023,1024,1159,1024,-0,0,20,0,354.7,0,100,3.877,3.871,3.874,3.877,0,0,16.772,49.91,3504.5956108347,52.821524,6,P-GPS,
15600,2021-12-14 08:13:27,40.1848727276062,33.3281972747434,53.805776,,,3505.5798628347,49.2126,0.223694,2.4902231768,17.079724956,12,4,15.618,3505.5798628347,53.805776,1.2974252,3.7139436884,0,-0.223694,-4.697574,359.3, -5.2, 1.5,0,0,1023,1024,1114,1024,-0,0,14,0,355.3,0,100,3.877,3.871,3.874,3.877,0,0,16.772,49.91,3505.5798628347,53.805776,6,P-GPS,
15700,2021-12-14 08:13:27,40.184872832916,33.328197066164,54.13386,,,3505.9079468347,49.2126,0.223694,2.53275270572,17.1494099976,12,4,15.618,3505.9079468347,54.13386,1.2974252,3.7139436884,0,-0.223694,-3.35541,359.3, -5, 2,0,0,1023,1024,1112,1024,-0,0,13,0,355.6,0,100,3.877,3.871,3.874,3.877,0,0,16.772,49.91,3505.9079468347,54.13386,6,P-GPS,
15800,2021-12-14 08:13:27,40.1848728995682,33.3281967790866,54.790028,,,3506.5641148347,49.2126,0.223694,2.60153223548,17.2330386092,12,4,15.618,3506.5641148347,54.790028,1.2974252,3.7139436884,0,-0.223694,-2.23694,359.4, -3.9, 2,0,0,1023,1024,1138,1026,-0,0,17,0,356,0,100,3.877,3.871,3.874,3.877,0,0,16.772,49.91,3506.5641148347,54.790028,6,P-GPS,
15900,2021-12-14 08:13:28,40.184872949923,33.3281965112419,54.790028,,,3506.5641148347,49.2126,0.223694,2.6676838124,17.3099086904,12,4,15.618,3506.5641148347,54.790028,1.2974252,3.7139436884,0,-0.223694,-1.342164,359.5, -2.7, 2.2,0,0,1023,1024,1181,1035,-0,0,24,2,356.3,0,100,3.877,3.871,3.874,3.877,0,0,16.772,49.91,3506.5641148347,54.790028,6,P-GPS,
16000,2021-12-14 08:13:28,40.18487294948,33.3281961834089,54.790028,,,3506.5641148347,49.2126,0.223694,2.75551518004,17.4013128928,12,4,15.58,3506.5641148347,54.790028,1.2974252,3.7139436884,0,-0.223694,-0.671082,359.5, -2.7, 2.6,0,0,1023,1024,1276,1028,-0,0,38,1,356.3,0,99,3.91,3.919,3.921,3.914,0,0,13.866,49.91,3506.5641148347,54.790028,6,P-GPS,
16100,2021-12-14 08:13:28,40.1848729999227,33.3281956056102,54.461944,,,3506.2360308347,49.2126,0.223694,2.90606636596,17.5633863888,11,4,15.58,3506.5641148347,54.790028,1.2974252,3.7139436884,0,-0.223694,-0.671082,359.6, -3.1, 3.1,0,0,1023,1024,1375,1024,-0,0,53,0,356.6,0,99,3.91,3.919,3.921,3.914,0,0,13.866,49.91,3506.2360308347,54.461944,6,P-GPS,
16200,2021-12-14 08:13:28,40.1848728991123,33.3281954329932,54.461944,,,3506.2360308347,49.2126,0.223694,2.96200468796,17.6239506952,11,4,15.58,3506.5641148347,54.790028,1.2974252,3.7139436884,0,-0.223694,-1.11847,359.5, -3.4, 3.2,0,0,1023,1024,1457,1013,-0,0,66,-2,356.8,0,99,3.91,3.919,3.921,3.914,0,0,13.866,49.91,3506.2360308347,54.461944,6,P-GPS,
16300,2021-12-14 08:13:28,40.1848727980714,33.3281953158825,54.790028,,,3506.5641148347,49.2126,0,3.00324156592,17.6731961036,11,4,15.58,3506.5641148347,54.790028,1.2974252,3.7139436884,0,0,-2.23694,359.5, -3.9, 2.6,0,0,1023,1024,1489,1009,-0,0,70,-2,357,0,99,3.91,3.919,3.921,3.914,0,0,13.866,49.91,3506.5641148347,54.790028,6,P-GPS,
16400,2021-12-14 08:13:28,40.1848727916211,33.3281952398078,55.446196,,,3507.2202828347,49.2126,0,3.02430127788,17.6945215636,11,4,15.58,3507.2202828347,55.446196,1.2974252,3.7139436884,0,0,-3.35541,359.4, -4.6, 2.7,0,0,1023,1024,1493,1009,-0,0,71,-2,357.2,0,99,3.91,3.919,3.921,3.914,0,0,13.866,49.91,3507.2202828347,55.446196,6,P-GPS,
16500,2021-12-14 08:13:28,40.1848728513826,33.3281952911489,56.102364,,,3507.8764508347,49.2126,0,3.00472122476,17.7206042416,12,4,15.58,3507.8764508347,56.102364,1.2974252,3.7139436884,0,0,-4.697574,359.4, -4.6, 2.8,0,0,1023,1024,1493,1012,-0,0,71,-2,357.4,0,99,3.91,3.919,3.921,3.914,0,0,13.866,49.91,3507.8764508347,56.102364,6,P-GPS,
16600,2021-12-14 08:13:28,40.184872849917,33.3281953773719,56.758532,,,3508.5326188347,49.2126,0,2.9816766046,17.7446527988,12,4,15.58,3508.5326188347,56.758532,1.2974252,3.7139436884,0,0,-5.59235,359.4, -4.6, 2.8,0,0,1023,1024,1493,1014,-0,0,71,-2,357.4,0,99,3.91,3.919,3.921,3.914,0,0,13.866,49.91,3508.5326188347,56.758532,6,P-GPS,
16700,2021-12-14 08:13:28,40.1848728593546,33.3281954946409,57.742784,,,3509.5168708347,49.2126,0,2.94924878204,17.7775268156,11,4,15.58,3509.5168708347,57.742784,1.2974252,3.7139436884,0,0,-6.263432,359.3, -4.5, 2.3,0,0,1023,1024,1492,1015,-0,0,71,-1,357.5,0,99,3.91,3.919,3.921,3.914,0,0,13.866,49.91,3509.5168708347,57.742784,6,P-GPS,
16800,2021-12-14 08:13:28,40.1848728528758,33.3281956100375,58.727036,,,3510.5011228347,49.2126,0.223694,2.9188977312,17.8097774728,11,4,15.58,3510.5011228347,58.727036,1.2974252,3.7139436884,0,0.223694,-6.71082,359.2, -3.8, 2,0,0,1080,1024,1476,1022,8,0,68,-0,357.6,0,99,3.91,3.919,3.921,3.914,0,0,13.866,49.91,3510.5011228347,58.727036,6,P-GPS,
16900,2021-12-14 08:13:28,40.1848728671483,33.3281959845362,59.711288,,,3511.4853748347,49.2126,0.223694,2.81708014264,17.9143050352,12,4,15.58,3511.4853748347,59.711288,1.2974252,3.7139436884,0,0.223694,-6.71082,359.2, -3.6, 2,0,0,1246,1024,1460,1024,34,0,66,0,357.7,0,99,3.91,3.919,3.921,3.914,0,0,13.866,49.91,3511.4853748347,59.711288,6,P-GPS,
17000,2021-12-14 08:13:29,40.184872902418,33.328196126822,60.367456,,,3512.1415428347,49.2126,0.4921268,2.77540691296,17.9559717032,12,4,15.714,3512.1415428347,60.367456,1.2974252,3.7139436884,0.223694,0.447388,-6.71082,359.2, -3.5, 1.6,0,0,1398,1024,1453,1024,57,0,65,0,357.8,0,99,3.987,4.004,4.017,4.023,0,0,10.608,51.71,3512.1415428347,60.367456,6,P-GPS,
17100,2021-12-14 08:13:29,40.1848729470935,33.3281962659362,61.351708,,,3513.1257948347,49.2126,0.447388,2.73363525808,17.9980648804,12,4,15.714,3513.1257948347,61.351708,1.2974252,3.7139436884,0,0.447388,-6.487126,359.1, -5.1, 0.9,0,0,1476,1024,1446,1024,68,0,64,0,357.8,0,99,3.987,4.004,4.017,4.023,0,0,10.608,51.71,3513.1257948347,61.351708,6,P-GPS,
17200,2021-12-14 08:13:29,40.1848731749112,33.3281964005501,62.007876,,,3513.7819628347,49.2126,0.3131716,2.67555454756,18.089239424,12,4,15.714,3513.7819628347,62.007876,1.2974252,3.7139436884,0.223694,0.223694,-6.263432,359.1, -10.4, 0.5,0,0,1584,1024,1436,1024,85,0,62,0,357.9,0,99,3.987,4.004,4.017,4.023,0,0,10.608,51.71,3513.7819628347,62.007876,6,P-GPS,
17300,2021-12-14 08:13:29,40.1848739346634,33.3281965777038,62.664044,,,3514.4381308347,49.2126,0.4921268,2.5710466702,18.3708011128,12,4,15.714,3514.4381308347,62.664044,1.2974252,3.7139436884,0.447388,0.223694,-5.816044,359.1, -17.2, 0.3,0,0,1650,1024,1433,1024,95,0,62,0,357.9,0,99,3.987,4.004,4.017,4.023,0,0,10.608,51.71,3514.4381308347,62.664044,6,P-GPS,
17400,2021-12-14 08:13:29,40.1848743463715,33.3281966155961,63.648296,,,3515.4223828347,49.2126,0.9171454,2.54186687924,18.5213916688,12,4,15.714,3515.4223828347,63.648296,1.2974252,3.7139436884,0.894776,0.223694,-5.816044,359.1, -22.4, 0.1,0,0,1680,1024,1436,1024,99,0,62,0,357.9,0,99,3.987,4.004,4.017,4.023,0,0,10.608,51.71,3515.4223828347,63.648296,6,P-GPS,
17500,2021-12-14 08:13:29,40.1848749729752,33.3281966295621,64.632548,,,3516.4066348347,49.2126,1.789552,2.52635506772,18.7500334084,12,4,15.714,3516.4066348347,64.632548,1.789552,3.7139436884,1.789552,0,-5.59235,359.1, -26.4, 0,0,0,1682,1024,1438,1024,100,0,63,0,358,0,99,3.987,4.004,4.017,4.023,0,0,10.608,51.71,3516.4066348347,64.632548,6,P-GPS,
17600,2021-12-14 08:13:29,40.1848758922058,33.3281965382236,64.960632,,,3516.7347188347,49.2126,1.789552,2.57185375684,19.0863851252,12,4,15.714,3516.7347188347,64.960632,1.789552,3.7139436884,2.684328,0,-5.368656,359, -29.3, 0.1,0,0,1682,1024,1441,1024,100,0,63,0,358,0,99,3.987,4.004,4.017,4.023,0,0,10.608,51.71,3516.7347188347,64.960632,6,P-GPS,
17700,2021-12-14 08:13:29,40.1848771312904,33.3281964115519,65.944884,,,3517.7189708347,49.2126,3.802798,2.70005257984,19.5398300216,13,4,15.714,3517.7189708347,65.944884,3.802798,3.7139436884,3.802798,0,-5.368656,359, -29.6, 0.3,0,0,1683,1024,1441,1021,100,0,63,-0,358.1,0,99,3.987,4.004,4.017,4.023,0,0,10.608,51.71,3517.7189708347,65.944884,6,P-GPS,
