time(millisecond),datetime(utc),latitude,longitude,height_above_takeoff(feet),height_above_ground_at_drone_location(feet),ground_elevation_at_drone_location(feet),altitude_above_seaLevel(feet),height_sonar(feet),speed(mph),distance(feet),satellites,gpslevel,voltage(v),max_altitude(feet),max_ascent(feet),max_speed(mph),max_distance(feet), xSpeed(mph), ySpeed(mph), zSpeed(mph), compass_heading(degrees), pitch(degrees), roll(degrees),isPhoto,isVideo,rc_elevator,rc_aileron,rc_throttle,rc_rudder,gimbal_heading(degrees),gimbal_pitch(degrees),battery_percent,voltageCell1,voltageCell2,voltageCell3,voltageCell4,voltageCell5,voltageCell6,current(A),battery_temperature(f),altitude(feet),ascent(feet),flycStateRaw,flycState,message
386300,,40.1850229517927,33.3283229392484,0,Available with any HD 360 subscription,Available with any HD 360 subscription,3451.5193732439,0.328084,0,0,14,5,0,3451.5193732439,0,0,0,0,0,0,179.3, -0.2, 0.1,0,0,1024,1024,1024,1024,179.1,-89.9,71,3.974,3.989,3.993,3.97,0,0,0,111.11,3451.5193732439,0,41,Motors_Started,
386400,,40.1850229760956,33.3283229170151,0,,,3451.5193732439,0.328084,0,0.0108178809236,14,5,0,3451.5193732439,0,0,0.0108178809236,0,0,0,179.2, -0.2, 0,0,0,1024,1024,1024,1024,179.1,-89.9,71,3.974,3.989,3.993,3.97,0,0,0,111.11,3451.5193732439,0,41,Motors_Started,
386500,,40.1850229878399,33.3283228759231,0,,,3451.5193732439,0.328084,0,0.0220118445364,14,5,15.878,3451.5193732439,0,0,0.0220118445364,0,0,0,179.5, -0.2, 0,0,0,1024,1024,1024,1024,179.1,-89.9,71,3.974,3.989,3.993,3.97,0,0,1.57,111.11,3451.5193732439,0,41,Motors_Started,Setting new Return-To-Home altitude to 250m (820 ft). Data Recorder File Index is 256. Setting new Maximum Flight Altitude to 500m (1640 ft)
386600,,40.1850229893381,33.3283228549062,0,,,3451.5193732439,0.328084,0,42.983269092,14,5,15.878,3451.5193732439,0,0,42.983269092,0,0,0,179, -0.1, 0.1,0,0,1024,1024,1024,1024,179.1,-89.9,71,3.974,3.989,3.993,3.97,0,0,1.57,111.11,3451.5193732439,0,41,Motors_Started,
386700,,40.1850229558703,33.3283228093294,0,,,3451.5193732439,0.328084,0,42.96588064,14,5,15.878,3451.5193732439,0,0,42.983269092,0,0,0,179.1, -0.1, 0.1,0,0,1024,1024,1024,1024,179.1,-89.9,71,3.974,3.989,3.993,3.97,0,0,1.57,111.11,3451.5193732439,0,41,Motors_Started,
386800,2021-06-18 11:50:14,40.1850229792352,33.3283227825552,0,,,3451.5193732439,0.328084,0,42.96588064,14,5,15.878,3451.5193732439,0,0,42.983269092,0,0,0,179.3, -0.2, 0.1,0,0,1024,1024,1024,1024,179.1,-89.9,71,3.974,3.989,3.993,3.97,0,0,1.57,111.11,3451.5193732439,0,41,Motors_Started,
386900,2021-06-18 11:50:14,40.1850230239262,33.3283227374493,0,,,3451.5193732439,0.328084,0,42.966864892,14,5,15.878,3451.5193732439,0,0,42.983269092,0,0,0,179.3, -0.2, 0.1,0,0,1024,1024,1024,1024,179.2,-89.9,71,3.974,3.989,3.993,3.97,0,0,1.57,111.11,3451.5193732439,0,41,Motors_Started,
387000,2021-06-18 11:50:14,40.1850230498511,33.3283227133043,0,,,3451.5193732439,0.328084,0,42.967849144,14,5,15.878,3451.5193732439,0,0,42.983269092,0,0,0,179.1, -0.2, 0,0,0,1024,1024,1024,1024,179.1,-89.9,71,3.974,3.989,3.993,3.97,0,0,1.57,111.11,3451.5193732439,0,41,Motors_Started,
387100,2021-06-18 11:50:14,40.1850230605858,33.3283227061959,0,,,3451.5193732439,0.328084,0,42.96916148,14,5,15.878,3451.5193732439,0,0,42.983269092,0,0,0,179.3, -0.2, 0,0,0,1024,1024,1024,1024,179.1,-89.9,71,3.974,3.989,3.993,3.97,0,0,1.57,111.11,3451.5193732439,0,41,Motors_Started,
387200,2021-06-18 11:50:14,40.1850230950632,33.3283226889799,0,,,3451.5193732439,0.328084,0,42.973754656,14,5,15.878,3451.5193732439,0,0,42.983269092,0,0,0,179.2, -0.2, 0,0,0,1024,1024,1024,1024,179.1,-89.9,71,3.974,3.989,3.993,3.97,0,0,1.57,111.11,3451.5193732439,0,41,Motors_Started,
387300,2021-06-18 11:50:14,40.1850230885624,33.328322698482,0,,,3451.5193732439,0.328084,0,42.97408274,14,5,15.878,3451.5193732439,0,0,42.983269092,0,0,0,179.2, -0.2, 0,0,0,1024,1024,1024,1024,179.2,-90,71,3.974,3.989,3.993,3.97,0,0,1.57,111.11,3451.5193732439,0,41,Motors_Started,
387400,2021-06-18 11:50:15,40.1850230795604,33.328322710221,0,,,3451.5193732439,0.328084,0,42.974410824,14,5,15.878,3451.5193732439,0,0,42.983269092,0,0,0,179.3, -0.2, 0,0,0,1024,1024,1024,1024,179.1,-89.9,71,3.974,3.989,3.993,3.97,0,0,1.57,111.11,3451.5193732439,0,41,Motors_Started,
387500,2021-06-18 11:50:15,40.1850230684544,33.3283227224141,0,,,3451.5193732439,0.328084,0,42.974410824,14,5,15.915,3451.5193732439,0,0,42.983269092,0,0,0,179.2, -0.2, 0,0,0,1024,1024,1024,1024,179.1,-89.9,71,3.951,3.97,3.975,3.946,0,0,2.862,111.11,3451.5193732439,0,41,Motors_Started,
387600,2021-06-18 11:50:15,40.1850230464118,33.3283227942773,0,,,3451.5193732439,0.328084,0,42.984253344,14,5,15.915,3451.5193732439,0,0,42.984253344,0,0,0,179.2, -0.2, 0,0,0,1024,1024,1024,1024,179.1,-89.9,71,3.951,3.97,3.975,3.946,0,0,2.862,111.11,3451.5193732439,0,41,Motors_Started,
387700,2021-06-18 11:50:15,40.1850230895265,33.3283228045756,0,,,3451.5193732439,0.328084,0,42.996720536,14,5,15.915,3451.5193732439,0,0,42.996720536,0,0,0,179.2, -0.2, 0,0,0,1024,1024,1024,1024,179.1,-89.9,71,3.951,3.97,3.975,3.946,0,0,2.862,111.11,3451.5193732439,0,41,Motors_Started,
387800,2021-06-18 11:50:15,40.1850231141876,33.3283228118634,0,,,3451.5193732439,0.328084,0,43.004266468,14,5,15.915,3451.5193732439,0,0,43.004266468,0,0,0,179.2, -0.2, 0,0,0,1024,1024,1024,1024,179.1,-89.9,71,3.951,3.97,3.975,3.946,0,0,2.862,111.11,3451.5193732439,0,11,AutoTakeoff,
387900,2021-06-18 11:50:15,40.1850231249093,33.3283228170377,0,,,3451.5193732439,0.328084,0,43.007875392,14,5,15.915,3451.5193732439,0,0,43.007875392,0,0,0,179.2, -0.2, 0,0,0,1024,1024,1024,1024,179.1,-89.9,71,3.951,3.97,3.975,3.946,0,0,2.862,111.11,3451.5193732439,0,11,AutoTakeoff,
388000,2021-06-18 11:50:15,40.1850231586963,33.3283227182152,0,,,3451.5193732439,0.328084,0,42.995080116,14,5,15.915,3451.5193732439,0,0,43.007875392,0,0,0,179.2, -0.2, 0,0,0,1024,1024,1024,1024,179.2,-89.9,71,3.951,3.97,3.975,3.946,0,0,2.862,111.11,3451.5193732439,0,11,AutoTakeoff,
388100,2021-06-18 11:50:15,40.1850231537784,33.3283226698746,0,,,3451.5193732439,0.328084,0,42.983597176,14,5,15.915,3451.5193732439,0,0,43.007875392,0,0,0,179.2, -0.2, 0,0,0,1024,1024,1024,1024,179.1,-89.9,71,3.951,3.97,3.975,3.946,0,0,2.862,111.11,3451.5193732439,0,11,AutoTakeoff,
388200,2021-06-18 11:50:15,40.1850231756907,33.3283226405441,0,,,3451.5193732439,0.328084,0,42.982612924,14,5,15.915,3451.5193732439,0,0,43.007875392,0,0,0,179.2, -0.2, 0,0,0,1024,1024,1024,1024,179.1,-90,71,3.951,3.97,3.975,3.946,0,0,2.862,111.11,3451.5193732439,0,11,AutoTakeoff,
388300,2021-06-18 11:50:15,40.1850232185448,33.3283226258395,0,,,3451.5193732439,0.328084,0,42.989830772,14,5,15.915,3451.5193732439,0,0,43.007875392,0,0,0,179.2, -0.2, 0,0,0,1024,1024,1024,1024,179.1,-89.9,71,3.951,3.97,3.975,3.946,0,0,2.862,111.11,3451.5193732439,0,11,AutoTakeoff,
388400,2021-06-18 11:50:16,40.1850232905872,33.3283226325107,0,,,3451.5193732439,0.328084,0,43.00853156,14,5,15.915,3451.5193732439,0,0,43.00853156,0,0,0,179.2, -0.2, 0,0,0,1024,1024,1024,1024,179.1,-89.9,71,3.951,3.97,3.975,3.946,0,0,2.862,111.11,3451.5193732439,0,11,AutoTakeoff,
388500,2021-06-18 11:50:16,40.1850232999931,33.3283226331946,0,,,3451.5193732439,0.328084,0,43.010828148,14,5,15.745,3451.5193732439,0,0,43.010828148,0,0,0,179.2, -0.2, -0.2,0,0,1024,1024,1024,1024,179.1,-90,71,3.951,3.97,3.975,3.946,0,0,2.862,111.11,3451.5193732439,0,11,AutoTakeoff,
388600,2021-06-18 11:50:16,40.1850233279502,33.3283226489194,0,,,3451.5193732439,0.328084,0,43.020998752,14,5,15.745,3451.5193732439,0,0,43.020998752,0,0,0,179.2, -0.4, -1.6,0,0,1024,1024,1024,1024,179.1,-89.9,71,3.951,3.97,3.975,3.946,0,0,2.862,111.11,3451.5193732439,0,11,AutoTakeoff,
388700,2021-06-18 11:50:16,40.1850233693322,33.3283227104621,0,,,3451.5193732439,0.328084,0,43.043636548,14,5,15.745,3451.5193732439,0,0,43.043636548,0,0,-0.223694,179.1, -0.5, -4.2,0,0,1024,1024,1024,1024,179.1,-89.9,71,3.951,3.97,3.975,3.946,0,0,2.862,111.11,3451.5193732439,0,11,AutoTakeoff,
388800,2021-06-18 11:50:16,40.1850233558031,33.3283228633825,0,,,3451.5193732439,0.328084,0.223694,43.072836024,14,5,15.745,3451.5193732439,0,0.223694,43.072836024,0,0.223694,-0.671082,179.2, -0.5, -4.1,0,0,1024,1024,1024,1024,179.1,-89.9,71,3.951,3.97,3.975,3.946,0,0,2.862,111.11,3451.5193732439,0,11,AutoTakeoff,
388900,2021-06-18 11:50:16,40.1850232432972,33.3283231948427,0,,,3451.5193732439,0.656168,0.447388,43.115815028,14,5,15.745,3451.5193732439,0,0.447388,43.115815028,0,0.447388,-0.894776,179.1, 0, 0.1,0,0,1024,1024,1024,1024,179.1,-89.9,71,3.951,3.97,3.975,3.946,0,0,2.862,111.11,3451.5193732439,0,11,AutoTakeoff,
389000,2021-06-18 11:50:16,40.1850232364186,33.3283235010087,0.328084,,,3451.8474572439,0.656168,0.447388,43.178479072,14,5,15.745,3451.8474572439,0.328084,0.447388,43.178479072,0,0.447388,-1.11847,179, 0.3, 2.9,0,0,1024,1024,1024,1024,179.1,-90,71,3.951,3.97,3.975,3.946,0,0,2.862,111.11,3451.8474572439,0.328084,11,AutoTakeoff,
389100,2021-06-18 11:50:16,40.1850232692676,33.3283237939838,0.328084,,,3451.8474572439,0.984252,0.447388,43.248360964,15,5,15.745,3451.8474572439,0.328084,0.447388,43.248360964,0,0.447388,-1.342164,179, 0, 3.6,0,0,1024,1024,1024,1024,179.1,-90,71,3.951,3.97,3.975,3.946,0,0,2.862,111.11,3451.8474572439,0.328084,11,AutoTakeoff,
389200,2021-06-18 11:50:16,40.1850233274682,33.3283240436301,0.656168,,,3452.1755412439,1.312336,0.447388,43.314962016,15,5,15.745,3452.1755412439,0.656168,0.447388,43.314962016,0,0.447388,-1.342164,179, 0, 3.2,0,0,1024,1024,1024,1024,179.2,-90,71,3.951,3.97,3.975,3.946,0,0,2.862,111.11,3452.1755412439,0.656168,11,AutoTakeoff,
389300,2021-06-18 11:50:16,40.185023534971,33.3283243547461,0.656168,,,3452.1755412439,1.312336,0.223694,43.4301195,15,5,15.745,3452.1755412439,0.656168,0.447388,43.4301195,0,0.223694,-1.11847,179, -0.1, 2.7,0,0,1024,1024,1024,1024,179.1,-90,71,3.951,3.97,3.975,3.946,0,0,2.862,111.11,3452.1755412439,0.656168,11,AutoTakeoff,
389400,2021-06-18 11:50:17,40.1850235991057,33.3283245532321,0.984252,,,3452.5036252439,1.64042,0.223694,43.487206116,15,5,15.745,3452.5036252439,0.984252,0.447388,43.487206116,0,0.223694,-1.11847,179, -0.3, 2.5,0,0,1024,1024,1024,1024,179.1,-90,71,3.951,3.97,3.975,3.946,0,0,2.862,111.11,3452.5036252439,0.984252,11,AutoTakeoff,
389500,2021-06-18 11:50:17,40.1850236549874,33.3283247382581,0.984252,,,3452.5036252439,1.64042,0,43.539699556,15,5,15.708,3452.5036252439,0.984252,0.447388,43.539699556,0,0,-1.11847,179, -0.4, 2,0,0,1024,1024,1024,1024,179.2,-90,71,3.96,3.976,3.976,3.944,0,0,3.93,111.11,3452.5036252439,0.984252,11,AutoTakeoff,
389600,2021-06-18 11:50:17,40.1850237288536,33.3283248629074,1.312336,,,3452.8317092439,1.968504,0,43.583662812,15,5,15.708,3452.8317092439,1.312336,0.447388,43.583662812,0,0,-1.11847,179, -0.7, 1.7,0,0,1024,1024,1024,1024,179.2,-90,71,3.96,3.976,3.976,3.944,0,0,3.93,111.11,3452.8317092439,1.312336,11,AutoTakeoff,
389700,2021-06-18 11:50:17,40.1850238301167,33.3283248944468,1.64042,,,3453.1597932439,1.968504,0,43.614174624,15,5,15.708,3453.1597932439,1.64042,0.447388,43.614174624,0,0,-1.11847,179, -1.1, 1.9,0,0,1024,1024,1024,1024,179.2,-89.9,71,3.96,3.976,3.976,3.944,0,0,3.93,111.11,3453.1597932439,1.64042,11,AutoTakeoff,
389800,2021-06-18 11:50:17,40.185023853879,33.3283249709406,1.64042,,,3453.1597932439,2.296588,0,43.636156252,15,5,15.708,3453.1597932439,1.64042,0.447388,43.636156252,0,0,-1.11847,178.9, -1.1, 2.3,0,0,1024,1024,1024,1024,179.1,-89.9,71,3.96,3.976,3.976,3.944,0,0,3.93,111.11,3453.1597932439,1.64042,11,AutoTakeoff,
389900,2021-06-18 11:50:17,40.1850238290029,33.3283250388461,1.64042,,,3453.1597932439,2.296588,0,43.644686436,15,5,15.708,3453.1597932439,1.64042,0.447388,43.644686436,0,0,-0.894776,178.8, -0.9, 2,0,0,1024,1024,1024,1024,179.1,-90,71,3.96,3.976,3.976,3.944,0,0,3.93,111.11,3453.1597932439,1.64042,11,AutoTakeoff,
390000,2021-06-18 11:50:17,40.1850238278239,33.3283250745843,1.968504,,,3453.4878772439,2.624672,0,43.651904284,15,5,15.708,3453.4878772439,1.968504,0.447388,43.651904284,0,0,-0.894776,178.7, -1, 1.7,0,0,1024,1024,1024,1024,179.1,-90,71,3.96,3.976,3.976,3.944,0,0,3.93,111.11,3453.4878772439,1.968504,11,AutoTakeoff,
390100,2021-06-18 11:50:17,40.1850237301368,33.3283249912343,1.968504,,,3453.4878772439,2.624672,0,43.610893784,16,5,15.708,3453.4878772439,1.968504,0.447388,43.651904284,0,0,-0.894776,178.7, -0.9, 1.8,0,0,1024,1024,1024,1024,179.1,-89.9,71,3.96,3.976,3.976,3.944,0,0,3.93,111.11,3453.4878772439,1.968504,11,AutoTakeoff,
390200,2021-06-18 11:50:17,40.1850237595465,33.3283250461451,1.968504,,,3453.4878772439,2.952756,0,43.629594572,16,5,15.708,3453.4878772439,1.968504,0.447388,43.651904284,0,0,-0.894776,178.7, -1.4, 1.8,0,0,1024,1024,1024,1024,179.1,-90,71,3.96,3.976,3.976,3.944,0,0,3.93,111.11,3453.4878772439,1.968504,11,AutoTakeoff,
390300,2021-06-18 11:50:17,40.1850237872626,33.3283251289849,2.296588,,,3453.8159612439,2.952756,0,43.653872788,17,5,15.708,3453.8159612439,2.296588,0.447388,43.653872788,0,0,-0.894776,178.7, -1.7, 1.5,0,0,1024,1024,1024,1024,179.1,-90,71,3.96,3.976,3.976,3.944,0,0,3.93,111.11,3453.8159612439,2.296588,11,AutoTakeoff,
390400,2021-06-18 11:50:18,40.1850238243586,33.3283252041333,2.296588,,,3453.8159612439,3.28084,0,43.678479088,17,5,15.708,3453.8159612439,2.296588,0.447388,43.678479088,0,0,-0.894776,178.8, -1.8, 1.6,0,0,1024,1024,1024,1024,179.1,-90,71,3.96,3.976,3.976,3.944,0,0,3.93,111.11,3453.8159612439,2.296588,11,AutoTakeoff,
390500,2021-06-18 11:50:18,40.1850238718635,33.3283252807841,2.624672,,,3454.1440452439,3.28084,0,43.706038144,17,5,15.568,3454.1440452439,2.624672,0.447388,43.706038144,0,0,-0.894776,179, -1.4, 2,0,0,1024,1024,1024,1024,179.1,-89.9,71,3.884,3.912,3.917,3.875,0,0,13.074,111.11,3454.1440452439,2.624672,11,AutoTakeoff,
390600,2021-06-18 11:50:18,40.1850239136038,33.3283254029669,2.952756,,,3454.4721292439,3.608924,0,43.7417993,17,5,15.568,3454.4721292439,2.952756,0.447388,43.7417993,0,0,-1.11847,179.1, -0.8, 2.2,0,0,1024,1024,1024,1024,179.1,-88.7,71,3.884,3.912,3.917,3.875,0,0,13.074,111.11,3454.4721292439,2.952756,11,AutoTakeoff,
390700,2021-06-18 11:50:18,40.1850238113245,33.3283254128895,2.952756,,,3454.4721292439,3.608924,0,43.719489588,17,5,15.568,3454.4721292439,2.952756,0.447388,43.7417993,0,0,-0.894776,179.2, -0.4, 2.3,0,0,1024,1024,1024,1024,179.1,-79.7,71,3.884,3.912,3.917,3.875,0,0,13.074,111.11,3454.4721292439,2.952756,14,Waypoint,
390800,2021-06-18 11:50:18,40.1850237297525,33.3283253988521,3.28084,,,3454.8002132439,3.937008,0,43.697179876,17,5,15.568,3454.8002132439,3.28084,0.447388,43.7417993,0,0,-0.894776,179.3, 0, 2,0,0,1024,1024,1024,1024,179.1,-70.7,71,3.884,3.912,3.917,3.875,0,0,13.074,111.11,3454.8002132439,3.28084,14,Waypoint,
390900,2021-06-18 11:50:18,40.18502366993,33.3283253630522,3.28084,,,3454.8002132439,3.937008,0,43.675526332,17,5,15.568,3454.8002132439,3.28084,0.447388,43.7417993,0,0,-0.894776,179.1, 0, 1.3,0,0,1024,1024,1024,1024,179.1,-61.7,71,3.884,3.912,3.917,3.875,0,0,13.074,111.11,3454.8002132439,3.28084,14,Waypoint,
391000,2021-06-18 11:50:18,40.1850235028321,33.3283253410038,3.608924,,,3455.1282972439,4.265092,0,43.631234992,17,5,15.568,3455.1282972439,3.608924,0.447388,43.7417993,0,0,-0.894776,179, -0.2, 0.7,0,0,1024,1024,1024,1024,179.1,-52.7,71,3.884,3.912,3.917,3.875,0,0,13.074,111.11,3455.1282972439,3.608924,14,Waypoint,
391100,2021-06-18 11:50:18,40.1850235235785,33.3283253686357,3.608924,,,3455.1282972439,4.265092,0,43.642061764,17,5,15.568,3455.1282972439,3.608924,0.447388,43.7417993,0,0,-0.894776,178.9, 0, 0,0,0,1024,1024,1024,1024,179.1,-43.7,71,3.884,3.912,3.917,3.875,0,0,13.074,111.11,3455.1282972439,3.608924,14,Waypoint,
391200,2021-06-18 11:50:18,40.1850235715198,33.3283254092512,3.937008,,,3455.4563812439,4.593176,0,43.662074888,17,5,15.568,3455.4563812439,3.937008,0.447388,43.7417993,0,0,-0.894776,179, -0.3, 0,0,0,1024,1024,1024,1024,179.1,-43.7,71,3.884,3.912,3.917,3.875,0,0,13.074,111.11,3455.4563812439,3.937008,14,Waypoint,
391300,2021-06-18 11:50:18,40.1850236471383,33.3283254718365,3.937008,,,3455.4563812439,4.593176,0,43.693242868,17,5,15.568,3455.4563812439,3.937008,0.447388,43.7417993,0,0,-1.11847,179, -0.8, 0.4,0,0,1024,1024,1024,1024,179.1,-34.8,71,3.884,3.912,3.917,3.875,0,0,13.074,111.11,3455.4563812439,3.937008,14,Waypoint,
391400,2021-06-18 11:50:19,40.1850238438413,33.328325510047,4.265092,,,3455.7844652439,4.92126,0,43.748032896,17,5,15.568,3455.7844652439,4.265092,0.447388,43.748032896,0,0,-1.342164,179, -1.3, 1.1,0,0,1024,1024,1024,1024,179.1,-25.7,71,3.884,3.912,3.917,3.875,0,0,13.074,111.11,3455.7844652439,4.265092,14,Waypoint,
391500,2021-06-18 11:50:19,40.1850239032404,33.3283255191792,4.265092,,,3455.7844652439,4.92126,0,43.763780928,17,5,15.416,3455.7844652439,4.265092,0.447388,43.763780928,0,0,-2.013246,179, -1.3, 1.2,0,0,1024,1024,1024,1024,179.1,-16.8,71,3.868,3.892,3.902,3.859,0,0,13.074,111.11,3455.7844652439,4.265092,14,Waypoint,
391600,2021-06-18 11:50:19,40.1850239109592,33.3283255135452,4.92126,,,3456.4406332439,5.249344,0,43.764437096,17,5,15.416,3456.4406332439,4.92126,0.447388,43.764437096,0,0,-2.684328,179, -0.9, 1,0,0,1024,1024,1024,1024,179.1,-7.7,71,3.868,3.892,3.902,3.859,0,0,13.074,111.11,3456.4406332439,4.92126,14,Waypoint,
391700,2021-06-18 11:50:19,40.1850238780842,33.3283254959984,5.249344,,,3456.7687172439,5.905512,0,43.752954156,17,5,15.416,3456.7687172439,5.249344,0.447388,43.764437096,0,0,-3.35541,179, -1, 0.5,0,0,1024,1024,1024,1024,179.1,-7.7,71,3.868,3.892,3.902,3.859,0,0,13.074,111.11,3456.7687172439,5.249344,14,Waypoint,
391800,2021-06-18 11:50:19,40.1850238164964,33.3283255364064,5.905512,,,3457.4248852439,6.56168,0,43.747048644,17,5,15.416,3457.4248852439,5.905512,0.447388,43.764437096,0,0,-4.026492,179.1, -0.8, 0.6,0,0,1024,1024,1024,1024,179.1,-7.7,71,3.868,3.892,3.902,3.859,0,0,13.074,111.11,3457.4248852439,5.905512,14,Waypoint,
391900,2021-06-18 11:50:19,40.1850238446555,33.3283256130573,6.56168,,,3458.0810532439,7.217848,0,43.770014524,17,5,15.416,3458.0810532439,6.56168,0.447388,43.770014524,0,0,-4.921268,179.1, -0.9, 1.3,0,0,1024,1024,1024,1024,179.1,-7.7,71,3.868,3.892,3.902,3.859,0,0,13.074,111.11,3458.0810532439,6.56168,14,Waypoint,
392000,2021-06-18 11:50:19,40.1850239027388,33.3283257013966,7.217848,,,3458.7372212439,7.874016,0,43.80249484,17,5,15.416,3458.7372212439,7.217848,0.447388,43.80249484,0,0,-5.59235,179, -1.2, 1.3,0,0,1024,1024,1024,1024,179.1,-7.7,71,3.868,3.892,3.902,3.859,0,0,13.074,111.11,3458.7372212439,7.217848,14,Waypoint,
392100,2021-06-18 11:50:19,40.1850239884927,33.3283257968219,8.2021,,,3459.7214732439,8.858268,0,43.842849172,17,5,15.416,3459.7214732439,8.2021,0.447388,43.842849172,0,0,-6.487126,179, -0.8, 1.1,0,0,1024,1024,1024,1024,179.1,-7.7,71,3.868,3.892,3.902,3.859,0,0,13.074,111.11,3459.7214732439,8.2021,14,Waypoint,
392200,2021-06-18 11:50:19,40.1850240099751,33.3283258600351,9.186352,,,3460.7057252439,9.84252,0,43.86154996,17,5,15.416,3460.7057252439,9.186352,0.447388,43.86154996,0,0,-6.934514,179.1, -0.7, 1.4,0,0,1024,1024,1024,1024,179.1,-7.7,71,3.868,3.892,3.902,3.859,0,0,13.074,111.11,3460.7057252439,9.186352,14,Waypoint,
392300,2021-06-18 11:50:19,40.1850238412944,33.3283259412043,10.170604,,,3461.6899772439,10.826772,0,43.83858408,17,5,15.416,3461.6899772439,10.170604,0.447388,43.86154996,0,0,-7.158208,179.1, -0.8, 1.4,0,0,1024,1024,1024,1024,179.1,-7.7,71,3.868,3.892,3.902,3.859,0,0,13.074,111.11,3461.6899772439,10.170604,14,Waypoint,
392400,2021-06-18 11:50:20,40.1850237487532,33.3283259372129,11.154856,,,3462.6742292439,11.811024,0,43.815946284,17,5,15.416,3462.6742292439,11.154856,0.447388,43.86154996,0,0,-7.381902,179.2, -0.4, 0.8,0,0,1024,1024,1024,1024,179.1,-7.7,71,3.868,3.892,3.902,3.859,0,0,13.074,111.11,3462.6742292439,11.154856,14,Waypoint,
392500,2021-06-18 11:50:20,40.185023631668,33.3283259223682,12.467192,,,3463.9865652439,12.795276,0,43.785106388,17,5,15.477,3463.9865652439,12.467192,0.447388,43.86154996,0,0,-7.381902,179.2, -0.4, 0.5,0,0,1024,1024,1024,1024,179.1,-7.7,71,3.868,3.892,3.902,3.859,0,0,13.074,111.11,3463.9865652439,12.467192,14,Waypoint,
392600,2021-06-18 11:50:20,40.1850236164584,33.3283258764999,13.451444,,,3464.9708172439,13.779528,0,43.771983028,17,5,15.477,3464.9708172439,13.451444,0.447388,43.86154996,0,0,-7.381902,179.2, -0.7, 0.8,0,0,1024,1024,1024,1024,179.1,-7.7,71,3.868,3.892,3.902,3.859,0,0,13.074,111.11,3464.9708172439,13.451444,14,Waypoint,
392700,2021-06-18 11:50:20,40.1850236366185,33.328325608679,14.76378,,,3466.2831532439,15.091864,0,43.719817672,17,5,15.477,3466.2831532439,14.76378,0.447388,43.86154996,0,0,-7.381902,179.1, -1.4, 0.9,0,0,1024,1024,1024,1024,179.1,-7.7,71,3.868,3.892,3.902,3.859,0,0,13.074,111.11,3466.2831532439,14.76378,14,Waypoint,
392800,2021-06-18 11:50:20,40.1850237111752,33.3283255250879,15.748032,,,3467.2674052439,16.076116,0,43.719817672,17,5,15.477,3467.2674052439,15.748032,0.447388,43.86154996,0,0,-7.158208,179.1, -1.4, 0.3,0,0,1024,1024,1024,1024,179.1,-7.7,71,3.868,3.892,3.902,3.859,0,0,13.074,111.11,3467.2674052439,15.748032,14,Waypoint,
392900,2021-06-18 11:50:20,40.1850237704506,33.3283254484483,16.732284,,,3468.2516572439,17.060368,0,43.717521084,17,5,15.477,3468.2516572439,16.732284,0.447388,43.86154996,0,0,-7.158208,179.1, -1.3, 0.2,0,0,1024,1024,1024,1024,179.1,-7.7,71,3.868,3.892,3.902,3.859,0,0,13.074,111.11,3468.2516572439,16.732284,14,Waypoint,
393000,2021-06-18 11:50:20,40.1850238287814,33.3283253972487,18.04462,,,3469.5639932439,18.04462,0,43.72047384,17,5,15.477,3469.5639932439,18.04462,0.447388,43.86154996,0,0,-7.158208,179.1, -1.2, 0.2,0,0,1024,1024,1024,1024,179.1,-7.7,71,3.868,3.892,3.902,3.859,0,0,13.074,111.11,3469.5639932439,18.04462,14,Waypoint,
393100,2021-06-18 11:50:20,40.1850239309109,33.3283253150816,19.028872,,,3470.5482452439,19.356956,0,43.727363604,17,5,15.477,3470.5482452439,19.028872,0.447388,43.86154996,0,0,-6.934514,179.1, -2, 0,0,0,1024,1024,1024,1024,179.1,-7.7,71,3.868,3.892,3.902,3.859,0,0,13.074,111.11,3470.5482452439,19.028872,14,Waypoint,
393200,2021-06-18 11:50:20,40.1850240365448,33.3283253952698,20.013124,,,3471.5324972439,20.341208,0,43.769358356,17,5,15.477,3471.5324972439,20.013124,0.447388,43.86154996,0,0,-6.934514,179, -1.8, -0.4,0,0,1024,1024,1024,1024,179.1,-7.7,71,3.868,3.892,3.902,3.859,0,0,13.074,111.11,3471.5324972439,20.013124,14,Waypoint,
393300,2021-06-18 11:50:20,40.1850241902048,33.3283255889851,20.997376,,,3472.5167492439,21.32546,0,43.84678618,17,5,15.477,3472.5167492439,20.997376,0.447388,43.86154996,0,0,-6.71082,179, -1.3, 0.1,0,0,1024,1024,1024,1024,179.1,-7.7,71,3.868,3.892,3.902,3.859,0,0,13.074,111.11,3472.5167492439,20.997376,14,Waypoint,
393400,2021-06-18 11:50:21,40.1850243405427,33.3283258071369,21.981628,,,3473.5010012439,22.309712,0,43.92880718,17,5,15.477,3473.5010012439,21.981628,0.447388,43.92880718,0,0,-6.71082,178.9, -2, 1.3,0,0,1024,1024,1024,1024,179.1,-7.7,71,3.868,3.892,3.902,3.859,0,0,13.074,111.11,3473.5010012439,21.981628,14,Waypoint,
393500,2021-06-18 11:50:21,40.1850247762427,33.3283263719412,22.96588,,,3474.4852532439,23.293964,0,44.151576216,17,5,15.207,3474.4852532439,22.96588,0.447388,44.151576216,0,0,-6.71082,178.9, -2.2, 2.2,0,0,1024,1024,1024,1024,179.1,-7.7,71,3.819,3.855,3.867,3.817,0,0,20.056,111.11,3474.4852532439,22.96588,14,Waypoint,
393600,2021-06-18 11:50:21,40.1850248932887,33.3283265702702,23.950132,,,3475.4695052439,24.278216,0,44.221458108,17,5,15.207,3475.4695052439,23.950132,0.447388,44.221458108,0,0,-6.487126,178.9, -1.6, 2.4,0,0,1024,1024,1024,1024,179.1,-7.7,71,3.819,3.855,3.867,3.817,0,0,20.056,111.11,3475.4695052439,23.950132,14,Waypoint,
393700,2021-06-18 11:50:21,40.1850249989357,33.3283267419931,24.934384,,,3476.4537572439,25.262468,0,44.282809816,17,5,15.207,3476.4537572439,24.934384,0.447388,44.282809816,0,0,-6.71082,179.1, -1.5, 2.5,0,0,1024,1024,1024,1024,179.1,-7.7,71,3.819,3.855,3.867,3.817,0,0,20.056,111.11,3476.4537572439,24.934384,14,Waypoint,
393800,2021-06-18 11:50:21,40.1850250916984,33.3283268867793,25.918636,,,3477.4380092439,26.24672,0,44.33563134,17,5,15.207,3477.4380092439,25.918636,0.447388,44.33563134,0,0,-6.71082,179.1, -2.1, 2.4,0,0,1024,1024,1024,1024,179.1,-7.7,71,3.819,3.855,3.867,3.817,0,0,20.056,111.11,3477.4380092439,25.918636,14,Waypoint,
393900,2021-06-18 11:50:21,40.1850251714726,33.328327028454,26.902888,,,3478.4222612439,27.230972,0,44.384515856,17,5,15.207,3478.4222612439,26.902888,0.447388,44.384515856,0,0,-6.71082,179, -2.1, 2,0,0,1024,1024,1024,1024,179.1,-7.7,71,3.819,3.855,3.867,3.817,0,0,20.056,111.11,3478.4222612439,26.902888,14,Waypoint,
394000,2021-06-18 11:50:21,40.185025359141,33.3283271804102,28.215224,,,3479.7345972439,28.215224,0,44.461287512,17,5,15.207,3479.7345972439,28.215224,0.447388,44.461287512,0,0,-6.71082,179, -2.1, 2.7,0,0,1024,1024,1024,1024,179.1,-7.7,71,3.819,3.855,3.867,3.817,0,0,20.056,111.11,3479.7345972439,28.215224,14,Waypoint,
394100,2021-06-18 11:50:21,40.1850253642282,33.3283273442567,29.199476,,,3480.7188492439,29.199476,0,44.497048668,17,5,15.207,3480.7188492439,29.199476,0.447388,44.497048668,0,0,-6.71082,179, -0.8, 3.9,0,0,1024,1024,1024,1024,179.1,-7.7,71,3.819,3.855,3.867,3.817,0,0,20.056,111.11,3480.7188492439,29.199476,14,Waypoint,
394200,2021-06-18 11:50:21,40.1850253717842,33.3283274553115,30.183728,,,3481.7031012439,30.183728,0,44.522311136,17,5,15.207,3481.7031012439,30.183728,0.447388,44.522311136,0,0,-6.71082,179, 0, 3.8,0,0,1024,1024,1024,1024,179.1,-7.7,71,3.819,3.855,3.867,3.817,0,0,20.056,111.11,3481.7031012439,30.183728,14,Waypoint,
394300,2021-06-18 11:50:21,40.1850254031676,33.3283275228022,31.16798,,,3482.6873532439,31.16798,0,44.54396468,17,5,15.207,3482.6873532439,31.16798,0.447388,44.54396468,0,0,-6.71082,179, -0.9, 3.9,0,0,1024,1024,1024,1024,179.1,-7.7,71,3.819,3.855,3.867,3.817,0,0,20.056,111.11,3482.6873532439,31.16798,14,Waypoint,
394400,2021-06-18 11:50:22,40.1850254168726,33.3283274675158,32.152232,,,3483.6716052439,32.152232,0,44.53576258,17,5,15.207,3483.6716052439,32.152232,0.447388,44.54396468,0,0,-6.487126,178.9, -1.8, 4.1,0,0,1024,1024,1024,1024,179.1,-7.7,71,3.819,3.855,3.867,3.817,0,0,20.056,111.11,3483.6716052439,32.152232,14,Waypoint,
394500,2021-06-18 11:50:22,40.1850254578833,33.3283275274944,33.136484,,,3484.6558572439,33.136484,0,44.558072292,17,5,15.406,3484.6558572439,33.136484,0.447388,44.558072292,0,0,-6.487126,179, -2.6, 3.2,0,0,1024,1024,1024,1024,179.1,-7.7,71,3.846,3.876,3.882,3.834,0,0,20.056,111.11,3484.6558572439,33.136484,14,Waypoint,
394600,2021-06-18 11:50:22,40.1850254757636,33.3283275640174,34.120736,,,3485.6401092439,34.120736,0,44.569883316,17,5,15.406,3485.6401092439,34.120736,0.447388,44.569883316,0,0,-6.487126,179, -3.1, 2.2,0,0,1024,1024,1024,1024,179.1,-7.7,71,3.846,3.876,3.882,3.834,0,0,20.056,111.11,3485.6401092439,34.120736,14,Waypoint,
394700,2021-06-18 11:50:22,40.1850254640453,33.3283276018523,35.104988,,,3486.6243612439,35.104988,0,44.57513266,17,5,15.406,3486.6243612439,35.104988,0.447388,44.57513266,0,0,-6.487126,179.1, -2.7, 2.2,0,0,1024,1024,1024,1024,179.1,-7.7,71,3.846,3.876,3.882,3.834,0,0,20.056,111.11,3486.6243612439,35.104988,14,Waypoint,
394800,2021-06-18 11:50:22,40.1850256051728,33.3283276286042,36.08924,,,3487.6086132439,36.08924,0,44.61450274,17,5,15.406,3487.6086132439,36.08924,0.447388,44.61450274,0,0,-6.487126,179.1, -2.3, 2.5,0,0,1024,1024,1024,1024,179.1,-7.7,71,3.846,3.876,3.882,3.834,0,0,20.056,111.11,3487.6086132439,36.08924,14,Waypoint,
394900,2021-06-18 11:50:22,40.1850256583383,33.3283276396424,37.073492,,,3488.5928652439,37.073492,0,44.62926652,17,5,15.406,3488.5928652439,37.073492,0.447388,44.62926652,0,0,-6.487126,179, -2.4, 2.6,0,0,1024,1024,1024,1024,179.1,-7.7,71,3.846,3.876,3.882,3.834,0,0,20.056,111.11,3488.5928652439,37.073492,14,Waypoint,
395000,2021-06-18 11:50:22,40.1850257028534,33.3283276658112,38.057744,,,3489.5771172439,38.057744,0,44.645342636,17,5,15.406,3489.5771172439,38.057744,0.447388,44.645342636,0,0,-6.487126,179, -2.1, 2.3,0,0,1024,1024,1024,1024,179.1,-7.7,71,3.846,3.876,3.882,3.834,0,0,20.056,111.11,3489.5771172439,38.057744,14,Waypoint,
395100,2021-06-18 11:50:22,40.1850257433951,33.3283277172406,39.041996,,,3490.5613692439,39.041996,0,44.666011928,17,5,15.406,3490.5613692439,39.041996,0.447388,44.666011928,0,0,-6.487126,179.1, -1.7, 2.7,0,0,1024,1024,1024,1024,179.1,-7.7,71,3.846,3.876,3.882,3.834,0,0,20.056,111.11,3490.5613692439,39.041996,14,Waypoint,
395200,2021-06-18 11:50:22,40.1850257460267,33.3283277531134,40.026248,,,3491.5456212439,40.026248,0,44.674214028,17,5,15.406,3491.5456212439,40.026248,0.447388,44.674214028,0,0,-6.487126,179.2, -1.9, 2.9,0,0,1024,1024,1024,1024,179.1,-7.7,71,3.846,3.876,3.882,3.834,0,0,20.056,111.11,3491.5456212439,40.026248,14,Waypoint,
395300,2021-06-18 11:50:22,40.185025696268,33.3283277435944,40.682416,,,3492.2017892439,41.0105,0,44.6604345,17,5,15.406,3492.2017892439,40.682416,0.447388,44.674214028,0,0,-6.487126,179.2, -2.2, 2.9,0,0,1024,1024,1024,1024,179.1,-7.7,71,3.846,3.876,3.882,3.834,0,0,20.056,111.11,3492.2017892439,40.682416,14,Waypoint,
395400,2021-06-18 11:50:23,40.18502561353,33.3283277078449,41.666668,,,3493.1860412439,41.994752,0,44.633203528,17,5,15.406,3493.1860412439,41.666668,0.447388,44.674214028,0,0,-6.487126,179.2, -1.8, 2.9,0,0,1024,1024,1024,1024,179.1,-7.7,71,3.846,3.876,3.882,3.834,0,0,20.056,111.11,3493.1860412439,41.666668,14,Waypoint,
395500,2021-06-18 11:50:23,40.1850255054664,33.3283276474515,42.65092,,,3494.1702932439,42.979004,0,44.5948177,17,5,15.376,3494.1702932439,42.65092,0.447388,44.674214028,0,0,-6.487126,179.2, -1.5, 2.3,0,0,1024,1024,1024,1024,179.1,-7.7,71,3.846,3.876,3.882,3.834,0,0,13.996,111.11,3494.1702932439,42.65092,14,Waypoint,
395600,2021-06-18 11:50:23,40.1850254375082,33.3283276103678,43.635172,,,3495.1545452439,43.963256,0,44.570867568,17,5,15.376,3495.1545452439,43.635172,0.447388,44.674214028,0,0,-6.487126,179.1, -1.1, 2.1,0,0,1024,1024,1024,1024,179.1,-7.7,71,3.846,3.876,3.882,3.834,0,0,13.996,111.11,3495.1545452439,43.635172,14,Waypoint,
395700,2021-06-18 11:50:23,40.185025352041,33.3283276009666,44.619424,,,3496.1387972439,44.619424,0,44.548557856,17,5,15.376,3496.1387972439,44.619424,0.447388,44.674214028,0,0,-6.487126,179, -1.4, 1.9,0,0,1024,1024,1024,1024,179.1,-7.7,71,3.846,3.876,3.882,3.834,0,0,13.996,111.11,3496.1387972439,44.619424,14,Waypoint,
395800,2021-06-18 11:50:23,40.1850253519498,33.3283276050478,45.603676,,,3497.1230492439,44.619424,0,44.549214024,17,5,15.376,3497.1230492439,45.603676,0.447388,44.674214028,0,0,-6.487126,179, -1.7, 1.7,0,0,1024,1024,1024,1024,179.1,-7.7,71,3.846,3.876,3.882,3.834,0,0,13.996,111.11,3497.1230492439,45.603676,14,Waypoint,
395900,2021-06-18 11:50:23,40.1850253644432,33.3283276286714,46.587928,,,3498.1073012439,44.619424,0,44.557416124,17,5,15.376,3498.1073012439,46.587928,0.447388,44.674214028,0,0,-6.487126,178.9, -1.9, 2,0,0,1024,1024,1024,1024,179.1,-7.7,71,3.846,3.876,3.882,3.834,0,0,13.996,111.11,3498.1073012439,46.587928,14,Waypoint,
396000,2021-06-18 11:50:23,40.1850253795291,33.328327649907,47.57218,,,3499.0915532439,44.619424,0,44.56529014,17,5,15.376,3499.0915532439,47.57218,0.447388,44.674214028,0,0,-6.487126,179, -2.1, 2.3,0,0,1024,1024,1024,1024,179.1,-7.7,71,3.846,3.876,3.882,3.834,0,0,13.996,111.11,3499.0915532439,47.57218,14,Waypoint,
396100,2021-06-18 11:50:23,40.1850255084042,33.3283277572898,48.228348,,,3499.7477212439,44.619424,0,44.618767832,17,5,15.376,3499.7477212439,48.228348,0.447388,44.674214028,0,0,-6.487126,179, -1.7, 2.4,0,0,1024,1024,1024,1024,179.1,-7.7,71,3.846,3.876,3.882,3.834,0,0,13.996,111.11,3499.7477212439,48.228348,14,Waypoint,
396200,2021-06-18 11:50:23,40.1850254837104,33.3283277406232,49.540684,,,3501.0600572439,44.619424,0,44.609253396,17,5,15.376,3501.0600572439,49.540684,0.447388,44.674214028,0,0,-6.71082,179, -1.4, 2.3,0,0,1024,1024,1024,1024,179.1,-7.7,71,3.846,3.876,3.882,3.834,0,0,13.996,111.11,3501.0600572439,49.540684,14,Waypoint,
396300,2021-06-18 11:50:23,40.1850254327532,33.3283277039824,50.196852,,,3501.7162252439,44.619424,0,44.589568356,17,5,15.376,3501.7162252439,50.196852,0.447388,44.674214028,0,0,-6.71082,179, -1.8, 2,0,0,1024,1024,1024,1024,179.1,-7.7,71,3.846,3.876,3.882,3.834,0,0,13.996,111.11,3501.7162252439,50.196852,14,Waypoint,
396400,2021-06-18 11:50:24,40.1850253933969,33.3283277302801,51.181104,,,3502.7004772439,44.619424,0,44.585631348,17,5,15.376,3502.7004772439,51.181104,0.447388,44.674214028,0,0,-6.71082,179.1, -2.2, 2.1,0,0,1024,1024,1024,1024,179.1,-7.7,71,3.846,3.876,3.882,3.834,0,0,13.996,111.11,3502.7004772439,51.181104,14,Waypoint,
396500,2021-06-18 11:50:24,40.1850253290929,33.3283278673748,52.165356,,,3503.6847292439,44.619424,0,44.599410876,17,5,15.332,3503.6847292439,52.165356,0.447388,44.674214028,0,0,-6.71082,179.1, -1.6, 2.8,0,0,1024,1024,1024,1024,179.1,-7.7,71,3.84,3.872,3.879,3.831,0,0,14.198,111.11,3503.6847292439,52.165356,14,Waypoint,
396600,2021-06-18 11:50:24,40.1850252822914,33.3283279151996,53.149608,,,3504.6689812439,44.619424,0,44.598426624,17,5,15.332,3504.6689812439,53.149608,0.447388,44.674214028,0,0,-6.71082,179.1, -1.4, 3.2,0,0,1024,1024,1024,1024,179.1,-7.7,71,3.84,3.872,3.879,3.831,0,0,14.198,111.11,3504.6689812439,53.149608,14,Waypoint,
396700,2021-06-18 11:50:24,40.1850252305786,33.3283279299826,54.13386,,,3505.6532332439,44.619424,0,44.589568356,17,5,15.332,3505.6532332439,54.13386,0.447388,44.674214028,0,0,-6.71082,179, -1.4, 3.2,0,0,1024,1024,1024,1024,179.1,-7.7,71,3.84,3.872,3.879,3.831,0,0,14.198,111.11,3505.6532332439,54.13386,14,Waypoint,
396800,2021-06-18 11:50:24,40.185025192004,33.3283279530737,55.118112,,,3506.6374852439,44.619424,0,44.585303264,17,5,15.332,3506.6374852439,55.118112,0.447388,44.674214028,0,0,-6.71082,179.1, -1.4, 3.4,0,0,1024,1024,1024,1024,179.1,-7.7,71,3.84,3.872,3.879,3.831,0,0,14.198,111.11,3506.6374852439,55.118112,14,Waypoint,
396900,2021-06-18 11:50:24,40.1850251325919,33.328327920985,56.102364,,,3507.6217372439,44.619424,0,44.564305888,17,5,15.332,3507.6217372439,56.102364,0.447388,44.674214028,0,0,-6.71082,179.1, -1.7, 3.6,0,0,1024,1024,1024,1024,179.1,-7.7,71,3.84,3.872,3.879,3.831,0,0,14.198,111.11,3507.6217372439,56.102364,14,Waypoint,
397000,2021-06-18 11:50:24,40.1850251299277,33.3283279578276,57.086616,,,3508.6059892439,44.619424,0,44.571523736,17,5,15.332,3508.6059892439,57.086616,0.447388,44.674214028,0,0,-6.71082,179.1, -2, 3.4,0,0,1024,1024,1024,1024,179.1,-7.7,71,3.84,3.872,3.879,3.831,0,0,14.198,111.11,3508.6059892439,57.086616,14,Waypoint,
397100,2021-06-18 11:50:24,40.1850251384347,33.3283280057477,57.742784,,,3509.2621572439,44.619424,0,44.583662844,17,5,15.332,3509.2621572439,57.742784,0.447388,44.674214028,0,0,-6.71082,179.1, -2.2, 3.3,0,0,1024,1024,1024,1024,179.1,-7.7,71,3.84,3.872,3.879,3.831,0,0,14.198,111.11,3509.2621572439,57.742784,14,Waypoint,
397200,2021-06-18 11:50:24,40.1850251750747,33.3283280477983,59.05512,,,3510.5744932439,44.619424,0,44.60137938,17,5,15.332,3510.5744932439,59.05512,0.447388,44.674214028,0,0,-6.71082,179.1, -2.5, 3.5,0,0,1024,1024,1024,1024,179.1,-7.7,71,3.84,3.872,3.879,3.831,0,0,14.198,111.11,3510.5744932439,59.05512,14,Waypoint,
397300,2021-06-18 11:50:24,40.1850252403883,33.3283280876569,60.039372,,,3511.5587452439,44.619424,0,44.625329512,17,5,15.332,3511.5587452439,60.039372,0.447388,44.674214028,0,0,-6.71082,179.1, -2.7, 3.5,0,0,1024,1024,1024,1024,179.1,-7.7,71,3.84,3.872,3.879,3.831,0,0,14.198,111.11,3511.5587452439,60.039372,14,Waypoint,
397400,2021-06-18 11:50:25,40.1850253478852,33.3283281517839,60.69554,,,3512.2149132439,44.619424,0,44.664371508,17,5,15.332,3512.2149132439,60.69554,0.447388,44.674214028,0,0,-6.71082,179.1, -2.9, 3.5,0,0,1024,1024,1024,1024,179.1,-7.7,71,3.84,3.872,3.879,3.831,0,0,14.198,111.11,3512.2149132439,60.69554,14,Waypoint,
397500,2021-06-18 11:50:25,40.1850254001713,33.3283281351397,61.679792,,,3513.1991652439,44.619424,0,44.673229776,18,5,15.322,3513.1991652439,61.679792,0.447388,44.674214028,0,0,-6.71082,179, -3.2, 3.7,0,0,1024,1024,1024,1024,179.1,-7.7,71,3.835,3.866,3.873,3.824,0,0,14.72,111.11,3513.1991652439,61.679792,14,Waypoint,
397600,2021-06-18 11:50:25,40.1850254267865,33.328328136928,62.664044,,,3514.1834172439,44.619424,0,44.679791456,18,5,15.322,3514.1834172439,62.664044,0.447388,44.679791456,0,0,-6.71082,179.1, -3.3, 3.6,0,0,1024,1024,1024,1024,179.1,-7.7,71,3.835,3.866,3.873,3.824,0,0,14.72,111.11,3514.1834172439,62.664044,14,Waypoint,
397700,2021-06-18 11:50:25,40.1850254281544,33.3283281590941,63.648296,,,3515.1676692439,44.619424,0,44.684712716,18,5,15.322,3515.1676692439,63.648296,0.447388,44.684712716,0,0,-6.71082,179, -3.4, 3.5,0,0,1024,1024,1024,1024,179.1,-7.7,71,3.835,3.866,3.873,3.824,0,0,14.72,111.11,3515.1676692439,63.648296,14,Waypoint,
397800,2021-06-18 11:50:25,40.185025466462,33.3283281664044,64.632548,,,3516.1519212439,44.619424,0,44.695539488,18,5,15.322,3516.1519212439,64.632548,0.447388,44.695539488,0,0,-6.934514,179, -3.5, 3.4,0,0,1024,1024,1024,1024,179.1,-7.7,71,3.835,3.866,3.873,3.824,0,0,14.72,111.11,3516.1519212439,64.632548,14,Waypoint,
397900,2021-06-18 11:50:25,40.1850255178296,33.3283282129117,65.6168,,,3517.1361732439,44.619424,0,44.717521116,18,5,15.322,3517.1361732439,65.6168,0.447388,44.717521116,0,0,-6.934514,179, -3.1, 3.6,0,0,1024,1024,1024,1024,179.1,-7.7,71,3.835,3.866,3.873,3.824,0,0,14.72,111.11,3517.1361732439,65.6168,14,Waypoint,
398000,2021-06-18 11:50:25,40.1850255161034,33.328328233497,66.272968,,,3517.7923412439,44.619424,0,44.721458124,18,5,15.322,3517.7923412439,66.272968,0.447388,44.721458124,0,0,-6.934514,179, -2.8, 3.8,0,0,1024,1024,1024,1024,179.1,-7.7,71,3.835,3.866,3.873,3.824,0,0,14.72,111.11,3517.7923412439,66.272968,14,Waypoint,
398100,2021-06-18 11:50:25,40.1850254671003,33.3283282246787,67.585304,,,3519.1046772439,44.619424,0.223694,44.70800668,18,5,15.322,3519.1046772439,67.585304,0.447388,44.721458124,-0.223694,0,-6.934514,179.1, -2.2, 3.9,0,0,1024,1024,1024,1024,179.1,-7.7,71,3.835,3.866,3.873,3.824,0,0,14.72,111.11,3519.1046772439,67.585304,14,Waypoint,
398200,2021-06-18 11:50:25,40.1850250936851,33.3283280262208,68.569556,,,3520.0889292439,44.619424,0.223694,44.577429248,18,5,15.322,3520.0889292439,68.569556,0.447388,44.721458124,-0.223694,0,-6.934514,179.1, -1.9, 3.6,0,0,1024,1024,1024,1024,179.1,-7.7,71,3.835,3.866,3.873,3.824,0,0,14.72,111.11,3520.0889292439,68.569556,14,Waypoint,
398300,2021-06-18 11:50:25,40.1850249282091,33.3283279241804,69.553808,,,3521.0731812439,44.619424,0.223694,44.516733708,18,5,15.322,3521.0731812439,69.553808,0.447388,44.721458124,-0.223694,0,-6.934514,179.1, -1.6, 3.1,0,0,1024,1024,1024,1024,179.1,-7.7,71,3.835,3.866,3.873,3.824,0,0,14.72,111.11,3521.0731812439,69.553808,14,Waypoint,
398400,2021-06-18 11:50:26,40.1850248043692,33.3283278429103,70.209976,,,3521.7293492439,44.619424,0,44.47014578,18,5,15.322,3521.7293492439,70.209976,0.447388,44.721458124,0,0,-6.934514,179.1, -1.3, 2.8,0,0,1024,1024,1024,1024,179.1,-7.7,71,3.835,3.866,3.873,3.824,0,0,14.72,111.11,3521.7293492439,70.209976,14,Waypoint,
398500,2021-06-18 11:50:26,40.1850247226864,33.3283277844341,71.522312,,,3523.0416852439,44.619424,0,44.438649716,18,5,15.306,3523.0416852439,71.522312,0.447388,44.721458124,0,0,-6.934514,179.1, -1.4, 2.9,0,0,1024,1024,1024,1024,179.1,-7.7,71,3.835,3.866,3.873,3.824,0,0,14.72,111.11,3523.0416852439,71.522312,14,Waypoint,
398600,2021-06-18 11:50:26,40.1850247233248,33.3283276944298,72.506564,,,3524.0259372439,44.619424,0,44.419620844,18,5,15.306,3524.0259372439,72.506564,0.447388,44.721458124,0,0,-6.934514,179, -2, 3,0,0,1024,1024,1024,1024,179.1,-7.7,71,3.835,3.866,3.873,3.824,0,0,14.72,111.11,3524.0259372439,72.506564,14,Waypoint,
398700,2021-06-18 11:50:26,40.1850247288615,33.32832761691,73.490816,,,3525.0101892439,44.619424,0,44.404200896,18,5,15.306,3525.0101892439,73.490816,0.447388,44.721458124,0,0,-6.934514,178.9, -2.5, 3.1,0,0,1024,1024,1024,1024,179.1,-7.7,71,3.835,3.866,3.873,3.824,0,0,14.72,111.11,3525.0101892439,73.490816,14,Waypoint,
398800,2021-06-18 11:50:26,40.185024786997,33.3283275616405,74.146984,,,3525.6663572439,44.619424,0,44.406497484,18,5,15.306,3525.6663572439,74.146984,0.447388,44.721458124,0,0,-6.934514,178.9, -3, 2.7,0,0,1024,1024,1024,1024,179.1,-7.7,71,3.835,3.866,3.873,3.824,0,0,14.72,111.11,3525.6663572439,74.146984,14,Waypoint,
398900,2021-06-18 11:50:26,40.1850248826387,33.3283275253921,75.131236,,,3526.6506092439,44.619424,0,44.421261264,18,5,15.306,3526.6506092439,75.131236,0.447388,44.721458124,0,0,-6.934514,179, -2.4, 2.3,0,0,1024,1024,1024,1024,179.1,-7.7,71,3.835,3.866,3.873,3.824,0,0,14.72,111.11,3526.6506092439,75.131236,14,Waypoint,
399000,2021-06-18 11:50:26,40.1850249495417,33.3283275119433,76.115488,,,3527.6348612439,44.619424,0,44.434384624,18,5,15.306,3527.6348612439,76.115488,0.447388,44.721458124,0,0,-6.934514,179, -1.8, 2,0,0,1024,1024,1024,1024,179.1,-7.7,71,3.835,3.866,3.873,3.824,0,0,14.72,111.11,3527.6348612439,76.115488,14,Waypoint,
399100,2021-06-18 11:50:26,40.1850252313668,33.3283276728131,77.09974,,,3528.6191132439,44.619424,0,44.535106412,18,5,15.306,3528.6191132439,77.09974,0.447388,44.721458124,0,0,-6.934514,179, -2.3, 2.5,0,0,1024,1024,1024,1024,179.1,-7.7,71,3.835,3.866,3.873,3.824,0,0,14.72,111.11,3528.6191132439,77.09974,14,Waypoint,
399200,2021-06-18 11:50:26,40.1850252594476,33.3283276711537,78.083992,,,3529.6033652439,44.619424,0,44.541340008,18,5,15.306,3529.6033652439,78.083992,0.447388,44.721458124,0,0,-6.934514,179, -3, 2.7,0,0,1024,1024,1024,1024,179.1,-7.7,71,3.835,3.866,3.873,3.824,0,0,14.72,111.11,3529.6033652439,78.083992,14,Waypoint,
399300,2021-06-18 11:50:26,40.185025261024,33.3283276524016,79.068244,,,3530.5876172439,44.619424,0,44.537731084,18,5,15.306,3530.5876172439,79.068244,0.447388,44.721458124,0,0,-6.934514,179, -3.3, 2.6,0,0,1024,1024,1024,1024,179.1,-7.7,71,3.835,3.866,3.873,3.824,0,0,14.72,111.11,3530.5876172439,79.068244,14,Waypoint,
399400,2021-06-18 11:50:27,40.1850252251852,33.3283276242539,80.052496,,,3531.5718692439,44.619424,0,44.523295388,18,5,15.306,3531.5718692439,80.052496,0.447388,44.721458124,0,0,-7.158208,179.1, -2.7, 2.9,0,0,1024,1024,1024,1024,179.1,-7.7,71,3.835,3.866,3.873,3.824,0,0,14.72,111.11,3531.5718692439,80.052496,14,Waypoint,
399500,2021-06-18 11:50:27,40.1850250037038,33.3283274704533,81.036748,,,3532.5561212439,44.619424,0,44.438321632,18,5,15.251,3532.5561212439,81.036748,0.447388,44.721458124,0,0,-7.158208,179.1, -2.5, 3.3,0,0,1024,1024,1024,1024,179.1,-7.7,71,3.822,3.855,3.861,3.812,0,0,15.408,111.11,3532.5561212439,81.036748,14,Waypoint,
399600,2021-06-18 11:50:27,40.1850249821953,33.328327451292,82.021,,,3533.5403732439,44.619424,0,44.42913528,18,5,15.251,3533.5403732439,82.021,0.447388,44.721458124,0,0,-7.158208,179.2, -2.5, 2.7,0,0,1024,1024,1024,1024,179.1,-7.7,71,3.822,3.855,3.861,3.812,0,0,15.408,111.11,3533.5403732439,82.021,14,Waypoint,
399700,2021-06-18 11:50:27,40.1850250122108,33.328327474271,83.005252,,,3534.5246252439,44.619424,0,44.440946304,18,5,15.251,3534.5246252439,83.005252,0.447388,44.721458124,0,0,-7.158208,179.2, -2.4, 2.5,0,0,1024,1024,1024,1024,179.1,-7.7,71,3.822,3.855,3.861,3.812,0,0,15.408,111.11,3534.5246252439,83.005252,14,Waypoint,
399800,2021-06-18 11:50:27,40.1850250708738,33.3283274925802,83.989504,,,3535.5088772439,44.619424,0,44.458990924,18,5,15.251,3535.5088772439,83.989504,0.447388,44.721458124,0,0,-7.158208,179.2, -2.1, 2.8,0,0,1024,1024,1024,1024,179.1,-7.7,71,3.822,3.855,3.861,3.812,0,0,15.408,111.11,3535.5088772439,83.989504,14,Waypoint,
399900,2021-06-18 11:50:27,40.1850253209377,33.328327525863,84.973756,,,3536.4931292439,44.619424,0,44.525263892,18,5,15.251,3536.4931292439,84.973756,0.447388,44.721458124,0,0,-7.158208,179.2, -3, 3.3,0,0,1024,1024,1024,1024,179.1,-7.7,71,3.822,3.855,3.861,3.812,0,0,15.408,111.11,3536.4931292439,84.973756,14,Waypoint,
400000,2021-06-18 11:50:27,40.1850254323493,33.3283275525924,85.958008,,,3537.4773812439,44.619424,0,44.557416124,18,5,15.251,3537.4773812439,85.958008,0.447388,44.721458124,0,0,-7.158208,179.1, -3.5, 3.8,0,0,1024,1024,1024,1024,179.1,-7.7,71,3.822,3.855,3.861,3.812,0,0,15.408,111.11,3537.4773812439,85.958008,14,Waypoint,
400100,2021-06-18 11:50:27,40.1850255538899,33.3283275796358,87.270344,,,3538.7897172439,44.619424,0,44.591864944,18,5,15.251,3538.7897172439,87.270344,0.447388,44.721458124,0,0,-7.158208,179.1, -4, 3.7,0,0,1024,1024,1024,1024,179.1,-7.7,71,3.822,3.855,3.861,3.812,0,0,15.408,111.11,3538.7897172439,87.270344,14,Waypoint,
400200,2021-06-18 11:50:27,40.1850256602077,33.3283275952765,87.926512,,,3539.4458852439,44.619424,0,44.620408252,18,5,15.251,3539.4458852439,87.926512,0.447388,44.721458124,0,0,-7.158208,178.9, -4.4, 3.3,0,0,1024,1024,1024,1024,179.1,-7.7,71,3.822,3.855,3.861,3.812,0,0,15.408,111.11,3539.4458852439,87.926512,14,Waypoint,
400300,2021-06-18 11:50:27,40.1850258375062,33.328327641341,88.910764,,,3540.4301372439,44.619424,0,44.672245524,18,5,15.251,3540.4301372439,88.910764,0.447388,44.721458124,0,0,-7.158208,178.7, -4.7, 3.7,0,0,1024,1024,1024,1024,179.1,-7.7,71,3.822,3.855,3.861,3.812,0,0,15.408,111.11,3540.4301372439,88.910764,14,Waypoint,
400400,2021-06-18 11:50:28,40.1850258702509,33.3283276738726,89.895016,,,3541.4143892439,44.619424,0,44.687009304,18,5,15.251,3541.4143892439,89.895016,0.447388,44.721458124,0,0,-6.934514,178.9, -4.5, 3.1,0,0,1024,1024,1024,1024,179.1,-7.7,71,3.822,3.855,3.861,3.812,0,0,15.408,111.11,3541.4143892439,89.895016,14,Waypoint,
400500,2021-06-18 11:50:28,40.1850258682903,33.3283277350116,90.879268,,,3542.3986412439,44.619424,0,44.699476496,18,5,15.24,3542.3986412439,90.879268,0.447388,44.721458124,0,0,-6.934514,179, -3.4, 3.5,0,0,1024,1024,1024,1024,179.1,-7.7,71,3.815,3.848,3.855,3.8,0,0,15.968,111.11,3542.3986412439,90.879268,14,Waypoint,
400600,2021-06-18 11:50:28,40.1850258259247,33.3283277619596,91.86352,,,3543.3828932439,44.619424,0,44.695211404,18,5,15.24,3543.3828932439,91.86352,0.447388,44.721458124,0,0,-6.934514,179, -3, 3.9,0,0,1024,1024,1024,1024,179.1,-7.7,71,3.815,3.848,3.855,3.8,0,0,15.968,111.11,3543.3828932439,91.86352,14,Waypoint,
400700,2021-06-18 11:50:28,40.1850257516155,33.3283277474009,92.847772,,,3544.3671452439,44.619424,0,44.674214028,18,5,15.24,3544.3671452439,92.847772,0.447388,44.721458124,0,0,-6.934514,178.9, -3.2, 3.8,0,0,1024,1024,1024,1024,179.1,-7.7,71,3.815,3.848,3.855,3.8,0,0,15.968,111.11,3544.3671452439,92.847772,14,Waypoint,
400800,2021-06-18 11:50:28,40.1850255473044,33.3283276765579,93.832024,,,3545.3513972439,44.619424,0,44.610893816,18,5,15.24,3545.3513972439,93.832024,0.447388,44.721458124,0,0,-6.934514,179, -3.4, 3.8,0,0,1024,1024,1024,1024,179.1,-7.7,71,3.815,3.848,3.855,3.8,0,0,15.968,111.11,3545.3513972439,93.832024,14,Waypoint,
400900,2021-06-18 11:50:28,40.1850255275612,33.328327713109,94.816276,,,3546.3356492439,44.619424,0,44.613846572,18,5,15.24,3546.3356492439,94.816276,0.447388,44.721458124,0,0,-7.158208,178.9, -3, 3.6,0,0,1024,1024,1024,1024,179.1,-7.7,71,3.815,3.848,3.855,3.8,0,0,15.968,111.11,3546.3356492439,94.816276,14,Waypoint,
401000,2021-06-18 11:50:28,40.1850254972005,33.3283277755486,95.800528,,,3547.3199012439,44.619424,0,44.619752084,18,5,15.24,3547.3199012439,95.800528,0.447388,44.721458124,0,0,-7.158208,178.9, -2.7, 3.6,0,0,1024,1024,1024,1024,179.1,-7.7,71,3.815,3.848,3.855,3.8,0,0,15.968,111.11,3547.3199012439,95.800528,14,Waypoint,
401100,2021-06-18 11:50:28,40.1850254659148,33.3283278826175,97.112864,,,3548.6322372439,44.619424,0,44.635172032,18,5,15.24,3548.6322372439,97.112864,0.447388,44.721458124,0,0,-7.158208,179, -2.9, 4.6,0,0,1024,1024,1024,1024,179.1,-7.7,71,3.815,3.848,3.855,3.8,0,0,15.968,111.11,3548.6322372439,97.112864,14,Waypoint,
401200,2021-06-18 11:50:28,40.1850254086848,33.3283279613089,98.097116,,,3549.6164892439,44.619424,0,44.638124788,18,5,15.24,3549.6164892439,98.097116,0.447388,44.721458124,0,0,-7.158208,178.9, -3.4, 5.8,0,0,1024,1024,1024,1024,179.1,-7.7,71,3.815,3.848,3.855,3.8,0,0,15.968,111.11,3549.6164892439,98.097116,14,Waypoint,
401300,2021-06-18 11:50:28,40.1850254455462,33.3283281145265,99.081368,,,3550.6007412439,44.619424,0,44.679463372,18,5,15.24,3550.6007412439,99.081368,0.447388,44.721458124,0,0,-7.158208,178.8, -3.9, 5.7,0,0,1024,1024,1024,1024,179.1,-7.7,71,3.815,3.848,3.855,3.8,0,0,15.968,111.11,3550.6007412439,99.081368,14,Waypoint,
401400,2021-06-18 11:50:29,40.1850254601501,33.3283282553716,100.06562,,,3551.5849932439,44.619424,0,44.71292794,18,5,15.24,3551.5849932439,100.06562,0.447388,44.721458124,0,0,-7.158208,178.9, -3.9, 4.8,0,0,1024,1024,1024,1024,179.1,-7.7,71,3.815,3.848,3.855,3.8,0,0,15.968,111.11,3551.5849932439,100.06562,14,Waypoint,
401500,2021-06-18 11:50:29,40.1850254527439,33.3283284210849,101.049872,,,3552.5692452439,44.619424,0.223694,44.746064424,18,5,15.237,3552.5692452439,101.049872,0.447388,44.746064424,0,0.223694,-7.158208,178.8, -3.7, 5.5,0,0,1024,1024,1024,1024,179.1,-7.7,70,3.81,3.845,3.854,3.798,0,0,15.754,111.11,3552.5692452439,101.049872,14,Waypoint,
401600,2021-06-18 11:50:29,40.1850255757371,33.3283287410472,102.034124,,,3553.5534972439,44.619424,0.223694,44.843177288,18,5,15.237,3553.5534972439,102.034124,0.447388,44.843177288,0,0.223694,-6.934514,178.8, -3.8, 6.5,0,0,1024,1024,1024,1024,179.1,-7.7,70,3.81,3.845,3.854,3.798,0,0,15.754,111.11,3553.5534972439,102.034124,14,Waypoint,
401700,2021-06-18 11:50:29,40.1850256373509,33.3283289742735,103.018376,,,3554.5377492439,44.619424,0,44.907153668,18,5,15.237,3554.5377492439,103.018376,0.447388,44.907153668,0,0,-7.158208,178.9, -3.6, 7,0,0,1024,1024,1024,1024,179.2,-7.7,70,3.81,3.845,3.854,3.798,0,0,15.754,111.11,3554.5377492439,103.018376,14,Waypoint,
401800,2021-06-18 11:50:29,40.185025675261,33.3283291798062,104.002628,,,3555.5220012439,44.619424,0,44.959975192,18,5,15.237,3555.5220012439,104.002628,0.447388,44.959975192,0,0,-6.934514,178.8, -3.9, 7.4,0,0,1024,1024,1024,1024,179.1,-7.7,70,3.81,3.845,3.854,3.798,0,0,15.754,111.11,3555.5220012439,104.002628,14,Waypoint,
401900,2021-06-18 11:50:29,40.1850256912458,33.3283293660319,104.98688,,,3556.5062532439,44.619424,0,45.00328228,18,5,15.237,3556.5062532439,104.98688,0.447388,45.00328228,0,0,-6.934514,178.7, -4.3, 7.6,0,0,1024,1024,1024,1024,179.1,-7.7,70,3.81,3.845,3.854,3.798,0,0,15.754,111.11,3556.5062532439,104.98688,14,Waypoint,
402000,2021-06-18 11:50:29,40.1850256369405,33.3283295187281,105.971132,,,3557.4905052439,44.619424,0,45.02296732,18,5,15.237,3557.4905052439,105.971132,0.447388,45.02296732,0,0,-6.934514,178.7, -4.3, 7.3,0,0,1024,1024,1024,1024,179.1,-7.7,70,3.81,3.845,3.854,3.798,0,0,15.754,111.11,3557.4905052439,105.971132,14,Waypoint,
402100,2021-06-18 11:50:29,40.1850256146894,33.3283296332586,107.283468,,,3558.8028412439,44.619424,0,45.041996192,18,5,15.237,3558.8028412439,107.283468,0.447388,45.041996192,0,0,-6.934514,178.8, -4, 7.5,0,0,1024,1024,1024,1024,179.1,-7.7,70,3.81,3.845,3.854,3.798,0,0,15.754,111.11,3558.8028412439,107.283468,14,Waypoint,
402200,2021-06-18 11:50:29,40.1850256377026,33.3283297516741,107.939636,,,3559.4590092439,44.619424,0,45.072836088,18,5,15.237,3559.4590092439,107.939636,0.447388,45.072836088,0,0,-6.934514,178.9, -3.6, 7.1,0,0,1024,1024,1024,1024,179.2,-7.7,70,3.81,3.845,3.854,3.798,0,0,15.754,111.11,3559.4590092439,107.939636,14,Waypoint,
402300,2021-06-18 11:50:29,40.1850257148974,33.3283298899517,109.251972,,,3560.7713452439,44.619424,0,45.120408268,18,5,15.237,3560.7713452439,109.251972,0.447388,45.120408268,0,0,-6.934514,178.8, -3.9, 6.9,0,0,1024,1024,1024,1024,179.1,-7.7,70,3.81,3.845,3.854,3.798,0,0,15.754,111.11,3560.7713452439,109.251972,14,Waypoint,
402400,2021-06-18 11:50:30,40.1850257768173,33.3283299875857,110.236224,,,3561.7555972439,44.619424,0,45.15584134,18,5,15.237,3561.7555972439,110.236224,0.447388,45.15584134,0,0,-6.934514,178.7, -4.7, 6.8,0,0,1024,1024,1024,1024,179.1,-7.7,70,3.81,3.845,3.854,3.798,0,0,15.754,111.11,3561.7555972439,110.236224,14,Waypoint,
402500,2021-06-18 11:50:30,40.1850259221266,33.3283300635582,111.220476,,,3562.7398492439,44.619424,0,45.206038192,18,5,15.221,3562.7398492439,111.220476,0.447388,45.206038192,0,0,-6.934514,178.6, -4.5, 7,0,0,1024,1024,1024,1024,179.1,-7.7,70,3.81,3.845,3.854,3.798,0,0,15.754,111.11,3562.7398492439,111.220476,14,Waypoint,
402600,2021-06-18 11:50:30,40.1850258681795,33.3283301152175,112.204728,,,3563.7241012439,44.619424,0,45.204397772,18,5,15.221,3563.7241012439,112.204728,0.447388,45.206038192,0,0,-6.934514,178.7, -3.7, 7.2,0,0,1024,1024,1024,1024,179.1,-7.7,70,3.81,3.845,3.854,3.798,0,0,15.754,111.11,3563.7241012439,112.204728,14,Waypoint,
402700,2021-06-18 11:50:30,40.1850257450106,33.328330150894,113.18898,,,3564.7083532439,44.619424,0.223694,45.183072312,18,5,15.221,3564.7083532439,113.18898,0.447388,45.206038192,-0.223694,0,-6.934514,178.7, -3.3, 7.6,0,0,1024,1024,1024,1024,179.1,-7.7,70,3.81,3.845,3.854,3.798,0,0,15.754,111.11,3564.7083532439,113.18898,14,Waypoint,
402800,2021-06-18 11:50:30,40.1850256016489,33.328330155362,113.845148,,,3565.3645212439,44.619424,0.223694,45.150263912,18,5,15.221,3565.3645212439,113.845148,0.447388,45.206038192,-0.223694,0,-6.71082,178.8, -2.7, 8.3,0,0,1024,1024,1024,1024,179.1,-7.7,70,3.81,3.845,3.854,3.798,0,0,15.754,111.11,3565.3645212439,113.845148,14,Waypoint,
402900,2021-06-18 11:50:30,40.1850252126136,33.3283299785993,114.8294,,,3566.3487732439,44.619424,0.223694,45.0213269,18,5,15.221,3566.3487732439,114.8294,0.447388,45.206038192,-0.223694,0,-6.71082,178.8, -2.4, 6.6,0,0,1024,1024,1024,1024,179.2,-7.7,70,3.81,3.845,3.854,3.798,0,0,15.754,111.11,3566.3487732439,114.8294,14,Waypoint,
403000,2021-06-18 11:50:30,40.1850250866958,33.3283299095054,115.813652,,,3567.3330252439,44.619424,0.223694,44.97703556,18,5,15.221,3567.3330252439,115.813652,0.447388,45.206038192,-0.223694,0,-6.934514,178.8, -2.4, 5.3,0,0,1024,1024,1024,1024,179.1,-7.7,70,3.81,3.845,3.854,3.798,0,0,15.754,111.11,3567.3330252439,115.813652,14,Waypoint,
403100,2021-06-18 11:50:30,40.1850249739032,33.3283298660365,116.797904,,,3568.3172772439,44.619424,0,44.941274404,18,5,15.221,3568.3172772439,116.797904,0.447388,45.206038192,0,0,-6.934514,178.8, -2.5, 5.6,0,0,1024,1024,1024,1024,179.1,-7.7,70,3.81,3.845,3.854,3.798,0,0,15.754,111.11,3568.3172772439,116.797904,14,Waypoint,
403200,2021-06-18 11:50:30,40.1850248683801,33.3283298258471,117.782156,,,3569.3015292439,44.619424,0,44.90813792,18,5,15.221,3569.3015292439,117.782156,0.447388,45.206038192,0,0,-6.934514,178.9, -2.5, 6.1,0,0,1024,1024,1024,1024,179.1,-7.7,70,3.81,3.845,3.854,3.798,0,0,15.754,111.11,3569.3015292439,117.782156,14,Waypoint,
403300,2021-06-18 11:50:30,40.1850247354144,33.3283296681896,118.766408,,,3570.2857812439,44.619424,0.223694,44.843177288,18,5,15.221,3570.2857812439,118.766408,0.447388,45.206038192,-0.223694,0,-6.934514,179.1, -1.3, 7.2,0,0,1024,1024,1024,1024,179.1,-7.7,70,3.81,3.845,3.854,3.798,0,0,15.754,111.11,3570.2857812439,118.766408,14,Waypoint,
403400,2021-06-18 11:50:31,40.1850246312591,33.3283295748721,119.75066,,,3571.2700332439,44.619424,0.223694,44.798885948,18,5,15.221,3571.2700332439,119.75066,0.447388,45.206038192,0,-0.223694,-6.934514,179, -1.7, 6.8,0,0,1024,1024,1024,1024,179.1,-7.7,70,3.81,3.845,3.854,3.798,0,0,15.754,111.11,3571.2700332439,119.75066,14,Waypoint,
403500,2021-06-18 11:50:31,40.1850245325689,33.3283294425201,120.734912,,,3572.2542852439,44.619424,0.223694,44.747704844,18,5,15.232,3572.2542852439,120.734912,0.447388,45.206038192,0,-0.223694,-6.934514,179, -2.3, 5.1,0,0,1024,1024,1024,1024,179.1,-7.7,70,3.823,3.85,3.855,3.805,0,0,14.452,111.11,3572.2542852439,120.734912,14,Waypoint,
403600,2021-06-18 11:50:31,40.1850244966649,33.328329368022,121.719164,,,3573.2385372439,44.619424,0,44.723098544,18,5,15.232,3573.2385372439,121.719164,0.447388,45.206038192,0,0,-6.934514,179, -2.6, 5,0,0,1024,1024,1024,1024,179.1,-7.7,70,3.823,3.85,3.855,3.805,0,0,14.452,111.11,3573.2385372439,121.719164,14,Waypoint,
403700,2021-06-18 11:50:31,40.1850245484625,33.3283294054813,122.703416,,,3574.2227892439,44.619424,0,44.743439752,18,5,15.232,3574.2227892439,122.703416,0.447388,45.206038192,0,0,-6.934514,178.9, -2.2, 5.5,0,0,1024,1024,1024,1024,179.1,-7.7,70,3.823,3.85,3.855,3.805,0,0,14.452,111.11,3574.2227892439,122.703416,14,Waypoint,
403800,2021-06-18 11:50:31,40.1850246039077,33.3283294205054,123.687668,,,3575.2070412439,44.619424,0,44.759515868,18,5,15.232,3575.2070412439,123.687668,0.447388,45.206038192,0,0,-6.934514,178.8, -3, 5.6,0,0,1024,1024,1024,1024,179.1,-7.7,70,3.823,3.85,3.855,3.805,0,0,14.452,111.11,3575.2070412439,123.687668,14,Waypoint,
403900,2021-06-18 11:50:31,40.1850246763214,33.3283294450316,124.67192,,,3576.1912932439,44.619424,0.223694,44.78182558,18,5,15.232,3576.1912932439,124.67192,0.447388,45.206038192,0.223694,0,-6.934514,178.7, -3.8, 6.9,0,0,1024,1024,1024,1024,179.1,-7.7,70,3.823,3.85,3.855,3.805,0,0,14.452,111.11,3576.1912932439,124.67192,14,Waypoint,
404000,2021-06-18 11:50:31,40.1850247930027,33.3283294899413,125.656172,,,3577.1755452439,44.619424,0,44.818570988,18,5,15.232,3577.1755452439,125.656172,0.447388,45.206038192,0,0,-6.934514,178.7, -4.3, 6.8,0,0,1024,1024,1024,1024,179.1,-7.7,70,3.823,3.85,3.855,3.805,0,0,14.452,111.11,3577.1755452439,125.656172,14,Waypoint,
404100,2021-06-18 11:50:31,40.1850249417838,33.3283295469711,126.640424,,,3578.1597972439,44.619424,0,44.865815084,18,5,15.232,3578.1597972439,126.640424,0.447388,45.206038192,0,0,-6.934514,178.8, -3.8, 6,0,0,1024,1024,1024,1024,179.1,-7.7,70,3.823,3.85,3.855,3.805,0,0,14.452,111.11,3578.1597972439,126.640424,14,Waypoint,
404200,2021-06-18 11:50:31,40.1850253074542,33.3283297735375,127.624676,,,3579.1440492439,44.619424,0,44.999673356,18,5,15.232,3579.1440492439,127.624676,0.447388,45.206038192,0,0,-6.934514,178.9, -3.8, 5.1,0,0,1024,1024,1024,1024,179.1,-7.7,70,3.823,3.85,3.855,3.805,0,0,14.452,111.11,3579.1440492439,127.624676,14,Waypoint,
404300,2021-06-18 11:50:31,40.1850252438146,33.3283296852206,128.608928,,,3580.1283012439,44.619424,0,44.965880704,18,5,15.232,3580.1283012439,128.608928,0.447388,45.206038192,0,0,-6.934514,179, -3.2, 4.4,0,0,1024,1024,1024,1024,179.2,-7.7,70,3.823,3.85,3.855,3.805,0,0,14.452,111.11,3580.1283012439,128.608928,14,Waypoint,
404400,2021-06-18 11:50:32,40.18502515085,33.3283296181953,129.59318,,,3581.1125532439,44.619424,0,44.929791464,18,5,15.232,3581.1125532439,129.59318,0.447388,45.206038192,0,0,-7.158208,179.2, -2.3, 4.8,0,0,1024,1024,1024,1024,179.1,-7.7,70,3.823,3.85,3.855,3.805,0,0,14.452,111.11,3581.1125532439,129.59318,14,Waypoint,
404500,2021-06-18 11:50:32,40.1850250622431,33.328329582059,130.577432,,,3582.0968052439,44.619424,0,44.901248156,18,5,15.244,3582.0968052439,130.577432,0.447388,45.206038192,0,0,-7.158208,179.2, -1.9, 7.3,0,0,1024,1024,1024,1024,179.1,-7.7,70,3.811,3.846,3.85,3.793,0,0,15.742,111.11,3582.0968052439,130.577432,14,Waypoint,
404600,2021-06-18 11:50:32,40.1850247453088,33.3283292679493,131.2336,,,3582.7529732439,44.619424,0,44.759843952,18,5,15.244,3582.7529732439,131.2336,0.447388,45.206038192,0,0,-6.934514,179.1, -2.6, 8.1,0,0,1024,1024,1024,1024,179.2,-7.7,70,3.811,3.846,3.85,3.793,0,0,15.742,111.11,3582.7529732439,131.2336,14,Waypoint,
404700,2021-06-18 11:50:32,40.1850246772854,33.328329124632,132.545936,,,3584.0653092439,44.619424,0,44.713584108,18,5,15.244,3584.0653092439,132.545936,0.447388,45.206038192,0,0,-7.158208,179, -3.3, 6.3,0,0,1024,1024,1024,1024,179.1,-7.7,70,3.811,3.846,3.85,3.793,0,0,15.742,111.11,3584.0653092439,132.545936,14,Waypoint,
404800,2021-06-18 11:50:32,40.1850246126883,33.3283290236175,133.530188,,,3585.0495612439,44.619424,0,44.6768387,18,5,15.244,3585.0495612439,133.530188,0.447388,45.206038192,0,0,-7.158208,178.9, -3.4, 6.6,0,0,1024,1024,1024,1024,179.1,-7.7,70,3.811,3.846,3.85,3.793,0,0,15.742,111.11,3585.0495612439,133.530188,14,Waypoint,
