time(millisecond),datetime(utc),latitude,longitude,height_above_takeoff(feet),height_above_ground_at_drone_location(feet),ground_elevation_at_drone_location(feet),altitude_above_seaLevel(feet),height_sonar(feet),speed(mph),distance(feet),satellites,gpslevel,voltage(v),max_altitude(feet),max_ascent(feet),max_speed(mph),max_distance(feet), xSpeed(mph), ySpeed(mph), zSpeed(mph), compass_heading(degrees), pitch(degrees), roll(degrees),isPhoto,isVideo,rc_elevator,rc_aileron,rc_throttle,rc_rudder,gimbal_heading(degrees),gimbal_pitch(degrees),battery_percent,voltageCell1,voltageCell2,voltageCell3,voltageCell4,voltageCell5,voltageCell6,current(A),battery_temperature(f),altitude(feet),ascent(feet),flycStateRaw,flycState,message
332500,,40.1849427097747,33.3283057157564,0,Available with any HD 360 subscription,Available with any HD 360 subscription,3452.1405379619,0.328084,0,0,14,5,0,3452.1405379619,0,0,0,0,0,0,242.3, -0.3, -0.6,0,0,1024,1024,1024,1024,241.9,0,71,4.003,4.009,4,4.001,0,0,0,98.51,3452.1405379619,0,41,Motors_Started,
332600,,40.1849427327119,33.3283057338287,0,,,3452.1405379619,0.328084,0,0.0097677496564,14,5,0,3452.1405379619,0,0,0.0097677496564,0,0,0,242.2, -0.3, -0.5,0,0,1024,1024,1024,1024,241.9,0,71,4.003,4.009,4,4.001,0,0,0,98.51,3452.1405379619,0,41,Motors_Started,
332700,,40.18494274876,33.3283057333648,0,,,3452.1405379619,0.328084,0,0.01504675245,14,5,0,3452.1405379619,0,0,0.01504675245,0,0,0,242.2, -0.3, -0.6,0,0,1024,1024,1024,1024,241.9,0,71,4.003,4.009,4,4.001,0,0,0,98.51,3452.1405379619,0,41,Motors_Started,
332800,,40.1849427950622,33.3283057616008,0,,,3452.1405379619,0.328084,0,0.033638780604,14,5,0,3452.1405379619,0,0,0.033638780604,0,0,0,242.2, -0.3, -0.5,0,0,1024,1024,1024,1024,241.9,0,71,4.003,4.009,4,4.001,0,0,0,98.51,3452.1405379619,0,41,Motors_Started,
332900,,40.1849428494054,33.3283058073905,0,,,3452.1405379619,0.328084,0,0.056988518884,14,5,0,3452.1405379619,0,0,0.056988518884,0,0,0,242.2, -0.3, -0.6,0,0,1024,1024,1024,1024,241.9,0,71,4.003,4.009,4,4.001,0,0,0,98.51,3452.1405379619,0,41,Motors_Started,
333000,2021-04-16 09:14:47,40.1849429045321,33.3283058614533,0,,,3452.1405379619,0.328084,0,0.081843178472,14,5,0,3452.1405379619,0,0,0.081843178472,0,0,0,242.2, -0.3, -0.6,0,0,1024,1024,1024,1024,241.9,0,71,4.003,4.009,4,4.001,0,0,0,98.51,3452.1405379619,0,41,Motors_Started,
333100,2021-04-16 09:14:47,40.184942961455,33.328305923094,0,,,3452.1405379619,0.328084,0,0.108498034968,14,5,15.938,3452.1405379619,0,0,0.108498034968,0,0,0,241.9, -0.3, -0.6,0,0,1024,1024,1024,1024,241.9,0,71,4.003,4.009,4,4.001,0,0,1.418,98.51,3452.1405379619,0,41,Motors_Started,Setting new Return-To-Home altitude to 150m (492 ft). Data Recorder File Index is 385. Setting new Maximum Flight Altitude to 500m (1640 ft)
333200,2021-04-16 09:14:48,40.184943051534,33.3283060350527,0,,,3452.1405379619,0.328084,0,3.04219497924,14,5,15.938,3452.1405379619,0,0,3.04219497924,0,0,0,242, -0.3, -0.6,0,0,1024,1024,1024,1024,241.9,0,71,4.003,4.009,4,4.001,0,0,1.418,98.51,3452.1405379619,0,41,Motors_Started,
333300,2021-04-16 09:14:48,40.1849430523909,33.328306045641,0,,,3452.1405379619,0.328084,0,3.04470482184,14,5,15.938,3452.1405379619,0,0,3.04470482184,0,0,0,242.1, -0.3, -0.6,0,0,1024,1024,1024,1024,241.9,0,71,4.003,4.009,4,4.001,0,0,1.418,98.51,3452.1405379619,0,41,Motors_Started,
333400,2021-04-16 09:14:48,40.1849430714783,33.3283061083174,0,,,3452.1405379619,0.328084,0,3.05732293248,14,5,15.938,3452.1405379619,0,0,3.05732293248,0,0,0,242.2, -0.3, -0.6,0,0,1024,1024,1024,1024,241.9,0,71,4.003,4.009,4,4.001,0,0,1.418,98.51,3452.1405379619,0,41,Motors_Started,
333500,2021-04-16 09:14:48,40.184943104334,33.3283062009971,0,,,3452.1405379619,0.328084,0,3.07536755248,14,5,15.938,3452.1405379619,0,0,3.07536755248,0,0,0,242.2, -0.3, -0.6,0,0,1024,1024,1024,1024,241.9,0,71,4.003,4.009,4,4.001,0,0,1.418,98.51,3452.1405379619,0,41,Motors_Started,
333600,2021-04-16 09:14:48,40.1849431075412,33.3283062831375,0,,,3452.1405379619,0.328084,0,3.09553487596,14,5,15.938,3452.1405379619,0,0,3.09553487596,0,0,0,242.2, -0.3, -0.5,0,0,1024,1024,1024,1024,241.9,0,71,4.003,4.009,4,4.001,0,0,1.418,98.51,3452.1405379619,0,41,Motors_Started,
333700,2021-04-16 09:14:48,40.1849431580273,33.3283062956066,0,,,3452.1405379619,0.328084,0,3.09083343224,14,5,15.938,3452.1405379619,0,0,3.09553487596,0,0,0,242.1, -0.3, -0.6,0,0,1024,1024,1024,1024,241.9,0,71,4.003,4.009,4,4.001,0,0,1.418,98.51,3452.1405379619,0,41,Motors_Started,
333800,2021-04-16 09:14:48,40.1849431770958,33.3283063200067,0,,,3452.1405379619,0.328084,0,3.0940617788,14,5,15.938,3452.1405379619,0,0,3.09553487596,0,0,0,242.2, -0.3, -0.6,0,0,1024,1024,1024,1024,241.9,0,71,4.003,4.009,4,4.001,0,0,1.418,98.51,3452.1405379619,0,41,Motors_Started,
333900,2021-04-16 09:14:48,40.1849431782652,33.3283063549615,0,,,3452.1405379619,0.328084,0,3.10272647724,14,5,15.938,3452.1405379619,0,0,3.10272647724,0,0,0,242.2, -0.3, -0.6,0,0,1024,1024,1024,1024,241.9,0,71,4.003,4.009,4,4.001,0,0,1.418,98.51,3452.1405379619,0,41,Motors_Started,
334000,2021-04-16 09:14:48,40.1849432232919,33.3283063872436,0,,,3452.1405379619,0.328084,0,3.10406505996,14,5,15.938,3452.1405379619,0,0,3.10406505996,0,0,0,242.2, -0.3, -0.5,0,0,1024,1024,1024,1024,241.9,0,71,4.003,4.009,4,4.001,0,0,1.418,98.51,3452.1405379619,0,11,AutoTakeoff,
334100,2021-04-16 09:14:48,40.1849432640009,33.3283064374522,0,,,3452.1405379619,0.328084,0,3.11071860348,14,5,15.891,3452.1405379619,0,0,3.11071860348,0,0,0,242.1, -0.3, -0.5,0,0,1024,1024,1024,1024,241.9,0,71,4.003,4.009,4,4.001,0,0,1.418,98.51,3452.1405379619,0,11,AutoTakeoff,
334200,2021-04-16 09:14:49,40.1849433120347,33.3283064558749,0,,,3452.1405379619,0.328084,0,3.10830390524,14,5,15.891,3452.1405379619,0,0,3.11071860348,0,0,0,242.2, -0.3, -0.6,0,0,1024,1024,1024,1024,241.9,0,71,4.003,4.009,4,4.001,0,0,1.418,98.51,3452.1405379619,0,11,AutoTakeoff,
334300,2021-04-16 09:14:49,40.1849433660321,33.3283064576661,0,,,3452.1405379619,0.328084,0,3.10087936432,14,5,15.891,3452.1405379619,0,0,3.11071860348,0,0,0,242.1, -0.3, -0.6,0,0,1024,1024,1024,1024,241.9,0,71,4.003,4.009,4,4.001,0,0,1.418,98.51,3452.1405379619,0,11,AutoTakeoff,
334400,2021-04-16 09:14:49,40.1849433709622,33.3283064361208,0,,,3452.1405379619,0.328084,0,3.09465561084,14,5,15.891,3452.1405379619,0,0,3.11071860348,0,0,0,242.1, -0.2, -0.6,0,0,1024,1024,1024,1024,241.9,0,71,4.003,4.009,4,4.001,0,0,1.418,98.51,3452.1405379619,0,11,AutoTakeoff,
334500,2021-04-16 09:14:49,40.1849433748049,33.3283064738688,0,,,3452.1405379619,0.328084,0,3.103756661,14,5,15.891,3452.1405379619,0,0,3.11071860348,0,0,0,242.2, -0.2, -0.6,0,0,1024,1024,1024,1024,241.9,0,71,4.003,4.009,4,4.001,0,0,1.418,98.51,3452.1405379619,0,11,AutoTakeoff,
334600,2021-04-16 09:14:49,40.1849434005865,33.3283065231399,0,,,3452.1405379619,0.328084,0,3.11267398412,14,5,15.891,3452.1405379619,0,0,3.11267398412,0,0,0,242.2, 0, -0.6,0,0,1024,1024,1024,1024,241.9,0,71,4.003,4.009,4,4.001,0,0,1.418,98.51,3452.1405379619,0,11,AutoTakeoff,
334700,2021-04-16 09:14:49,40.1849434464316,33.3283065903767,0,,,3452.1405379619,0.328084,0,3.123441701,14,5,15.891,3452.1405379619,0,0,3.123441701,0,0,0,242.2, 1.1, -0.3,0,0,1024,1024,1024,1024,241.9,0,71,4.003,4.009,4,4.001,0,0,1.418,98.51,3452.1405379619,0,11,AutoTakeoff,
334800,2021-04-16 09:14:49,40.1849435210775,33.3283066924198,0,,,3452.1405379619,0.328084,0,3.13940954928,14,5,15.891,3452.1405379619,0,0,3.13940954928,0,0,0,241.6, 3.7, 0.9,0,0,1024,1024,1024,1024,241.9,0,71,4.003,4.009,4,4.001,0,0,1.418,98.51,3452.1405379619,0,11,AutoTakeoff,
334900,2021-04-16 09:14:49,40.1849437093852,33.3283069162237,0,,,3452.1405379619,0.328084,0.31540854,3.17271335612,14,5,15.891,3452.1405379619,0,0.31540854,3.17271335612,0.223694,0.223694,-0.447388,241.2, 4.5, 2.3,0,0,1024,1024,1024,1024,241.9,0,71,4.003,4.009,4,4.001,0,0,1.418,98.51,3452.1405379619,0,11,AutoTakeoff,
335000,2021-04-16 09:14:49,40.1849439213029,33.3283071094594,0,,,3452.1405379619,0.656168,0.50107456,3.19750994484,14,5,15.891,3452.1405379619,0,0.50107456,3.19750994484,0.447388,0.223694,-0.671082,240.9, 1.1, 1.2,0,0,1024,1024,1024,1024,241.9,0,71,4.003,4.009,4,4.001,0,0,1.418,98.51,3452.1405379619,0,11,AutoTakeoff,
335100,2021-04-16 09:14:49,40.1849442031737,33.3283073175805,0,,,3452.1405379619,0.656168,0.50107456,3.22139774088,14,5,15.75,3452.1405379619,0,0.50107456,3.22139774088,0.447388,0.223694,-1.11847,240.8, -1.9, -0.3,0,0,1024,1024,1024,1024,241.9,0,71,3.983,3.988,3.974,3.968,0,0,4.326,98.51,3452.1405379619,0,11,AutoTakeoff,
335200,2021-04-16 09:14:50,40.1849444704393,33.3283075381062,0.328084,,,3452.4686219619,0.984252,0.50107456,3.254101154,14,5,15.75,3452.4686219619,0.328084,0.50107456,3.254101154,0.447388,0.223694,-1.11847,240.9, -2.9, -2.1,0,0,1024,1024,1024,1024,241.9,0,71,3.983,3.988,3.974,3.968,0,0,4.326,98.51,3452.4686219619,0.328084,11,AutoTakeoff,
335300,2021-04-16 09:14:50,40.1849447623178,33.3283078205516,0.328084,,,3452.4686219619,0.984252,0.50107456,3.3053806832,13,4,15.75,3452.4686219619,0.328084,0.50107456,3.3053806832,0.447388,0.223694,-1.342164,241, -3, -3.2,0,0,1024,1024,1024,1024,241.9,0,71,3.983,3.988,3.974,3.968,0,0,4.326,98.51,3452.4686219619,0.328084,11,AutoTakeoff,
335400,2021-04-16 09:14:50,40.1849449612419,33.3283080248676,0.656168,,,3452.7967059619,1.312336,0.31540854,3.3460959076,13,4,15.75,3452.7967059619,0.656168,0.50107456,3.3460959076,0.223694,0.223694,-1.342164,241.1, -2.9, -2.4,0,0,1024,1024,1024,1024,241.9,0,71,3.983,3.988,3.974,3.968,0,0,4.326,98.51,3452.7967059619,0.656168,11,AutoTakeoff,
335500,2021-04-16 09:14:50,40.1849451295203,33.3283082236841,0.984252,,,3453.1247899619,1.312336,0.223694,3.389271762,13,4,15.75,3453.1247899619,0.984252,0.50107456,3.389271762,0,0.223694,-1.11847,241.3, -2.5, -1.2,0,0,1024,1024,1024,1024,241.8,0,71,3.983,3.988,3.974,3.968,0,0,4.326,98.51,3453.1247899619,0.984252,11,AutoTakeoff,
335600,2021-04-16 09:14:50,40.1849451986237,33.3283083412474,0.984252,,,3453.1247899619,1.64042,0,3.4172901356,13,4,15.75,3453.1247899619,0.984252,0.50107456,3.4172901356,0,0,-1.11847,241.4, -1.7, -0.3,0,0,1024,1024,1024,1024,241.8,0,71,3.983,3.988,3.974,3.968,0,0,4.326,98.51,3453.1247899619,0.984252,11,AutoTakeoff,
335700,2021-04-16 09:14:50,40.1849450975259,33.3283083384766,1.312336,,,3453.4528739619,1.968504,0.223694,3.4228347552,13,4,15.75,3453.4528739619,1.312336,0.50107456,3.4228347552,0,0.223694,-1.11847,241.4, -1.7, 0.1,0,0,1024,1024,1024,1024,241.8,0,71,3.983,3.988,3.974,3.968,0,0,4.326,98.51,3453.4528739619,1.312336,11,AutoTakeoff,
335800,2021-04-16 09:14:50,40.184945127316,33.3283084584211,1.312336,,,3453.4528739619,1.968504,0.223694,3.4538715016,13,4,15.75,3453.4528739619,1.312336,0.50107456,3.4538715016,0,0.223694,-1.11847,241.2, -1.6, 1.2,0,0,1024,1024,1024,1024,241.8,0,71,3.983,3.988,3.974,3.968,0,0,4.326,98.51,3453.4528739619,1.312336,11,AutoTakeoff,
335900,2021-04-16 09:14:50,40.1849451773357,33.3283085924631,1.64042,,,3453.7809579619,2.296588,0,3.4876641536,13,4,15.75,3453.7809579619,1.64042,0.50107456,3.4876641536,0,0,-1.11847,241.1, -1.4, 0.4,0,0,1024,1024,1024,1024,241.8,0,71,3.983,3.988,3.974,3.968,0,0,4.326,98.51,3453.7809579619,1.64042,11,AutoTakeoff,
336000,2021-04-16 09:14:50,40.1849452999547,33.3283086589418,1.64042,,,3453.7809579619,2.296588,0,3.4989174348,13,4,15.75,3453.7809579619,1.64042,0.50107456,3.4989174348,0,0,-0.894776,241.2, -1.5, -1.1,0,0,1024,1024,1024,1024,241.8,0,71,3.983,3.988,3.974,3.968,0,0,4.326,98.51,3453.7809579619,1.64042,11,AutoTakeoff,
336100,2021-04-16 09:14:50,40.1849455301877,33.3283086095866,1.64042,,,3453.7809579619,2.624672,0,3.4736221584,13,4,15.877,3453.7809579619,1.64042,0.50107456,3.4989174348,0,0,-0.894776,241.3, -1, -0.7,0,0,1024,1024,1024,1024,241.8,0,71,3.895,3.913,3.896,3.884,0,0,11.452,98.51,3453.7809579619,1.64042,11,AutoTakeoff,
336200,2021-04-16 09:14:51,40.1849455761669,33.3283086624049,1.968504,,,3454.1090419619,2.624672,0,3.4861221588,13,4,15.877,3454.1090419619,1.968504,0.50107456,3.4989174348,0,0,-0.671082,241.4, -1.9, -0.1,0,0,1024,1024,1024,1024,241.8,0,71,3.895,3.913,3.896,3.884,0,0,11.452,98.51,3454.1090419619,1.968504,11,AutoTakeoff,
336300,2021-04-16 09:14:51,40.1849455668615,33.3283087251332,1.968504,,,3454.1090419619,2.624672,0,3.5039043116,13,4,15.877,3454.1090419619,1.968504,0.50107456,3.5039043116,0,0,-0.671082,241.4, -2.2, 1.1,0,0,1024,1024,1024,1024,241.8,0,71,3.895,3.913,3.896,3.884,0,0,11.452,98.51,3454.1090419619,1.968504,11,AutoTakeoff,
336400,2021-04-16 09:14:51,40.1849455859435,33.3283088257439,2.296588,,,3454.4371259619,2.952756,0,3.5308728164,13,4,15.877,3454.4371259619,2.296588,0.50107456,3.5308728164,0,0,-0.671082,241.4, -1.3, 1.5,0,0,1024,1024,1024,1024,241.8,0,71,3.895,3.913,3.896,3.884,0,0,11.452,98.51,3454.4371259619,2.296588,11,AutoTakeoff,
336500,2021-04-16 09:14:51,40.1849456383783,33.328308948162,2.296588,,,3454.4371259619,2.952756,0,3.5625329224,15,4,15.877,3454.4371259619,2.296588,0.50107456,3.5625329224,0,0,-0.894776,241.5, -1.4, 1.2,0,0,1024,1024,1024,1024,241.8,0,71,3.895,3.913,3.896,3.884,0,0,11.452,98.51,3454.4371259619,2.296588,11,AutoTakeoff,
336600,2021-04-16 09:14:51,40.1849457424447,33.3283091600251,2.624672,,,3454.7652099619,3.28084,0.223694,3.6171917168,15,4,15.877,3454.7652099619,2.624672,0.50107456,3.6171917168,0.223694,0,-0.894776,241.6, -2.1, 1.4,0,0,1024,1024,1024,1024,241.8,0,71,3.895,3.913,3.896,3.884,0,0,11.452,98.51,3454.7652099619,2.624672,11,AutoTakeoff,
336700,2021-04-16 09:14:51,40.1849459681114,33.3283092953411,2.624672,,,3454.7652099619,3.608924,0.223694,3.6474082532,16,4,15.877,3454.7652099619,2.624672,0.50107456,3.6474082532,0.223694,0,-1.11847,241.5, -2.6, 1.1,0,0,1024,1024,1024,1024,241.8,0,71,3.895,3.913,3.896,3.884,0,0,11.452,98.51,3454.7652099619,2.624672,11,AutoTakeoff,
336800,2021-04-16 09:14:51,40.1849461459493,33.3283093908813,2.952756,,,3455.0932939619,3.608924,0.223694,3.6695211148,16,4,15.877,3455.0932939619,2.952756,0.50107456,3.6695211148,0.223694,0,-1.11847,241.3, -2.7, -0.6,0,0,1024,1024,1024,1024,241.8,0,71,3.895,3.913,3.896,3.884,0,0,11.452,98.51,3455.0932939619,2.952756,14,Waypoint,
336900,2021-04-16 09:14:51,40.1849463072095,33.3283094880737,2.952756,,,3455.0932939619,3.937008,0.223694,3.693569672,15,4,15.877,3455.0932939619,2.952756,0.50107456,3.693569672,0.223694,0,-1.11847,241.1, -3.1, -2.4,0,0,1024,1024,1024,1024,241.8,0,71,3.895,3.913,3.896,3.884,0,0,11.452,98.51,3455.0932939619,2.952756,14,Waypoint,
337000,2021-04-16 09:14:51,40.1849465964409,33.3283097088111,3.28084,,,3455.4213779619,3.937008,0,3.7520342408,15,4,15.877,3455.4213779619,3.28084,0.50107456,3.7520342408,0,0,-1.11847,241, -2.7, -1.4,0,0,1024,1024,1024,1024,241.8,0,71,3.895,3.913,3.896,3.884,0,0,11.452,98.51,3455.4213779619,3.28084,14,Waypoint,
337100,2021-04-16 09:14:51,40.1849467673891,33.3283097756892,3.608924,,,3455.7494619619,4.265092,0.223694,3.7703085196,14,4,15.496,3455.7494619619,3.608924,0.50107456,3.7703085196,0.223694,0,-1.11847,240.8, -2.4, -0.7,0,0,1024,1024,1024,1024,241.8,0,71,3.869,3.891,3.874,3.862,0,0,12.338,98.51,3455.7494619619,3.608924,14,Waypoint,
337200,2021-04-16 09:14:52,40.1849469881094,33.3283098899183,3.608924,,,3455.7494619619,4.593176,0.223694,3.8031825364,14,4,15.496,3455.7494619619,3.608924,0.50107456,3.8031825364,0.223694,0,-1.11847,240.8, -2.3, -1.9,0,0,1024,1024,1024,1024,241.8,0,71,3.869,3.891,3.874,3.862,0,0,12.338,98.51,3455.7494619619,3.608924,14,Waypoint,
337300,2021-04-16 09:14:52,40.1849472468303,33.3283100456724,3.937008,,,3456.0775459619,4.593176,0,3.8499345064,13,4,15.496,3456.0775459619,3.937008,0.50107456,3.8499345064,0,0,-1.11847,240.7, -2.5, -2.3,0,0,1024,1024,1024,1024,241.7,0,71,3.869,3.891,3.874,3.862,0,0,12.338,98.51,3456.0775459619,3.937008,14,Waypoint,
337400,2021-04-16 09:14:52,40.18494756193,33.3283101591629,4.265092,,,3456.4056299619,4.92126,0,3.8886484184,13,4,15.496,3456.4056299619,4.265092,0.50107456,3.8886484184,0,0,-1.11847,240.6, -2.1, -2.4,0,0,1024,1024,1024,1024,241.7,0,71,3.869,3.891,3.874,3.862,0,0,12.338,98.51,3456.4056299619,4.265092,14,Waypoint,
337500,2021-04-16 09:14:52,40.1849476307698,33.3283102801291,4.265092,,,3456.4056299619,4.92126,0.223694,3.9242783408,14,4,15.496,3456.4056299619,4.265092,0.50107456,3.9242783408,0,0.223694,-1.342164,240.6, -2.4, -1.5,0,0,1024,1024,1024,1024,241.7,0,71,3.869,3.891,3.874,3.862,0,0,12.338,98.51,3456.4056299619,4.265092,14,Waypoint,
337600,2021-04-16 09:14:52,40.1849476469213,33.328310461958,4.593176,,,3456.7337139619,5.249344,0.223694,3.9752625944,14,4,15.496,3456.7337139619,4.593176,0.50107456,3.9752625944,0,0.223694,-1.789552,240.7, -3.4, -0.3,0,0,1024,1024,1024,1024,241.7,0,71,3.869,3.891,3.874,3.862,0,0,12.338,98.51,3456.7337139619,4.593176,14,Waypoint,
337700,2021-04-16 09:14:52,40.1849476473176,33.3283106867359,4.92126,,,3457.0617979619,5.577428,0.223694,4.037729788,13,4,15.496,3457.0617979619,4.92126,0.50107456,4.037729788,0,0.223694,-2.23694,240.9, -4.2, 1,0,0,1024,1024,1024,1024,241.6,0,71,3.869,3.891,3.874,3.862,0,0,12.338,98.51,3457.0617979619,4.92126,14,Waypoint,
337800,2021-04-16 09:14:52,40.1849472412631,33.3283104171409,5.249344,,,3457.3898819619,5.905512,0,3.953248158,13,4,15.496,3457.3898819619,5.249344,0.50107456,4.037729788,0,0,-2.908022,241, -4.4, 1.1,0,0,1024,1024,1024,1024,241.7,0,71,3.869,3.891,3.874,3.862,0,0,12.338,98.51,3457.3898819619,5.249344,14,Waypoint,
337900,2021-04-16 09:14:52,40.1849472210419,33.3283103498592,5.905512,,,3458.0460499619,6.56168,0.223694,3.9341864776,14,4,15.496,3458.0460499619,5.905512,0.50107456,4.037729788,0.223694,0,-3.579104,240.8, -4.6, -0.4,0,0,1024,1024,1024,1024,241.6,0,71,3.869,3.891,3.874,3.862,0,0,12.338,98.51,3458.0460499619,5.905512,14,Waypoint,
338000,2021-04-16 09:14:52,40.1849472191633,33.3283102760731,6.233596,,,3458.3741339619,7.217848,0.223694,3.9136156108,14,4,15.496,3458.3741339619,6.233596,0.50107456,4.037729788,0.223694,0,-4.47388,240.5, -4, -2.3,0,0,1024,1024,1024,1024,241.6,0,71,3.869,3.891,3.874,3.862,0,0,12.338,98.51,3458.3741339619,6.233596,14,Waypoint,
338100,2021-04-16 09:14:52,40.1849472062984,33.3283102280928,7.217848,,,3459.3583859619,7.874016,0.223694,3.9000657416,14,4,15.267,3459.3583859619,7.217848,0.50107456,4.037729788,0.223694,0,-5.368656,240.6, -3.4, -2.6,0,0,1024,1024,1024,1024,241.6,0,71,3.869,3.891,3.874,3.862,0,0,12.338,98.51,3459.3583859619,7.217848,14,Waypoint,
338200,2021-04-16 09:14:53,40.1849472255411,33.3283102728146,7.874016,,,3460.0145539619,8.530184,0,3.9128282092,14,4,15.267,3460.0145539619,7.874016,0.50107456,4.037729788,0,0,-6.039738,240.8, -3.3, -2.1,0,0,1024,1024,1024,1024,241.6,0,71,3.869,3.891,3.874,3.862,0,0,12.338,98.51,3460.0145539619,7.874016,14,Waypoint,
338300,2021-04-16 09:14:53,40.1849471675461,33.3283105191027,8.858268,,,3460.9988059619,9.514436,0.223694,3.9805119384,15,4,15.267,3460.9988059619,8.858268,0.50107456,4.037729788,0,0.223694,-6.487126,240.9, -2.9, -0.6,0,0,1024,1024,1024,1024,241.6,0,71,3.869,3.891,3.874,3.862,0,0,12.338,98.51,3460.9988059619,8.858268,14,Waypoint,
338400,2021-04-16 09:14:53,40.1849471852146,33.3283106411185,9.84252,,,3461.9830579619,10.498688,0.223694,4.014763908,15,4,15.267,3461.9830579619,9.84252,0.50107456,4.037729788,0,0.223694,-6.934514,240.8, -4.1, -0.9,0,0,1024,1024,1024,1024,241.6,0,71,3.869,3.891,3.874,3.862,0,0,12.338,98.51,3461.9830579619,9.84252,14,Waypoint,
338500,2021-04-16 09:14:53,40.1849472040795,33.3283107713051,10.826772,,,3462.9673099619,11.811024,0.447388,4.0512796572,17,4,15.267,3462.9673099619,10.826772,0.50107456,4.0512796572,0,0.447388,-7.158208,240.8, -5.1, -1.9,0,0,1024,1024,1024,1024,241.6,0,71,3.869,3.891,3.874,3.862,0,0,12.338,98.51,3462.9673099619,10.826772,14,Waypoint,
338600,2021-04-16 09:14:53,40.1849471925505,33.3283109139146,12.139108,,,3464.2796459619,12.795276,0.447388,4.0908465876,17,4,15.267,3464.2796459619,12.139108,0.50107456,4.0908465876,0,0.447388,-7.158208,240.8, -5.4, -1.3,0,0,1024,1024,1024,1024,241.5,0,71,3.869,3.891,3.874,3.862,0,0,12.338,98.51,3464.2796459619,12.139108,14,Waypoint,
338700,2021-04-16 09:14:53,40.1849470369361,33.3283111796695,13.12336,,,3465.2638979619,13.779528,0.447388,4.1630250676,17,4,15.267,3465.2638979619,13.12336,0.50107456,4.1630250676,0,0.447388,-7.381902,240.8, -5.7, -0.4,0,0,1024,1024,1024,1024,241.5,0,71,3.869,3.891,3.874,3.862,0,0,12.338,98.51,3465.2638979619,13.12336,14,Waypoint,
338800,2021-04-16 09:14:53,40.1849471125126,33.328311331013,14.435696,,,3466.5762339619,14.76378,0.447388,4.2059712632,17,4,15.267,3466.5762339619,14.435696,0.50107456,4.2059712632,0,0.447388,-7.381902,240.8, -5.4, 0.2,0,0,1024,1024,1024,1024,241.5,0,71,3.869,3.891,3.874,3.862,0,0,12.338,98.51,3466.5762339619,14.435696,14,Waypoint,
338900,2021-04-16 09:14:53,40.1849472775827,33.3283114765474,15.419948,,,3467.5604859619,16.076116,0.223694,4.248851842,17,4,15.267,3467.5604859619,15.419948,0.50107456,4.248851842,0,0.223694,-7.381902,240.8, -5.4, -0.3,0,0,1024,1024,1024,1024,241.5,0,71,3.869,3.891,3.874,3.862,0,0,12.338,98.51,3467.5604859619,15.419948,14,Waypoint,
339000,2021-04-16 09:14:53,40.1849474645887,33.3283115248571,16.732284,,,3468.8728219619,17.060368,0.223694,4.2659778268,17,4,15.267,3468.8728219619,16.732284,0.50107456,4.2659778268,0,0.223694,-7.381902,240.8, -5.8, -0.7,0,0,1024,1024,1024,1024,241.5,0,71,3.869,3.891,3.874,3.862,0,0,12.338,98.51,3468.8728219619,16.732284,14,Waypoint,
339100,2021-04-16 09:14:53,40.1849481502428,33.3283113011037,18.04462,,,3470.1851579619,18.04462,0.31540854,4.2267389804,17,4,15.315,3470.1851579619,18.04462,0.50107456,4.2659778268,0.223694,0.223694,-7.381902,240.9, -6.5, -0.7,0,0,1024,1024,1024,1024,241.5,0,71,3.817,3.841,3.821,3.803,0,0,16.554,98.51,3470.1851579619,18.04462,14,Waypoint,
339200,2021-04-16 09:14:54,40.1849483271602,33.3283113207667,19.028872,,,3471.1694099619,19.028872,0.31540854,4.2404857,17,4,15.315,3471.1694099619,19.028872,0.50107456,4.2659778268,0.223694,0.223694,-7.158208,240.9, -7, -1,0,0,1024,1024,1024,1024,241.5,0,71,3.817,3.841,3.821,3.803,0,0,16.554,98.51,3471.1694099619,19.028872,14,Waypoint,
339300,2021-04-16 09:14:54,40.1849484749712,33.3283113723909,20.013124,,,3472.1536619619,20.341208,0.223694,4.2624017112,17,4,15.315,3472.1536619619,20.013124,0.50107456,4.2659778268,0.223694,0,-6.934514,240.9, -6.7, -1.2,0,0,1024,1024,1024,1024,241.5,0,71,3.817,3.841,3.821,3.803,0,0,16.554,98.51,3472.1536619619,20.013124,14,Waypoint,
339400,2021-04-16 09:14:54,40.1849485573579,33.3283113277335,21.32546,,,3473.4659979619,21.32546,0.223694,4.2546589288,17,4,15.315,3473.4659979619,21.32546,0.50107456,4.2659778268,0.223694,0,-6.934514,240.9, -6.5, -1.3,0,0,1024,1024,1024,1024,241.5,0,71,3.817,3.841,3.821,3.803,0,0,16.554,98.51,3473.4659979619,21.32546,14,Waypoint,
339500,2021-04-16 09:14:54,40.1849485633275,33.3283110170929,22.309712,,,3474.4502499619,22.309712,0,4.1694883224,17,4,15.315,3474.4502499619,22.309712,0.50107456,4.2659778268,0,0,-6.71082,240.8, -6.3, -1.4,0,0,1024,1024,1024,1024,241.5,0,71,3.817,3.841,3.821,3.803,0,0,16.554,98.51,3474.4502499619,22.309712,14,Waypoint,
339600,2021-04-16 09:14:54,40.184948607003,33.3283109396054,23.622048,,,3475.7625859619,23.293964,0.223694,4.150754726,17,4,15.315,3475.7625859619,23.622048,0.50107456,4.2659778268,0.223694,0,-6.71082,240.7, -6, -1.9,0,0,1024,1024,1024,1024,241.5,0,71,3.817,3.841,3.821,3.803,0,0,16.554,98.51,3475.7625859619,23.622048,14,Waypoint,
339700,2021-04-16 09:14:54,40.1849486585775,33.3283108848895,24.6063,,,3476.7468379619,24.278216,0.223694,4.1388452768,17,4,15.315,3476.7468379619,24.6063,0.50107456,4.2659778268,0.223694,0,-6.71082,240.7, -6.1, -2.4,0,0,1024,1024,1024,1024,241.4,0,71,3.817,3.841,3.821,3.803,0,0,16.554,98.51,3476.7468379619,24.6063,14,Waypoint,
339800,2021-04-16 09:14:54,40.1849486839743,33.3283108010365,25.590552,,,3477.7310899619,25.262468,0.223694,4.1173885832,17,4,15.315,3477.7310899619,25.590552,0.50107456,4.2659778268,0.223694,0,-6.71082,240.7, -6.1, -2.8,0,0,1024,1024,1024,1024,241.4,0,71,3.817,3.841,3.821,3.803,0,0,16.554,98.51,3477.7310899619,25.590552,14,Waypoint,
339900,2021-04-16 09:14:54,40.1849486848363,33.3283106877198,26.574804,,,3478.7153419619,26.24672,0,4.0863518368,16,4,15.315,3478.7153419619,26.574804,0.50107456,4.2659778268,0,0,-6.487126,240.8, -5.8, -3.1,0,0,1024,1024,1024,1024,241.4,0,71,3.817,3.841,3.821,3.803,0,0,16.554,98.51,3478.7153419619,26.574804,14,Waypoint,
340000,2021-04-16 09:14:54,40.18494852857,33.3283103956377,27.559056,,,3479.6995939619,27.230972,0,3.9964896292,16,4,15.315,3479.6995939619,27.559056,0.50107456,4.2659778268,0,0,-6.487126,240.8, -5.4, -3.2,0,0,1024,1024,1024,1024,241.4,0,71,3.817,3.841,3.821,3.803,0,0,16.554,98.51,3479.6995939619,27.559056,14,Waypoint,
340100,2021-04-16 09:14:54,40.1849484608437,33.3283101982801,28.543308,,,3480.6838459619,28.215224,0.223694,3.9382219108,17,4,15.234,3480.6838459619,28.543308,0.50107456,4.2659778268,0.223694,0,-6.263432,240.8, -5.1, -3.2,0,0,1024,1024,1024,1024,241.4,0,71,3.817,3.841,3.821,3.803,0,0,16.554,98.51,3480.6838459619,28.543308,14,Waypoint,
340200,2021-04-16 09:14:55,40.1849484946793,33.3283100563883,29.52756,,,3481.6680979619,29.199476,0.223694,3.9011812272,17,4,15.234,3481.6680979619,29.52756,0.50107456,4.2659778268,0.223694,0,-6.263432,240.8, -4.8, -3,0,0,1024,1024,1024,1024,241.4,0,71,3.817,3.841,3.821,3.803,0,0,16.554,98.51,3481.6680979619,29.52756,14,Waypoint,
340300,2021-04-16 09:14:55,40.18494860888,33.328309958076,30.183728,,,3482.3242659619,30.183728,0.671082,3.8812665284,17,4,15.234,3482.3242659619,30.183728,0.671082,4.2659778268,0.671082,0,-6.263432,240.8, -4.9, -3.1,0,0,1024,1024,1024,1024,241.4,0,71,3.817,3.841,3.821,3.803,0,0,16.554,98.51,3482.3242659619,30.183728,14,Waypoint,
340400,2021-04-16 09:14:55,40.1849491468676,33.3283095129924,31.16798,,,3483.3085179619,31.16798,0.671082,3.7996064208,17,4,15.234,3483.3085179619,31.16798,0.671082,4.2659778268,0.671082,0,-6.263432,240.9, -5.2, -3.9,0,0,1024,1024,1024,1024,241.4,0,71,3.817,3.841,3.821,3.803,0,0,16.554,98.51,3483.3085179619,31.16798,14,Waypoint,
340500,2021-04-16 09:14:55,40.1849495452815,33.3283092490973,32.152232,,,3484.2927699619,32.152232,0.447388,3.764927942,17,4,15.234,3484.2927699619,32.152232,0.671082,4.2659778268,0.447388,0,-6.263432,240.9, -5.7, -4.5,0,0,1024,1024,1024,1024,241.3,0,71,3.817,3.841,3.821,3.803,0,0,16.554,98.51,3484.2927699619,32.152232,14,Waypoint,
340600,2021-04-16 09:14:55,40.1849498122531,33.3283090679214,33.136484,,,3485.2770219619,32.8084,0.223694,3.7442914584,17,4,15.234,3485.2770219619,33.136484,0.671082,4.2659778268,0.223694,0,-6.263432,241, -6, -5.1,0,0,1024,1024,1024,1024,241.3,0,71,3.817,3.841,3.821,3.803,0,0,16.554,98.51,3485.2770219619,33.136484,14,Waypoint,
340700,2021-04-16 09:14:55,40.1849499661525,33.3283089507758,33.792652,,,3485.9331899619,33.792652,0,3.730479122,17,4,15.234,3485.9331899619,33.792652,0.671082,4.2659778268,0,0,-6.263432,241, -6.2, -5.1,0,0,1024,1024,1024,1024,241.3,0,71,3.817,3.841,3.821,3.803,0,0,16.554,98.51,3485.9331899619,33.792652,14,Waypoint,
340800,2021-04-16 09:14:55,40.1849499411656,33.3283086902247,34.776904,,,3486.9174419619,34.776904,0,3.6586943428,17,4,15.234,3486.9174419619,34.776904,0.671082,4.2659778268,0,0,-6.263432,240.9, -6, -4.4,0,0,1024,1024,1024,1024,241.3,0,71,3.817,3.841,3.821,3.803,0,0,16.554,98.51,3486.9174419619,34.776904,14,Waypoint,
340900,2021-04-16 09:14:55,40.1849496530963,33.3283087372309,35.761156,,,3487.9016939619,35.761156,0.31540854,3.6390749196,16,4,15.234,3487.9016939619,35.761156,0.671082,4.2659778268,-0.223694,0.223694,-6.263432,240.9, -5.5, -3.5,0,0,1024,1024,1024,1024,241.3,0,71,3.817,3.841,3.821,3.803,0,0,16.554,98.51,3487.9016939619,35.761156,14,Waypoint,
341000,2021-04-16 09:14:55,40.1849492937122,33.3283088153504,36.417324,,,3488.5578619619,36.745408,0.31540854,3.6240486724,16,4,15.234,3488.5578619619,36.417324,0.671082,4.2659778268,-0.223694,0.223694,-6.263432,240.9, -5.3, -2.6,0,0,1024,1024,1024,1024,241.3,0,71,3.817,3.841,3.821,3.803,0,0,16.554,98.51,3488.5578619619,36.417324,14,Waypoint,
341100,2021-04-16 09:14:55,40.1849488619862,33.3283089211397,37.401576,,,3489.5421139619,37.72966,0.50107456,3.615649722,17,4,15.32,3489.5421139619,37.401576,0.671082,4.2659778268,-0.447388,0.223694,-6.263432,240.8, -5.1, -1.8,0,0,1024,1024,1024,1024,241.3,0,71,3.837,3.859,3.841,3.828,0,0,14.372,98.51,3489.5421139619,37.401576,14,Waypoint,
341200,2021-04-16 09:14:56,40.1849477794178,33.3283093308341,38.057744,,,3490.1982819619,38.713912,0.31540854,3.6658137656,17,4,15.32,3490.1982819619,38.057744,0.671082,4.2659778268,-0.223694,0.223694,-6.263432,240.8, -4.7, -1.3,0,0,1024,1024,1024,1024,241.3,0,71,3.837,3.859,3.841,3.828,0,0,14.372,98.51,3490.1982819619,38.057744,14,Waypoint,
341300,2021-04-16 09:14:56,40.184947419494,33.3283094796802,39.041996,,,3491.1825339619,38.713912,0.31540854,3.696030302,17,4,15.32,3491.1825339619,39.041996,0.671082,4.2659778268,-0.223694,0.223694,-6.487126,240.7, -4.3, -0.5,0,0,1024,1024,1024,1024,241.3,0,71,3.837,3.859,3.841,3.828,0,0,14.372,98.51,3491.1825339619,39.041996,14,Waypoint,
341400,2021-04-16 09:14:56,40.1849471417058,33.3283096664999,40.026248,,,3492.1667859619,38.713912,0.223694,3.7426838468,17,4,15.32,3492.1667859619,40.026248,0.671082,4.2659778268,0,0.223694,-6.487126,240.7, -4.8, -0.5,0,0,1024,1024,1024,1024,241.3,0,71,3.837,3.859,3.841,3.828,0,0,14.372,98.51,3492.1667859619,40.026248,14,Waypoint,
341500,2021-04-16 09:14:56,40.1849469244481,33.3283098813972,41.0105,,,3493.1510379619,38.713912,0.223694,3.8003282056,16,4,15.32,3493.1510379619,41.0105,0.671082,4.2659778268,0,0.223694,-6.487126,240.8, -5.1, -0.9,0,0,1024,1024,1024,1024,241.3,0,71,3.837,3.859,3.841,3.828,0,0,14.372,98.51,3493.1510379619,41.0105,14,Waypoint,
341600,2021-04-16 09:14:56,40.1849467279302,33.3283100498138,41.994752,,,3494.1352899619,38.713912,0.223694,3.8467192832,16,4,15.32,3494.1352899619,41.994752,0.671082,4.2659778268,0,0.223694,-6.71082,240.8, -5.3, -0.7,0,0,1024,1024,1024,1024,241.3,0,71,3.837,3.859,3.841,3.828,0,0,14.372,98.51,3494.1352899619,41.994752,14,Waypoint,
341700,2021-04-16 09:14:56,40.1849463467745,33.3283103847733,42.65092,,,3494.7914579619,38.713912,0.223694,3.94274947,17,4,15.32,3494.7914579619,42.65092,0.671082,4.2659778268,0,0.223694,-6.71082,240.8, -5.7, -0.6,0,0,1024,1024,1024,1024,241.3,0,71,3.837,3.859,3.841,3.828,0,0,14.372,98.51,3494.7914579619,42.65092,14,Waypoint,
341800,2021-04-16 09:14:56,40.1849462586692,33.3283105166094,43.635172,,,3495.7757099619,38.713912,0.223694,3.9807415972,17,4,15.32,3495.7757099619,43.635172,0.671082,4.2659778268,0,0.223694,-6.71082,240.8, -5.9, -0.4,0,0,1024,1024,1024,1024,241.2,0,71,3.837,3.859,3.841,3.828,0,0,14.372,98.51,3495.7757099619,43.635172,14,Waypoint,
341900,2021-04-16 09:14:56,40.1849462337293,33.3283106419342,44.619424,,,3496.7599619619,38.713912,0.223694,4.016076244,17,4,15.32,3496.7599619619,44.619424,0.671082,4.2659778268,0,0.223694,-6.71082,240.8, -5.9, -0.4,0,0,1024,1024,1024,1024,241.3,0,71,3.837,3.859,3.841,3.828,0,0,14.372,98.51,3496.7599619619,44.619424,14,Waypoint,
342000,2021-04-16 09:14:56,40.184946229115,33.3283107381176,45.603676,,,3497.7442139619,38.713912,0.31540854,4.0429135152,17,4,15.32,3497.7442139619,45.603676,0.671082,4.2659778268,0.223694,0.223694,-6.71082,240.8, -6.1, -1,0,0,1024,1024,1024,1024,241.3,0,71,3.837,3.859,3.841,3.828,0,0,14.372,98.51,3497.7442139619,45.603676,14,Waypoint,
342100,2021-04-16 09:14:56,40.1849464036879,33.3283108816773,46.259844,,,3498.4003819619,38.713912,0.31540854,4.0804791332,17,4,15.272,3498.4003819619,46.259844,0.671082,4.2659778268,0.223694,0.223694,-6.71082,240.8, -6.6, -1.8,0,0,1024,1024,1024,1024,241.2,0,71,3.839,3.859,3.84,3.828,0,0,13.49,98.51,3498.4003819619,46.259844,14,Waypoint,
342200,2021-04-16 09:14:57,40.1849464599807,33.3283109185101,47.244096,,,3499.3846339619,38.713912,0.223694,4.0901576112,17,4,15.272,3499.3846339619,47.244096,0.671082,4.2659778268,0.223694,0,-6.71082,240.9, -6.9, -2.1,0,0,1024,1024,1024,1024,241.2,0,71,3.839,3.859,3.84,3.828,0,0,13.49,98.51,3499.3846339619,47.244096,14,Waypoint,
342300,2021-04-16 09:14:57,40.1849465349095,33.3283109242408,47.900264,,,3500.0408019619,38.713912,0.223694,4.0911418632,17,4,15.272,3500.0408019619,47.900264,0.671082,4.2659778268,0.223694,0,-6.71082,240.9, -6.6, -2.4,0,0,1024,1024,1024,1024,241.2,0,71,3.839,3.859,3.84,3.828,0,0,13.49,98.51,3500.0408019619,47.900264,14,Waypoint,
342400,2021-04-16 09:14:57,40.1849465703523,33.3283109275483,48.884516,,,3501.0250539619,38.713912,0.223694,4.091863648,17,4,15.272,3501.0250539619,48.884516,0.671082,4.2659778268,0.223694,0,-6.934514,240.9, -6.4, -2.3,0,0,1024,1024,1024,1024,241.2,0,71,3.839,3.859,3.84,3.828,0,0,13.49,98.51,3501.0250539619,48.884516,14,Waypoint,
342500,2021-04-16 09:14:57,40.1849466952304,33.3283108448796,49.868768,,,3502.0093059619,38.713912,0,4.0683728336,17,4,15.272,3502.0093059619,49.868768,0.671082,4.2659778268,0,0,-6.934514,240.9, -6.6, -1.7,0,0,1024,1024,1024,1024,241.2,0,71,3.839,3.859,3.84,3.828,0,0,13.49,98.51,3502.0093059619,49.868768,14,Waypoint,
342600,2021-04-16 09:14:57,40.1849467108746,33.3283108582148,50.524936,,,3502.6654739619,38.713912,0,4.0720473744,17,4,15.272,3502.6654739619,50.524936,0.671082,4.2659778268,0,0,-6.934514,240.9, -6.6, -1.5,0,0,1024,1024,1024,1024,241.2,0,71,3.839,3.859,3.84,3.828,0,0,13.49,98.51,3502.6654739619,50.524936,14,Waypoint,
342700,2021-04-16 09:14:57,40.1849467471118,33.3283108637017,51.509188,,,3503.6497259619,38.713912,0.223694,4.0735565608,17,4,15.272,3503.6497259619,51.509188,0.671082,4.2659778268,0.223694,0,-6.934514,240.9, -6.5, -2,0,0,1024,1024,1024,1024,241.2,0,71,3.839,3.859,3.84,3.828,0,0,13.49,98.51,3503.6497259619,51.509188,14,Waypoint,
342800,2021-04-16 09:14:57,40.1849467910924,33.3283108728212,52.821524,,,3504.9620619619,38.713912,0.223694,4.0761484244,17,4,15.272,3504.9620619619,52.821524,0.671082,4.2659778268,0.223694,0,-7.158208,241, -6.4, -2.9,0,0,1024,1024,1024,1024,241.2,0,71,3.839,3.859,3.84,3.828,0,0,13.49,98.51,3504.9620619619,52.821524,14,Waypoint,
342900,2021-04-16 09:14:57,40.1849469155664,33.3283110653044,53.477692,,,3505.6182299619,38.713912,0,4.130249476,17,5,15.272,3505.6182299619,53.477692,0.671082,4.2659778268,0,0,-7.158208,241, -6.2, -2.8,0,0,1024,1024,1024,1024,241.2,0,71,3.839,3.859,3.84,3.828,0,0,13.49,98.51,3505.6182299619,53.477692,14,Waypoint,
343000,2021-04-16 09:14:57,40.1849469131531,33.3283110596606,54.461944,,,3506.6024819619,38.713912,0,4.1286418644,17,5,15.272,3506.6024819619,54.461944,0.671082,4.2659778268,0,0,-7.158208,241, -6.1, -2.4,0,0,1024,1024,1024,1024,241.2,0,71,3.839,3.859,3.84,3.828,0,0,13.49,98.51,3506.6024819619,54.461944,14,Waypoint,
343100,2021-04-16 09:14:57,40.1849468887625,33.3283110379233,55.446196,,,3507.5867339619,38.713912,0,4.1224738852,17,5,15.257,3507.5867339619,55.446196,0.671082,4.2659778268,0,0,-7.158208,241, -5.9, -2.3,0,0,1024,1024,1024,1024,241.2,0,71,3.826,3.851,3.832,3.808,0,0,14.25,98.51,3507.5867339619,55.446196,14,Waypoint,
343200,2021-04-16 09:14:58,40.1849468581977,33.3283109995335,56.430448,,,3508.5709859619,38.713912,0,4.1116471132,17,5,15.257,3508.5709859619,56.430448,0.671082,4.2659778268,0,0,-7.158208,241.1, -5.8, -2.2,0,0,1024,1024,1024,1024,241.2,0,71,3.826,3.851,3.832,3.808,0,0,14.25,98.51,3508.5709859619,56.430448,14,Waypoint,
343300,2021-04-16 09:14:58,40.1849468261887,33.3283109435268,57.4147,,,3509.5552379619,38.713912,0,4.0959318896,17,5,15.257,3509.5552379619,57.4147,0.671082,4.2659778268,0,0,-7.158208,241, -6, -1.9,0,0,1024,1024,1024,1024,241.2,0,71,3.826,3.851,3.832,3.808,0,0,14.25,98.51,3509.5552379619,57.4147,14,Waypoint,
343400,2021-04-16 09:14:58,40.184946747008,33.3283107974655,58.398952,,,3510.5394899619,38.713912,0,4.05511824,17,5,15.257,3510.5394899619,58.398952,0.671082,4.2659778268,0,0,-7.158208,241, -5.7, -2.1,0,0,1024,1024,1024,1024,241.2,0,71,3.826,3.851,3.832,3.808,0,0,14.25,98.51,3510.5394899619,58.398952,14,Waypoint,
343500,2021-04-16 09:14:58,40.1849467283457,33.3283106546402,59.05512,,,3511.1956579619,38.713912,0.223694,4.0152888424,17,5,15.257,3511.1956579619,59.05512,0.671082,4.2659778268,0.223694,0,-7.158208,240.9, -5.5, -2.4,0,0,1024,1024,1024,1024,241.2,0,71,3.826,3.851,3.832,3.808,0,0,14.25,98.51,3511.1956579619,59.05512,14,Waypoint,
343600,2021-04-16 09:14:58,40.1849467540074,33.3283105287829,60.039372,,,3512.1799099619,38.713912,0.223694,3.9802166628,17,5,15.257,3512.1799099619,60.039372,0.671082,4.2659778268,0.223694,0,-7.158208,240.9, -5.4, -2.6,0,0,1024,1024,1024,1024,241.2,0,71,3.826,3.851,3.832,3.808,0,0,14.25,98.51,3512.1799099619,60.039372,14,Waypoint,
343700,2021-04-16 09:14:58,40.1849468099281,33.3283104132434,61.023624,,,3513.1641619619,38.713912,0.223694,3.9480972392,17,5,15.257,3513.1641619619,61.023624,0.671082,4.2659778268,0.223694,0,-7.158208,240.9, -5.7, -2.6,0,0,1024,1024,1024,1024,241.2,0,71,3.826,3.851,3.832,3.808,0,0,14.25,98.51,3513.1641619619,61.023624,14,Waypoint,
343800,2021-04-16 09:14:58,40.184947045073,33.3283102207686,62.007876,,,3514.1484139619,38.713912,0.223694,3.8958990748,17,5,15.257,3514.1484139619,62.007876,0.671082,4.2659778268,0.223694,0,-7.158208,241, -6, -2.6,0,0,1024,1024,1024,1024,241.2,0,71,3.826,3.851,3.832,3.808,0,0,14.25,98.51,3514.1484139619,62.007876,14,Waypoint,
343900,2021-04-16 09:14:58,40.184947168185,33.3283102430566,62.992128,,,3515.1326659619,38.713912,0,3.9036418572,17,5,15.257,3515.1326659619,62.992128,0.671082,4.2659778268,0,0,-7.381902,241, -6, -2.7,0,0,1024,1024,1024,1024,241.2,0,71,3.826,3.851,3.832,3.808,0,0,14.25,98.51,3515.1326659619,62.992128,14,Waypoint,
344000,2021-04-16 09:14:58,40.184947252376,33.328310238007,63.97638,,,3516.1169179619,38.713912,0,3.9035762404,17,5,15.257,3516.1169179619,63.97638,0.671082,4.2659778268,0,0,-7.381902,241, -6.3, -2.7,0,0,1024,1024,1024,1024,241.2,0,71,3.826,3.851,3.832,3.808,0,0,14.25,98.51,3516.1169179619,63.97638,14,Waypoint,
344100,2021-04-16 09:14:58,40.1849473090971,33.3283102115019,64.960632,,,3517.1011699619,38.713912,0,3.8972442192,17,5,15.197,3517.1011699619,64.960632,0.671082,4.2659778268,0,0,-7.381902,241.1, -6.2, -2.6,0,0,1024,1024,1024,1024,241.2,0,71,3.826,3.851,3.832,3.808,0,0,14.25,98.51,3517.1011699619,64.960632,14,Waypoint,
344200,2021-04-16 09:14:59,40.1849475038014,33.3283102775643,65.944884,,,3518.0854219619,38.713912,0,3.9200132488,17,5,15.197,3518.0854219619,65.944884,0.671082,4.2659778268,0,0,-7.158208,241.1, -6.1, -2.5,0,0,1024,1024,1024,1024,241.2,0,71,3.826,3.851,3.832,3.808,0,0,14.25,98.51,3518.0854219619,65.944884,14,Waypoint,
344300,2021-04-16 09:14:59,40.1849474976443,33.3283102510998,66.929136,,,3519.0696739619,38.713912,0,3.9125001252,17,5,15.197,3519.0696739619,66.929136,0.671082,4.2659778268,0,0,-7.158208,241.1, -6.2, -2.5,0,0,1024,1024,1024,1024,241.2,0,71,3.826,3.851,3.832,3.808,0,0,14.25,98.51,3519.0696739619,66.929136,14,Waypoint,
344400,2021-04-16 09:14:59,40.1849474190949,33.3283101778141,67.913388,,,3520.0539259619,38.713912,0,3.8901904132,17,5,15.197,3520.0539259619,67.913388,0.671082,4.2659778268,0,0,-7.158208,241, -5.9, -2.2,0,0,1024,1024,1024,1024,241.2,0,71,3.826,3.851,3.832,3.808,0,0,14.25,98.51,3520.0539259619,67.913388,14,Waypoint,
344500,2021-04-16 09:14:59,40.1849473019297,33.3283100770828,68.89764,,,3521.0381779619,38.713912,0,3.8596786012,17,5,15.197,3521.0381779619,68.89764,0.671082,4.2659778268,0,0,-7.158208,241, -5.8, -2.1,0,0,1024,1024,1024,1024,241.2,0,71,3.826,3.851,3.832,3.808,0,0,14.25,98.51,3521.0381779619,68.89764,14,Waypoint,
344600,2021-04-16 09:14:59,40.1849471405998,33.3283098654131,69.881892,,,3522.0224299619,38.713912,0,3.798064426,17,5,15.197,3522.0224299619,69.881892,0.671082,4.2659778268,0,0,-7.381902,241, -5.4, -2.1,0,0,1024,1024,1024,1024,241.1,0,71,3.826,3.851,3.832,3.808,0,0,14.25,98.51,3522.0224299619,69.881892,14,Waypoint,
344700,2021-04-16 09:14:59,40.184947115031,33.3283097912206,70.866144,,,3523.0066819619,38.713912,0,3.77706705,17,5,15.197,3523.0066819619,70.866144,0.671082,4.2659778268,0,0,-7.381902,241, -5.1, -1.9,0,0,1024,1024,1024,1024,241.1,0,71,3.826,3.851,3.832,3.808,0,0,14.25,98.51,3523.0066819619,70.866144,14,Waypoint,
344800,2021-04-16 09:14:59,40.1849470726807,33.3283097646959,71.850396,,,3523.9909339619,38.713912,0,3.7691602256,17,5,15.197,3523.9909339619,71.850396,0.671082,4.2659778268,0,0,-7.381902,241, -5.4, -2,0,0,1024,1024,1024,1024,241.1,0,71,3.826,3.851,3.832,3.808,0,0,14.25,98.51,3523.9909339619,71.850396,14,Waypoint,
344900,2021-04-16 09:14:59,40.1849470162551,33.3283097661212,72.834648,,,3524.9751859619,38.713912,0,3.7689305668,17,5,15.197,3524.9751859619,72.834648,0.671082,4.2659778268,0,0,-7.381902,241, -5.6, -2.1,0,0,1024,1024,1024,1024,241.1,0,71,3.826,3.851,3.832,3.808,0,0,14.25,98.51,3524.9751859619,72.834648,14,Waypoint,
345000,2021-04-16 09:14:59,40.1849469625592,33.328309753753,73.8189,,,3525.9594379619,38.713912,0,3.7650263672,17,5,15.197,3525.9594379619,73.8189,0.671082,4.2659778268,0,0,-7.158208,241, -5.6, -2.2,0,0,1024,1024,1024,1024,241.1,0,71,3.826,3.851,3.832,3.808,0,0,14.25,98.51,3525.9594379619,73.8189,14,Waypoint,
345100,2021-04-16 09:14:59,40.1849468570029,33.3283098251229,74.475068,,,3526.6156059619,38.713912,0,3.7843177064,17,5,15.155,3526.6156059619,74.475068,0.671082,4.2659778268,0,0,-7.158208,241, -5.5, -2,0,0,1024,1024,1024,1024,241.2,0,71,3.812,3.839,3.82,3.803,0,0,15.022,98.51,3526.6156059619,74.475068,14,Waypoint,
345200,2021-04-16 09:15:00,40.1849467990026,33.3283097978707,75.787404,,,3527.9279419619,38.713912,0,3.7765421156,17,5,15.155,3527.9279419619,75.787404,0.671082,4.2659778268,0,0,-7.381902,241, -5.4, -1.9,0,0,1024,1024,1024,1024,241.1,0,71,3.812,3.839,3.82,3.803,0,0,15.022,98.51,3527.9279419619,75.787404,14,Waypoint,
345300,2021-04-16 09:15:00,40.1849467385073,33.3283097652004,76.771656,,,3528.9121939619,38.713912,0,3.767388572,17,5,15.155,3528.9121939619,76.771656,0.671082,4.2659778268,0,0,-7.381902,241, -5.4, -2,0,0,1024,1024,1024,1024,241.1,0,71,3.812,3.839,3.82,3.803,0,0,15.022,98.51,3528.9121939619,76.771656,14,Waypoint,
345400,2021-04-16 09:15:00,40.1849466446014,33.3283097317018,77.755908,,,3529.8964459619,38.713912,0,3.75820222,17,5,15.155,3529.8964459619,77.755908,0.671082,4.2659778268,0,0,-7.381902,241.1, -5.3, -1.6,0,0,1024,1024,1024,1024,241.1,0,71,3.812,3.839,3.82,3.803,0,0,15.022,98.51,3529.8964459619,77.755908,14,Waypoint,
345500,2021-04-16 09:15:00,40.1849464449198,33.3283096683695,78.74016,,,3530.8806979619,38.713912,0,3.741962062,17,5,15.155,3530.8806979619,78.74016,0.671082,4.2659778268,0,0,-7.381902,241, -5.3, -1.3,0,0,1024,1024,1024,1024,241.1,0,71,3.812,3.839,3.82,3.803,0,0,15.022,98.51,3530.8806979619,78.74016,14,Waypoint,
345600,2021-04-16 09:15:00,40.1849463961668,33.3283096736742,79.724412,,,3531.8649499619,38.713912,0,3.7440289912,17,5,15.155,3531.8649499619,79.724412,0.671082,4.2659778268,0,0,-7.158208,241, -5.3, -1.3,0,0,1024,1024,1024,1024,241.1,0,71,3.812,3.839,3.82,3.803,0,0,15.022,98.51,3531.8649499619,79.724412,14,Waypoint,
345700,2021-04-16 09:15:00,40.1849463945999,33.3283097074419,81.036748,,,3533.1772859619,38.713912,0,3.753445002,17,5,15.155,3533.1772859619,81.036748,0.671082,4.2659778268,0,0,-7.381902,241, -5.4, -1.8,0,0,1024,1024,1024,1024,241.2,0,71,3.812,3.839,3.82,3.803,0,0,15.022,98.51,3533.1772859619,81.036748,14,Waypoint,
345800,2021-04-16 09:15:00,40.1849464180853,33.3283097803534,82.021,,,3534.1615379619,38.713912,0,3.773458126,17,5,15.155,3534.1615379619,82.021,0.671082,4.2659778268,0,0,-7.158208,241, -5.8, -1.9,0,0,1024,1024,1024,1024,241.2,0,71,3.812,3.839,3.82,3.803,0,0,15.022,98.51,3534.1615379619,82.021,14,Waypoint,
345900,2021-04-16 09:15:00,40.1849466242764,33.3283100501446,83.005252,,,3535.1457899619,38.713912,0,3.8470473672,17,5,15.155,3535.1457899619,83.005252,0.671082,4.2659778268,0,0,-7.381902,241, -5.9, -1.9,0,0,1024,1024,1024,1024,241.1,0,71,3.812,3.839,3.82,3.803,0,0,15.022,98.51,3535.1457899619,83.005252,14,Waypoint,
346000,2021-04-16 09:15:00,40.1849466165151,33.3283101294484,83.989504,,,3536.1300419619,38.713912,0,3.8691930372,17,5,15.155,3536.1300419619,83.989504,0.671082,4.2659778268,0,0,-7.381902,241.1, -6.1, -1.6,0,0,1024,1024,1024,1024,241.1,0,71,3.812,3.839,3.82,3.803,0,0,15.022,98.51,3536.1300419619,83.989504,14,Waypoint,
346100,2021-04-16 09:15:00,40.1849465794081,33.3283101920477,85.30184,,,3537.4423779619,38.713912,0,3.886811148,17,5,15.185,3537.4423779619,85.30184,0.671082,4.2659778268,0,0,-7.158208,241.1, -6.3, -1.4,0,0,1024,1024,1024,1024,241.1,0,71,3.8,3.831,3.816,3.804,0,0,14.874,98.51,3537.4423779619,85.30184,14,Waypoint,
346200,2021-04-16 09:15:01,40.1849465488581,33.3283102249002,86.286092,,,3538.4266299619,38.713912,0,3.896161542,17,5,15.185,3538.4266299619,86.286092,0.671082,4.2659778268,0,0,-7.158208,241, -6.1, -1.2,0,0,1024,1024,1024,1024,241.1,0,71,3.8,3.831,3.816,3.804,0,0,14.874,98.51,3538.4266299619,86.286092,14,Waypoint,
346300,2021-04-16 09:15:01,40.1849465877525,33.3283102108502,87.270344,,,3539.4108819619,38.713912,0,3.8919948752,17,5,15.185,3539.4108819619,87.270344,0.671082,4.2659778268,0,0,-7.158208,241, -6.2, -1.2,0,0,1024,1024,1024,1024,241.1,0,71,3.8,3.831,3.816,3.804,0,0,14.874,98.51,3539.4108819619,87.270344,14,Waypoint,
346400,2021-04-16 09:15:01,40.1849466365333,33.3283102661729,88.254596,,,3540.3951339619,38.713912,0,3.9072179728,17,5,15.185,3540.3951339619,88.254596,0.671082,4.2659778268,0,0,-6.934514,241, -6.3, -1.1,0,0,1024,1024,1024,1024,241.1,0,71,3.8,3.831,3.816,3.804,0,0,14.874,98.51,3540.3951339619,88.254596,14,Waypoint,
346500,2021-04-16 09:15:01,40.1849467281804,33.328310344825,89.238848,,,3541.3793859619,38.713912,0,3.9289371336,17,5,15.185,3541.3793859619,89.238848,0.671082,4.2659778268,0,0,-6.934514,241, -6.2, -1.6,0,0,1024,1024,1024,1024,241.1,0,71,3.8,3.831,3.816,3.804,0,0,14.874,98.51,3541.3793859619,89.238848,14,Waypoint,
346600,2021-04-16 09:15:01,40.1849468127038,33.3283104290565,90.2231,,,3542.3636379619,38.713912,0,3.9524935648,17,5,15.185,3542.3636379619,90.2231,0.671082,4.2659778268,0,0,-6.934514,241, -6.8, -2.2,0,0,1024,1024,1024,1024,241.1,0,71,3.8,3.831,3.816,3.804,0,0,14.874,98.51,3542.3636379619,90.2231,14,Waypoint,
346700,2021-04-16 09:15:01,40.1849468765079,33.3283105195316,91.207352,,,3543.3478899619,38.713912,0,3.9779200748,17,5,15.185,3543.3478899619,91.207352,0.671082,4.2659778268,0,0,-6.934514,241, -7.3, -1.5,0,0,1024,1024,1024,1024,241.1,0,71,3.8,3.831,3.816,3.804,0,0,14.874,98.51,3543.3478899619,91.207352,14,Waypoint,
346800,2021-04-16 09:15:01,40.1849470547404,33.3283106998483,92.191604,,,3544.3321419619,38.713912,0,4.0294948796,17,5,15.185,3544.3321419619,92.191604,0.671082,4.2659778268,0,0,-6.934514,241, -6.8, -1.2,0,0,1024,1024,1024,1024,241.1,0,71,3.8,3.831,3.816,3.804,0,0,14.874,98.51,3544.3321419619,92.191604,14,Waypoint,
346900,2021-04-16 09:15:01,40.1849469072081,33.328310684963,93.175856,,,3545.3163939619,38.713912,0,4.0241799188,17,5,15.185,3545.3163939619,93.175856,0.671082,4.2659778268,0,0,-7.158208,241.1, -6.2, -1.5,0,0,1024,1024,1024,1024,241.1,0,71,3.8,3.831,3.816,3.804,0,0,14.874,98.51,3545.3163939619,93.175856,14,Waypoint,
347000,2021-04-16 09:15:01,40.184946743475,33.3283106203722,94.160108,,,3546.3006459619,38.713912,0,4.005741598,17,5,15.185,3546.3006459619,94.160108,0.671082,4.2659778268,0,0,-6.934514,241.1, -5.8, -1.2,0,0,1024,1024,1024,1024,241.1,0,71,3.8,3.831,3.816,3.804,0,0,14.874,98.51,3546.3006459619,94.160108,14,Waypoint,
347100,2021-04-16 09:15:01,40.1849465700979,33.3283105230437,95.14436,,,3547.2848979619,38.713912,0.223694,3.9791339856,17,5,15.175,3547.2848979619,95.14436,0.671082,4.2659778268,-0.223694,0,-6.934514,241.1, -5.2, -0.6,0,0,1024,1024,1024,1024,241.1,0,71,3.812,3.829,3.809,3.797,0,0,14.664,98.51,3547.2848979619,95.14436,14,Waypoint,
347200,2021-04-16 09:15:02,40.1849461060726,33.3283102751061,96.128612,,,3548.2691499619,38.713912,0,3.9164371332,17,5,15.175,3548.2691499619,96.128612,0.671082,4.2659778268,0,0,-6.934514,241.1, -4.8, -0.3,0,0,1024,1024,1024,1024,241.1,0,71,3.812,3.829,3.809,3.797,0,0,14.664,98.51,3548.2691499619,96.128612,14,Waypoint,
347300,2021-04-16 09:15:02,40.1849459206846,33.3283101625966,97.112864,,,3549.2534019619,38.713912,0,3.889763904,17,5,15.175,3549.2534019619,97.112864,0.671082,4.2659778268,0,0,-6.934514,241.1, -4.3, -0.3,0,0,1024,1024,1024,1024,241.1,0,71,3.812,3.829,3.809,3.797,0,0,14.664,98.51,3549.2534019619,97.112864,14,Waypoint,
347400,2021-04-16 09:15:02,40.1849458129324,33.3283100014313,98.097116,,,3550.2376539619,38.713912,0,3.8482284696,17,5,15.175,3550.2376539619,98.097116,0.671082,4.2659778268,0,0,-6.934514,241, -4.2, -0.4,0,0,1024,1024,1024,1024,241.1,0,71,3.812,3.829,3.809,3.797,0,0,14.664,98.51,3550.2376539619,98.097116,14,Waypoint,
347500,2021-04-16 09:15:02,40.1849457616351,33.3283097965968,99.081368,,,3551.2219059619,38.713912,0,3.7931103576,17,5,15.175,3551.2219059619,99.081368,0.671082,4.2659778268,0,0,-6.934514,241, -4.2, -0.6,0,0,1024,1024,1024,1024,241.1,0,71,3.812,3.829,3.809,3.797,0,0,14.664,98.51,3551.2219059619,99.081368,14,Waypoint,
347600,2021-04-16 09:15:02,40.1849457803671,33.3283093549805,100.393704,,,3552.5342419619,38.713912,0,3.6699148156,17,5,15.175,3552.5342419619,100.393704,0.671082,4.2659778268,0,0,-6.934514,241, -4.2, -1.1,0,0,1024,1024,1024,1024,241.1,0,71,3.812,3.829,3.809,3.797,0,0,14.664,98.51,3552.5342419619,100.393704,14,Waypoint,
347700,2021-04-16 09:15:02,40.1849457660268,33.3283092483475,101.377956,,,3553.5184939619,38.713912,0,3.6408465732,17,5,15.175,3553.5184939619,101.377956,0.671082,4.2659778268,0,0,-6.934514,241, -4.3, -1.2,0,0,1024,1024,1024,1024,241.1,0,71,3.812,3.829,3.809,3.797,0,0,14.664,98.51,3553.5184939619,101.377956,14,Waypoint,
347800,2021-04-16 09:15:02,40.184945754009,33.3283091853039,102.362208,,,3554.5027459619,38.713912,0,3.6237862052,17,5,15.175,3554.5027459619,102.362208,0.671082,4.2659778268,0,0,-6.934514,241.1, -4.4, -1.3,0,0,1024,1024,1024,1024,241.1,0,71,3.812,3.829,3.809,3.797,0,0,14.664,98.51,3554.5027459619,102.362208,14,Waypoint,
347900,2021-04-16 09:15:02,40.1849457390601,33.3283091493316,103.34646,,,3555.4869979619,38.713912,0,3.6143701944,17,5,15.175,3555.4869979619,103.34646,0.671082,4.2659778268,0,0,-6.934514,241.1, -4.7, -1.5,0,0,1024,1024,1024,1024,241.1,0,71,3.812,3.829,3.809,3.797,0,0,14.664,98.51,3555.4869979619,103.34646,14,Waypoint,
348000,2021-04-16 09:15:02,40.1849457705913,33.3283091890585,104.658796,,,3556.7993339619,38.713912,0,3.6242127144,17,5,15.175,3556.7993339619,104.658796,0.671082,4.2659778268,0,0,-6.934514,241.1, -4.8, -1.9,0,0,1024,1024,1024,1024,241.1,0,71,3.812,3.829,3.809,3.797,0,0,14.664,98.51,3556.7993339619,104.658796,14,Waypoint,
348100,2021-04-16 09:15:02,40.1849457491663,33.3283091867152,105.314964,,,3557.4555019619,38.713912,0,3.624343948,17,5,15.155,3557.4555019619,105.314964,0.671082,4.2659778268,0,0,-6.934514,241.1, -4.7, -1.3,0,0,1024,1024,1024,1024,241.1,0,70,3.792,3.82,3.803,3.792,0,0,15,98.51,3557.4555019619,105.314964,14,Waypoint,
348200,2021-04-16 09:15:03,40.1849457011657,33.3283092130522,106.299216,,,3558.4397539619,38.713912,0,3.6334318748,17,5,15.155,3558.4397539619,106.299216,0.671082,4.2659778268,0,0,-6.71082,241.1, -4.6, -0.9,0,0,1024,1024,1024,1024,241.1,0,70,3.792,3.82,3.803,3.792,0,0,15,98.51,3558.4397539619,106.299216,14,Waypoint,
348300,2021-04-16 09:15:03,40.1849456357836,33.3283092646063,107.611552,,,3559.7520899619,38.713912,0,3.6502953924,17,5,15.155,3559.7520899619,107.611552,0.671082,4.2659778268,0,0,-6.934514,241.2, -4.5, -0.3,0,0,1024,1024,1024,1024,241.1,0,70,3.792,3.82,3.803,3.792,0,0,15,98.51,3559.7520899619,107.611552,14,Waypoint,
348400,2021-04-16 09:15:03,40.1849456273339,33.3283093181659,108.26772,,,3560.4082579619,38.713912,0,3.6654856816,17,5,15.155,3560.4082579619,108.26772,0.671082,4.2659778268,0,0,-6.71082,241.1, -4.9, -0.4,0,0,1024,1024,1024,1024,241.1,0,70,3.792,3.82,3.803,3.792,0,0,15,98.51,3560.4082579619,108.26772,14,Waypoint,
348500,2021-04-16 09:15:03,40.1849457426995,33.3283094506425,109.580056,,,3561.7205939619,38.713912,0.223694,3.6977691472,17,5,15.155,3561.7205939619,109.580056,0.671082,4.2659778268,0,0.223694,-6.934514,241.2, -5.2, -0.5,0,0,1024,1024,1024,1024,241.1,0,70,3.792,3.82,3.803,3.792,0,0,15,98.51,3561.7205939619,109.580056,14,Waypoint,
348600,2021-04-16 09:15:03,40.184945705814,33.3283095359938,110.236224,,,3562.3767619619,38.713912,0.223694,3.7228019564,17,5,15.155,3562.3767619619,110.236224,0.671082,4.2659778268,0,0.223694,-6.71082,241.2, -5.7, -0.4,0,0,1024,1024,1024,1024,241.2,0,70,3.792,3.82,3.803,3.792,0,0,15,98.51,3562.3767619619,110.236224,14,Waypoint,
348700,2021-04-16 09:15:03,40.184945626782,33.3283096457353,111.54856,,,3563.6890979619,38.713912,0.223694,3.7562665244,16,5,15.155,3563.6890979619,111.54856,0.671082,4.2659778268,0,0.223694,-6.934514,241.1, -5.7, 0.6,0,0,1024,1024,1024,1024,241.1,0,70,3.792,3.82,3.803,3.792,0,0,15,98.51,3563.6890979619,111.54856,14,Waypoint,
348800,2021-04-16 09:15:03,40.1849455887969,33.3283097268512,112.532812,,,3564.6733499619,38.713912,0,3.7802494648,16,5,15.155,3564.6733499619,112.532812,0.671082,4.2659778268,0,0,-6.934514,241, -6.3, 0,0,0,1024,1024,1024,1024,241.1,0,70,3.792,3.82,3.803,3.792,0,0,15,98.51,3564.6733499619,112.532812,14,Waypoint,
348900,2021-04-16 09:15:03,40.1849454195207,33.3283097404471,113.845148,,,3565.9856859619,38.713912,0,3.7914043208,17,5,15.155,3565.9856859619,113.845148,0.671082,4.2659778268,0,0,-6.934514,241, -6.6, -0.5,0,0,1024,1024,1024,1024,241.1,0,70,3.792,3.82,3.803,3.792,0,0,15,98.51,3565.9856859619,113.845148,14,Waypoint,
349000,2021-04-16 09:15:03,40.1849454221688,33.3283097845915,114.8294,,,3566.9699379619,38.713912,0,3.803477812,17,5,15.155,3566.9699379619,114.8294,0.671082,4.2659778268,0,0,-6.71082,241, -5.9, -1,0,0,1024,1024,1024,1024,241.1,0,70,3.792,3.82,3.803,3.792,0,0,15,98.51,3566.9699379619,114.8294,14,Waypoint,
349100,2021-04-16 09:15:03,40.1849454323276,33.328309845673,116.141736,,,3568.2822739619,38.713912,0.223694,3.819882012,17,5,15.129,3568.2822739619,116.141736,0.671082,4.2659778268,0,0.223694,-6.934514,241, -5.9, -1,0,0,1024,1024,1024,1024,241.1,0,70,3.792,3.82,3.803,3.792,0,0,15,98.51,3568.2822739619,116.141736,14,Waypoint,
349200,2021-04-16 09:15:04,40.1849454669668,33.3283099657646,117.125988,,,3569.2665259619,38.713912,0.223694,3.8515749264,17,5,15.129,3569.2665259619,117.125988,0.671082,4.2659778268,0,0.223694,-6.71082,241, -6.6, -0.6,0,0,1024,1024,1024,1024,241.1,0,70,3.792,3.82,3.803,3.792,0,0,15,98.51,3569.2665259619,117.125988,14,Waypoint,
349300,2021-04-16 09:15:04,40.1849456497817,33.328310279689,118.11024,,,3570.2507779619,38.713912,0.31540854,3.931102488,17,5,15.129,3570.2507779619,118.11024,0.671082,4.2659778268,0.223694,0.223694,-6.487126,241.1, -7.6, -0.7,0,0,1024,1024,1024,1024,241.1,0,70,3.792,3.82,3.803,3.792,0,0,15,98.51,3570.2507779619,118.11024,14,Waypoint,
349400,2021-04-16 09:15:04,40.1849457799161,33.3283104437357,119.094492,,,3571.2350299619,38.713912,0.31540854,3.972112988,17,5,15.129,3571.2350299619,119.094492,0.671082,4.2659778268,0.223694,0.223694,-6.487126,241.1, -7.9, -0.5,0,0,1024,1024,1024,1024,241.1,0,70,3.792,3.82,3.803,3.792,0,0,15,98.51,3571.2350299619,119.094492,14,Waypoint,
349500,2021-04-16 09:15:04,40.1849459508533,33.3283105894551,120.406828,,,3572.5473659619,38.713912,0.223694,4.0075788684,17,5,15.129,3572.5473659619,120.406828,0.671082,4.2659778268,0,0.223694,-6.487126,241.1, -7.7, -0.3,0,0,1024,1024,1024,1024,241.1,0,70,3.792,3.82,3.803,3.792,0,0,15,98.51,3572.5473659619,120.406828,14,Waypoint,
349600,2021-04-16 09:15:04,40.1849460556716,33.3283107294886,121.062996,,,3573.2035339619,38.713912,0.223694,4.043963384,17,5,15.129,3573.2035339619,121.062996,0.671082,4.2659778268,0,0.223694,-6.263432,241, -7.2, -0.6,0,0,1024,1024,1024,1024,241.1,0,70,3.792,3.82,3.803,3.792,0,0,15,98.51,3573.2035339619,121.062996,14,Waypoint,
349700,2021-04-16 09:15:04,40.1849462930579,33.3283111144115,122.047248,,,3574.1877859619,38.713912,0,4.1467192928,17,5,15.129,3574.1877859619,122.047248,0.671082,4.2659778268,0,0,-6.487126,241, -6.8, -0.9,0,0,1024,1024,1024,1024,241.1,0,70,3.792,3.82,3.803,3.792,0,0,15,98.51,3574.1877859619,122.047248,14,Waypoint,
349800,2021-04-16 09:15:04,40.1849462312111,33.3283111706648,123.0315,,,3575.1720379619,38.713912,0,4.1633203432,17,5,15.129,3575.1720379619,123.0315,0.671082,4.2659778268,0,0,-6.487126,241, -7.1, -0.7,0,0,1024,1024,1024,1024,241.1,0,70,3.792,3.82,3.803,3.792,0,0,15,98.51,3575.1720379619,123.0315,14,Waypoint,
349900,2021-04-16 09:15:04,40.1849460989267,33.3283111816428,124.343836,,,3576.4843739619,38.713912,0,4.1688321544,17,5,15.129,3576.4843739619,124.343836,0.671082,4.2659778268,0,0,-6.487126,241, -6.6, -0.2,0,0,1024,1024,1024,1024,241.1,0,70,3.792,3.82,3.803,3.792,0,0,15,98.51,3576.4843739619,124.343836,14,Waypoint,
350000,2021-04-16 09:15:04,40.184945986244,33.3283110790181,125.000004,,,3577.1405419619,38.713912,0,4.1428150932,17,5,15.129,3577.1405419619,125.000004,0.671082,4.2659778268,0,0,-6.487126,240.9, -5.8, 0,0,0,1024,1024,1024,1024,241.1,0,70,3.792,3.82,3.803,3.792,0,0,15,98.51,3577.1405419619,125.000004,14,Waypoint,
350100,2021-04-16 09:15:04,40.1849458926608,33.3283109015029,125.984256,,,3578.1247939619,38.713912,0,4.0958990812,17,5,15.135,3578.1247939619,125.984256,0.671082,4.2659778268,0,0,-6.487126,240.9, -5.3, -0.5,0,0,1024,1024,1024,1024,241.1,0,70,3.804,3.831,3.811,3.801,0,0,14.536,98.51,3578.1247939619,125.984256,14,Waypoint,
350200,2021-04-16 09:15:05,40.184945570567,33.328310515299,126.640424,,,3578.7809619619,38.713912,0,3.9994423852,17,5,15.135,3578.7809619619,126.640424,0.671082,4.2659778268,0,0,-6.487126,240.9, -5.2, -0.6,0,0,1024,1024,1024,1024,241.1,0,70,3.804,3.831,3.811,3.801,0,0,14.536,98.51,3578.7809619619,126.640424,14,Waypoint,
350300,2021-04-16 09:15:05,40.1849455544162,33.328310392298,127.95276,,,3580.0932979619,38.713912,0.223694,3.9659778172,17,5,15.135,3580.0932979619,127.95276,0.671082,4.2659778268,0.223694,0,-6.487126,240.9, -5.4, -0.5,0,0,1024,1024,1024,1024,241.1,0,70,3.804,3.831,3.811,3.801,0,0,14.536,98.51,3580.0932979619,127.95276,14,Waypoint,
350400,2021-04-16 09:15:05,40.1849456081205,33.3283103338261,128.608928,,,3580.7494659619,38.713912,0.223694,3.94767073,17,5,15.135,3580.7494659619,128.608928,0.671082,4.2659778268,0.223694,0,-6.487126,240.9, -5.9, -0.9,0,0,1024,1024,1024,1024,241.1,0,70,3.804,3.831,3.811,3.801,0,0,14.536,98.51,3580.7494659619,128.608928,14,Waypoint,
350500,2021-04-16 09:15:05,40.1849457054823,33.3283103077456,129.59318,,,3581.7337179619,38.713912,0,3.9368767664,17,5,15.135,3581.7337179619,129.59318,0.671082,4.2659778268,0,0,-6.487126,240.9, -5.9, -1.4,0,0,1024,1024,1024,1024,241.1,0,70,3.804,3.831,3.811,3.801,0,0,14.536,98.51,3581.7337179619,129.59318,14,Waypoint,
350600,2021-04-16 09:15:05,40.1849459260301,33.3283102638577,130.577432,,,3582.7179699619,38.713912,0,3.9177494692,17,5,15.135,3582.7179699619,130.577432,0.671082,4.2659778268,0,0,-6.487126,241, -6, -1.8,0,0,1024,1024,1024,1024,241.1,0,70,3.804,3.831,3.811,3.801,0,0,14.536,98.51,3582.7179699619,130.577432,14,Waypoint,
350700,2021-04-16 09:15:05,40.184945927409,33.3283102250348,131.561684,,,3583.7022219619,38.713912,0,3.9069226972,17,5,15.135,3583.7022219619,131.561684,0.671082,4.2659778268,0,0,-6.487126,241, -6.4, -1.4,0,0,1024,1024,1024,1024,241.1,0,70,3.804,3.831,3.811,3.801,0,0,14.536,98.51,3583.7022219619,131.561684,14,Waypoint,
350800,2021-04-16 09:15:05,40.1849459150203,33.3283101691346,132.545936,,,3584.6864739619,38.713912,0,3.891732408,17,5,15.135,3584.6864739619,132.545936,0.671082,4.2659778268,0,0,-6.487126,240.9, -6.2, -1.1,0,0,1024,1024,1024,1024,241.1,0,70,3.804,3.831,3.811,3.801,0,0,14.536,98.51,3584.6864739619,132.545936,14,Waypoint,
350900,2021-04-16 09:15:05,40.1849458957966,33.3283100902204,133.202104,,,3585.3426419619,38.713912,0,3.8703741396,17,5,15.135,3585.3426419619,133.202104,0.671082,4.2659778268,0,0,-6.487126,240.9, -5.7, -1.4,0,0,1024,1024,1024,1024,241.1,0,70,3.804,3.831,3.811,3.801,0,0,14.536,98.51,3585.3426419619,133.202104,14,Waypoint,
