time(millisecond),datetime(utc),latitude,longitude,height_above_takeoff(feet),height_above_ground_at_drone_location(feet),ground_elevation_at_drone_location(feet),altitude_above_seaLevel(feet),height_sonar(feet),speed(mph),distance(feet),satellites,gpslevel,voltage(v),max_altitude(feet),max_ascent(feet),max_speed(mph),max_distance(feet), xSpeed(mph), ySpeed(mph), zSpeed(mph), compass_heading(degrees), pitch(degrees), roll(degrees),isPhoto,isVideo,rc_elevator,rc_aileron,rc_throttle,rc_rudder,gimbal_heading(degrees),gimbal_pitch(degrees),battery_percent,voltageCell1,voltageCell2,voltageCell3,voltageCell4,voltageCell5,voltageCell6,current(A),battery_temperature(f),altitude(feet),ascent(feet),flycStateRaw,flycState,message
86900,,40.1849547189809,33.3281953191325,0,Available with any HD 360 subscription,Available with any HD 360 subscription,3451.6603466736,0.328084,0,0,14,5,0,3451.6603466736,0,0,0,0,0,0,229.7, -0.7, -0.2,0,0,1024,1024,1024,1024,230.6,-6.9,94,4.211,4.207,4.207,4.205,0,0,0,69.71,3451.6603466736,0,41,Motors_Started,
87000,,40.1849546846427,33.3281953185634,0,,,3451.6603466736,0.328084,0,0.0125292654928,14,5,0,3451.6603466736,0,0,0.0125292654928,0,0,0,229.6, -0.7, -0.2,0,0,1024,1024,1024,1024,230.6,-6.9,94,4.211,4.207,4.207,4.205,0,0,0,69.71,3451.6603466736,0,41,Motors_Started,
87100,,40.1849546533888,33.3281953141039,0,,,3451.6603466736,0.328084,0,0.0239722448616,14,5,0,3451.6603466736,0,0,0.0239722448616,0,0,0,229.6, -0.7, -0.2,0,0,1024,1024,1024,1024,230.6,-6.9,94,4.211,4.207,4.207,4.205,0,0,0,69.71,3451.6603466736,0,41,Motors_Started,
87200,,40.1849545990224,33.3281953153288,0,,,3451.6603466736,0.328084,0,0.04377952896,14,5,0,3451.6603466736,0,0,0.04377952896,0,0,0,229.6, -0.7, -0.2,0,0,1024,1024,1024,1024,230.5,-6.9,94,4.211,4.207,4.207,4.205,0,0,0,69.71,3451.6603466736,0,41,Motors_Started,
87300,,40.1849545534878,33.328195310886,0,,,3451.6603466736,0.328084,0,0.060423886448,14,5,0,3451.6603466736,0,0,0.060423886448,0,0,0,229.6, -0.7, -0.2,0,0,1024,1024,1024,1024,230.5,-6.9,94,4.211,4.207,4.207,4.205,0,0,0,69.71,3451.6603466736,0,41,Motors_Started,
87400,2021-03-21 11:10:11,40.1849545249282,33.3281953126631,0,,,3451.6603466736,0.328084,0,0.070822836912,14,5,0,3451.6603466736,0,0,0.070822836912,0,0,0,229.6, -0.7, -0.2,0,0,1024,1024,1024,1024,230.5,-6.9,94,4.211,4.207,4.207,4.205,0,0,0,69.71,3451.6603466736,0,41,Motors_Started,
87500,2021-03-21 11:10:11,40.1849545011326,33.3281953092631,0,,,3451.6603466736,0.328084,0,0.079529530104,14,5,0,3451.6603466736,0,0,0.079529530104,0,0,0,229.5, -0.7, -0.2,0,0,1024,1024,1024,1024,230.5,-6.9,94,4.211,4.207,4.207,4.205,0,0,0,69.71,3451.6603466736,0,41,Motors_Started,
87600,2021-03-21 11:10:11,40.1849544587808,33.328195311071,0,,,3451.6603466736,0.328084,0,0.094960304876,14,5,0,3451.6603466736,0,0,0.094960304876,0,0,0,229.5, -0.7, -0.2,0,0,1024,1024,1024,1024,230.5,-6.9,94,4.211,4.207,4.207,4.205,0,0,0,69.71,3451.6603466736,0,41,Motors_Started,
87700,2021-03-21 11:10:11,40.1849544197999,33.3281953081195,0,,,3451.6603466736,0.328084,0,0.109199150476,14,5,0,3451.6603466736,0,0,0.109199150476,0,0,0,229.5, -0.7, -0.2,0,0,1024,1024,1024,1024,230.4,-6.9,94,4.211,4.207,4.207,4.205,0,0,0,69.71,3451.6603466736,0,41,Motors_Started,
87900,2021-03-21 11:10:11,40.1849543797158,33.3281953086212,0,,,3451.6603466736,0.328084,0,0.123815292676,14,5,0,3451.6603466736,0,0,0.123815292676,0,0,0,229.5, -0.7, -0.3,0,0,1024,1024,1024,1024,230.4,-6.9,94,4.211,4.207,4.207,4.205,0,0,0,69.71,3451.6603466736,0,41,Motors_Started,
88000,2021-03-21 11:10:11,40.1849543428348,33.3281952768857,0,,,3451.6603466736,0.328084,0,0.137740818056,14,5,0,3451.6603466736,0,0,0.137740818056,0,0,0,229.5, -0.7, -0.2,0,0,1024,1024,1024,1024,230.4,-6.9,94,4.211,4.207,4.207,4.205,0,0,0,69.71,3451.6603466736,0,41,Motors_Started,
88100,2021-03-21 11:10:11,40.1849543067118,33.3281952455733,0,,,3451.6603466736,0.328084,0,0.151807091472,14,5,0,3451.6603466736,0,0,0.151807091472,0,0,0,229.4, -0.7, -0.2,0,0,1024,1024,1024,1024,230.4,-6.9,94,4.211,4.207,4.207,4.205,0,0,0,69.71,3451.6603466736,0,41,Motors_Started,
88200,2021-03-21 11:10:11,40.1849542903297,33.3281951880894,0,,,3451.6603466736,0.328084,0,0.16060203926,14,5,0,3451.6603466736,0,0,0.16060203926,0,0,0,229.4, -0.7, -0.2,0,0,1024,1024,1024,1024,230.4,-6.9,94,4.211,4.207,4.207,4.205,0,0,0,69.71,3451.6603466736,0,41,Motors_Started,
88300,2021-03-21 11:10:12,40.1849542739728,33.3281951377476,0,,,3451.6603466736,0.328084,0,0.170050530376,14,5,0,3451.6603466736,0,0,0.170050530376,0,0,0,229.3, -0.7, -0.2,0,0,1024,1024,1024,1024,230.4,-6.9,94,4.211,4.207,4.207,4.205,0,0,0,69.71,3451.6603466736,0,41,Motors_Started,
88400,2021-03-21 11:10:12,40.1849542769455,33.3281951034697,0,,,3451.6603466736,0.328084,0,0.172114834904,15,5,0,3451.6603466736,0,0,0.172114834904,0,0,0,229.4, -0.7, -0.2,0,0,1024,1024,1024,1024,230.4,-6.9,94,4.211,4.207,4.207,4.205,0,0,0,69.71,3451.6603466736,0,11,AutoTakeoff,
88500,2021-03-21 11:10:12,40.1849542745533,33.3281950743297,0,,,3451.6603466736,0.328084,0,0.175921265472,15,5,0,3451.6603466736,0,0,0.175921265472,0,0,0,229.3, -0.7, -0.2,0,0,1024,1024,1024,1024,230.4,-6.9,94,4.211,4.207,4.207,4.205,0,0,0,69.71,3451.6603466736,0,11,AutoTakeoff,
88600,2021-03-21 11:10:12,40.1849543223514,33.3281950278868,0,,,3451.6603466736,0.328084,0,0.16592520216,15,5,0,3451.6603466736,0,0,0.175921265472,0,0,0,229.3, -0.7, -0.3,0,0,1024,1024,1024,1024,230.3,-6.9,94,4.211,4.207,4.207,4.205,0,0,0,69.71,3451.6603466736,0,11,AutoTakeoff,
88700,2021-03-21 11:10:12,40.1849543571749,33.3281949834284,0,,,3451.6603466736,0.328084,0,0.161805123288,15,5,0,3451.6603466736,0,0,0.175921265472,0,0,0,229.2, -0.7, -0.3,0,0,1024,1024,1024,1024,230.3,-6.9,94,4.211,4.207,4.207,4.205,0,0,0,69.71,3451.6603466736,0,11,AutoTakeoff,
88800,2021-03-21 11:10:12,40.1849544343924,33.3281949246411,0,,,3451.6603466736,0.328084,0,0.151233928724,15,5,16.921,3451.6603466736,0,0,0.175921265472,0,0,0,229.2, -0.7, -0.2,0,0,1024,1024,1024,1024,230.3,-6.9,94,4.211,4.207,4.207,4.205,0,0,1.568,69.71,3451.6603466736,0,11,AutoTakeoff,Setting new Return-To-Home altitude to 351m (1152 ft). Data Recorder File Index is 555. Setting new Maximum Flight Altitude to 500m (1640 ft)
88900,2021-03-21 11:10:12,40.1849544918431,33.3281948706722,0,,,3451.6603466736,0.328084,0,8.9723428068,15,5,16.921,3451.6603466736,0,0,8.9723428068,0,0,0,229.1, -0.7, -0.2,0,0,1024,1024,1024,1024,230.3,-6.9,94,4.211,4.207,4.207,4.205,0,0,1.568,69.71,3451.6603466736,0,11,AutoTakeoff,
89000,2021-03-21 11:10:12,40.1849545438874,33.3281948427711,0,,,3451.6603466736,0.328084,0,8.9875002876,15,5,16.921,3451.6603466736,0,0,8.9875002876,0,0,0,229.1, -0.7, 0,0,0,1024,1024,1024,1024,230.3,-6.9,94,4.211,4.207,4.207,4.205,0,0,1.568,69.71,3451.6603466736,0,11,AutoTakeoff,
89100,2021-03-21 11:10:12,40.1849545786514,33.3281948029124,0,,,3451.6603466736,0.328084,0,9.0029858524,15,5,16.921,3451.6603466736,0,0,9.0029858524,0,0,0,228.9, -0.3, 0.5,0,0,1024,1024,1024,1024,230.2,-6.9,94,4.211,4.207,4.207,4.205,0,0,1.568,69.71,3451.6603466736,0,11,AutoTakeoff,
89200,2021-03-21 11:10:12,40.1849546340755,33.3281947587652,0,,,3451.6603466736,0.328084,0,9.022802126,15,5,16.921,3451.6603466736,0,0,9.022802126,0,0,-0.223694,228.7, 0, 1.2,0,0,1024,1024,1024,1024,230.2,-6.9,94,4.211,4.207,4.207,4.205,0,0,1.568,69.71,3451.6603466736,0,11,AutoTakeoff,
89300,2021-03-21 11:10:13,40.1849546912168,33.3281946684694,0,,,3451.6603466736,0.328084,0.223694,9.0544950404,15,5,16.921,3451.6603466736,0,0.223694,9.0544950404,0,-0.223694,-0.671082,228.6, 0.1, 0.4,0,0,1024,1024,1024,1024,230.2,-6.9,94,4.211,4.207,4.207,4.205,0,0,1.568,69.71,3451.6603466736,0,11,AutoTakeoff,
89400,2021-03-21 11:10:13,40.1849547800085,33.328194503796,0,,,3451.6603466736,0.656168,0.223694,9.109908428,15,5,16.921,3451.6603466736,0,0.223694,9.109908428,0,-0.223694,-1.11847,228.6, 0.1, -0.3,0,0,1024,1024,1024,1024,230.1,-6.9,94,4.211,4.207,4.207,4.205,0,0,1.568,69.71,3451.6603466736,0,11,AutoTakeoff,
89600,2021-03-21 11:10:13,40.1849548585158,33.3281941357678,0.328084,,,3451.9884306736,0.984252,0.447388,9.2147968828,14,5,16.921,3451.9884306736,0.328084,0.447388,9.2147968828,0,-0.447388,-1.342164,228.8, 0.9, -0.8,0,0,1024,1024,1024,1024,230.1,-6.9,94,4.211,4.207,4.207,4.205,0,0,1.568,69.71,3451.9884306736,0.328084,11,AutoTakeoff,
89700,2021-03-21 11:10:13,40.1849548595262,33.3281939471399,0.656168,,,3452.3165146736,1.312336,0.447388,9.2624018712,14,5,16.921,3452.3165146736,0.656168,0.447388,9.2624018712,0,-0.447388,-1.342164,228.8, 1.4, -1.1,0,0,1024,1024,1024,1024,230.1,-6.9,94,4.211,4.207,4.207,4.205,0,0,1.568,69.71,3452.3165146736,0.656168,11,AutoTakeoff,
89800,2021-03-21 11:10:13,40.1849549328958,33.328193734894,0.656168,,,3452.3165146736,1.312336,0.223694,9.3273296948,14,5,16.323,3452.3165146736,0.656168,0.447388,9.3273296948,0,-0.223694,-1.11847,228.8, 2, -1.4,0,0,1024,1024,1024,1024,230,-6.9,94,4.149,4.146,4.146,4.141,0,0,4.632,69.71,3452.3165146736,0.656168,11,AutoTakeoff,
89900,2021-03-21 11:10:13,40.1849549865538,33.3281935443909,0.984252,,,3452.6445986736,1.64042,0.223694,9.383694526,14,5,16.323,3452.6445986736,0.984252,0.447388,9.383694526,0,-0.223694,-0.894776,228.8, 2.3, -1.6,0,0,1024,1024,1024,1024,230,-6.9,94,4.149,4.146,4.146,4.141,0,0,4.632,69.71,3452.6445986736,0.984252,11,AutoTakeoff,
90000,2021-03-21 11:10:13,40.1849550593013,33.328193294753,0.984252,,,3452.6445986736,1.64042,0,9.4579399352,12,4,16.323,3452.6445986736,0.984252,0.447388,9.4579399352,0,0,-0.894776,228.8, 2.3, -1.3,0,0,1024,1024,1024,1024,230,-6.9,94,4.149,4.146,4.146,4.141,0,0,4.632,69.71,3452.6445986736,0.984252,11,AutoTakeoff,
90100,2021-03-21 11:10:13,40.1849551076807,33.3281930939013,1.312336,,,3452.9726826736,1.968504,0,9.5161092284,12,4,16.323,3452.9726826736,1.312336,0.447388,9.5161092284,0,0,-0.894776,228.8, 2, -1.1,0,0,1024,1024,1024,1024,230,-6.9,94,4.149,4.146,4.146,4.141,0,0,4.632,69.71,3452.9726826736,1.312336,11,AutoTakeoff,
90200,2021-03-21 11:10:13,40.1849550735909,33.328193011423,1.312336,,,3452.9726826736,1.968504,0,9.5315947932,13,4,16.323,3452.9726826736,1.312336,0.447388,9.5315947932,0,0,-0.894776,228.8, 1.9, -1,0,0,1024,1024,1024,1024,230,-6.9,94,4.149,4.146,4.146,4.141,0,0,4.632,69.71,3452.9726826736,1.312336,11,AutoTakeoff,
90300,2021-03-21 11:10:14,40.1849550406393,33.3281929422534,1.64042,,,3453.3007666736,2.296588,0,9.54396356,13,4,16.323,3453.3007666736,1.64042,0.447388,9.54396356,0,0,-0.894776,228.8, 1.9, -0.9,0,0,1024,1024,1024,1024,229.9,-6.9,94,4.149,4.146,4.146,4.141,0,0,4.632,69.71,3453.3007666736,1.64042,11,AutoTakeoff,
90400,2021-03-21 11:10:14,40.1849551524841,33.3281930229742,1.64042,,,3453.3007666736,2.296588,0,9.5409451872,14,4,16.323,3453.3007666736,1.64042,0.447388,9.54396356,0,0,-0.894776,228.8, 1.7, -0.6,0,0,1024,1024,1024,1024,229.9,-6.9,94,4.149,4.146,4.146,4.141,0,0,4.632,69.71,3453.3007666736,1.64042,11,AutoTakeoff,
90500,2021-03-21 11:10:14,40.1849552527669,33.3281930820782,1.968504,,,3453.6288506736,2.624672,0,9.5417982056,14,4,16.323,3453.6288506736,1.968504,0.447388,9.54396356,0,0,-1.11847,228.9, 1.5, -0.2,0,0,1024,1024,1024,1024,229.9,-6.9,94,4.149,4.146,4.146,4.141,0,0,4.632,69.71,3453.6288506736,1.968504,11,AutoTakeoff,
90600,2021-03-21 11:10:14,40.1849554893294,33.3281932682702,1.968504,,,3453.6288506736,2.624672,0,9.5327430872,14,4,16.323,3453.6288506736,1.968504,0.447388,9.54396356,0,0,-1.11847,228.9, 1.7, -0.1,0,0,1024,1024,1024,1024,229.9,-6.9,94,4.149,4.146,4.146,4.141,0,0,4.632,69.71,3453.6288506736,1.968504,11,AutoTakeoff,
90700,2021-03-21 11:10:14,40.184955684018,33.3281933984724,2.296588,,,3453.9569346736,2.952756,0,9.531824452,14,4,16.323,3453.9569346736,2.296588,0.447388,9.54396356,0,0,-1.11847,228.9, 1.5, -0.1,0,0,1024,1024,1024,1024,229.9,-6.9,94,4.149,4.146,4.146,4.141,0,0,4.632,69.71,3453.9569346736,2.296588,11,AutoTakeoff,
90800,2021-03-21 11:10:14,40.1849558466955,33.328193569147,2.296588,,,3453.9569346736,3.28084,0,9.5162076536,14,4,16.214,3453.9569346736,2.296588,0.447388,9.54396356,0,0,-1.11847,228.9, 1.5, -0.3,0,0,1024,1024,1024,1024,229.9,-6.9,94,4.077,4.08,4.077,4.069,0,0,11.502,69.71,3453.9569346736,2.296588,11,AutoTakeoff,
90900,2021-03-21 11:10:14,40.184955973053,33.3281936895274,2.624672,,,3454.2850186736,3.28084,0,9.5074806192,14,4,16.214,3454.2850186736,2.624672,0.447388,9.54396356,0,0,-1.11847,228.9, 1.5, -0.1,0,0,1024,1024,1024,1024,229.8,-6.9,94,4.077,4.08,4.077,4.069,0,0,11.502,69.71,3454.2850186736,2.624672,11,AutoTakeoff,
91000,2021-03-21 11:10:14,40.184956042143,33.3281938274406,2.624672,,,3454.2850186736,3.608924,0,9.485072482,15,4,16.214,3454.2850186736,2.624672,0.447388,9.54396356,0,0,-1.11847,228.9, 1.7, 0,0,0,1024,1024,1024,1024,229.8,-6.9,94,4.077,4.08,4.077,4.069,0,0,11.502,69.71,3454.2850186736,2.624672,11,AutoTakeoff,
91100,2021-03-21 11:10:14,40.1849561201804,33.3281939336463,2.952756,,,3454.6131026736,3.608924,0,9.4721459724,15,4,16.214,3454.6131026736,2.952756,0.447388,9.54396356,0,0,-0.894776,229, 1.7, -0.3,0,0,1024,1024,1024,1024,229.8,-6.9,94,4.077,4.08,4.077,4.069,0,0,11.502,69.71,3454.6131026736,2.952756,14,Waypoint,
91200,2021-03-21 11:10:14,40.1849561789608,33.3281940284633,2.952756,,,3454.6131026736,3.937008,0,9.4588913788,15,4,16.214,3454.6131026736,2.952756,0.447388,9.54396356,0,0,-0.894776,228.9, 0.9, -0.5,0,0,1024,1024,1024,1024,229.8,-6.9,94,4.077,4.08,4.077,4.069,0,0,11.502,69.71,3454.6131026736,2.952756,14,Waypoint,
91300,2021-03-21 11:10:15,40.1849562418944,33.3281941225796,3.28084,,,3454.9411866736,3.937008,0,9.4466210372,15,4,16.214,3454.9411866736,3.28084,0.447388,9.54396356,0,0,-0.894776,228.8, 0.2, -0.4,0,0,1024,1024,1024,1024,229.8,-6.9,94,4.077,4.08,4.077,4.069,0,0,11.502,69.71,3454.9411866736,3.28084,14,Waypoint,
91400,2021-03-21 11:10:15,40.1849561517942,33.3281942167744,3.28084,,,3454.9411866736,4.265092,0,9.4079399336,15,4,16.214,3454.9411866736,3.28084,0.447388,9.54396356,0,0,-0.894776,228.8, 0.7, -0.3,0,0,1024,1024,1024,1024,229.8,-6.9,94,4.077,4.08,4.077,4.069,0,0,11.502,69.71,3454.9411866736,3.28084,14,Waypoint,
91500,2021-03-21 11:10:15,40.1849560785729,33.3281943212534,3.608924,,,3455.2692706736,4.265092,0,9.3696525308,15,4,16.214,3455.2692706736,3.608924,0.447388,9.54396356,0,0,-0.894776,228.8, 0.8, 0.2,0,0,1024,1024,1024,1024,229.8,-6.9,94,4.077,4.08,4.077,4.069,0,0,11.502,69.71,3455.2692706736,3.608924,14,Waypoint,
91600,2021-03-21 11:10:15,40.1849559656476,33.3281943815319,3.608924,,,3455.2692706736,4.593176,0,9.3354333696,15,4,16.214,3455.2692706736,3.608924,0.447388,9.54396356,0,0,-1.342164,228.8, 1, 0.6,0,0,1024,1024,1024,1024,229.7,-6.9,94,4.077,4.08,4.077,4.069,0,0,11.502,69.71,3455.2692706736,3.608924,14,Waypoint,
91700,2021-03-21 11:10:15,40.1849559092864,33.3281944520778,3.937008,,,3455.5973546736,4.593176,0,9.3084320564,15,4,16.214,3455.5973546736,3.937008,0.447388,9.54396356,0,0,-1.565858,228.8, 0.6, 0.8,0,0,1024,1024,1024,1024,229.7,-6.9,94,4.077,4.08,4.077,4.069,0,0,11.502,69.71,3455.5973546736,3.937008,14,Waypoint,
91800,2021-03-21 11:10:15,40.1849558272323,33.3281944508781,4.265092,,,3455.9254386736,4.92126,0,9.2947509536,15,4,16.241,3455.9254386736,4.265092,0.447388,9.54396356,0,0,-2.013246,228.7, 0.5, 0.5,0,0,1024,1024,1024,1024,229.7,-6.9,94,4.077,4.08,4.077,4.069,0,0,11.502,69.71,3455.9254386736,4.265092,14,Waypoint,
91900,2021-03-21 11:10:15,40.1849557837146,33.3281944560273,4.593176,,,3456.2535226736,5.249344,0,9.2861223444,15,4,16.241,3456.2535226736,4.593176,0.447388,9.54396356,0,0,-2.460634,228.9, 0.8, 0.6,0,0,1024,1024,1024,1024,229.7,-6.9,94,4.077,4.08,4.077,4.069,0,0,11.502,69.71,3456.2535226736,4.593176,14,Waypoint,
92000,2021-03-21 11:10:15,40.1849557448656,33.3281945436098,4.92126,,,3456.5816066736,5.577428,0,9.2579071204,15,4,16.241,3456.5816066736,4.92126,0.447388,9.54396356,0,0,-2.908022,228.8, 0.8, 0.3,0,0,1024,1024,1024,1024,229.7,-6.9,94,4.077,4.08,4.077,4.069,0,0,11.502,69.71,3456.5816066736,4.92126,14,Waypoint,
92100,2021-03-21 11:10:15,40.1849557366159,33.328194632008,5.577428,,,3457.2377746736,6.233596,0,9.2346787732,15,4,16.241,3457.2377746736,5.577428,0.447388,9.54396356,0,0,-3.579104,228.7, 0.1, 0.2,0,0,1024,1024,1024,1024,229.7,-6.9,94,4.077,4.08,4.077,4.069,0,0,11.502,69.71,3457.2377746736,5.577428,14,Waypoint,
92200,2021-03-21 11:10:15,40.1849556700687,33.3281946592251,5.905512,,,3457.5658586736,6.889764,0,9.21669977,14,4,16.241,3457.5658586736,5.905512,0.447388,9.54396356,0,0,-4.026492,228.6, -1, 1.1,0,0,1024,1024,1024,1024,229.7,-6.9,94,4.077,4.08,4.077,4.069,0,0,11.502,69.71,3457.5658586736,5.905512,14,Waypoint,
92300,2021-03-21 11:10:16,40.1849556004609,33.3281946183518,6.56168,,,3458.2220266736,7.217848,0.223694,9.2150921584,14,4,16.241,3458.2220266736,6.56168,0.447388,9.54396356,0,-0.223694,-4.697574,228.6, 0.2, 1.1,0,0,1024,1024,1024,1024,229.6,-6.9,94,4.077,4.08,4.077,4.069,0,0,11.502,69.71,3458.2220266736,6.56168,14,Waypoint,
92500,2021-03-21 11:10:16,40.1849554033785,33.328194412976,8.2021,,,3459.8624466736,8.858268,0,9.2332352036,14,4,16.241,3459.8624466736,8.2021,0.447388,9.54396356,0,0,-5.59235,228.8, 1.4, 0.3,0,0,1024,1024,1024,1024,229.6,-6.9,94,4.077,4.08,4.077,4.069,0,0,11.502,69.71,3459.8624466736,8.2021,14,Waypoint,
92600,2021-03-21 11:10:16,40.1849553106166,33.3281943316918,9.186352,,,3460.8466986736,9.514436,0,9.2382220804,14,4,16.241,3460.8466986736,9.186352,0.447388,9.54396356,0,0,-6.039738,228.7, 0.9, 0.3,0,0,1024,1024,1024,1024,229.6,-6.9,94,4.077,4.08,4.077,4.069,0,0,11.502,69.71,3460.8466986736,9.186352,14,Waypoint,
92700,2021-03-21 11:10:16,40.1849552326964,33.3281942400393,10.170604,,,3461.8309506736,10.498688,0.223694,9.2484254928,14,4,16.241,3461.8309506736,10.170604,0.447388,9.54396356,0,-0.223694,-6.487126,228.6, 1.8, -0.1,0,0,1024,1024,1024,1024,229.6,-6.9,94,4.077,4.08,4.077,4.069,0,0,11.502,69.71,3461.8309506736,10.170604,14,Waypoint,
92800,2021-03-21 11:10:16,40.1849553623572,33.3281942913791,11.154856,,,3462.8152026736,11.48294,0,9.2567588264,14,4,15.969,3462.8152026736,11.154856,0.447388,9.54396356,0,0,-6.934514,228.8, 1.8, -0.7,0,0,1024,1024,1024,1024,229.6,-6.9,94,4.052,4.059,4.037,4.026,0,0,12.236,69.71,3462.8152026736,11.154856,14,Waypoint,
92900,2021-03-21 11:10:16,40.1849554458532,33.3281943554837,12.139108,,,3463.7994546736,12.467192,0,9.2545278552,14,4,15.969,3463.7994546736,12.139108,0.447388,9.54396356,0,0,-7.158208,228.8, 1.6, 0,0,0,1024,1024,1024,1024,229.6,-6.9,94,4.052,4.059,4.037,4.026,0,0,12.236,69.71,3463.7994546736,12.139108,14,Waypoint,
93000,2021-03-21 11:10:16,40.1849554815755,33.3281944211271,13.12336,,,3464.7837066736,13.779528,0,9.2441275924,15,4,15.969,3464.7837066736,13.12336,0.447388,9.54396356,0,0,-7.158208,228.8, 1.1, 0.6,0,0,1024,1024,1024,1024,229.6,-6.9,94,4.052,4.059,4.037,4.026,0,0,12.236,69.71,3464.7837066736,13.12336,14,Waypoint,
93100,2021-03-21 11:10:16,40.1849554822082,33.3281944699834,14.107612,,,3465.7679586736,14.76378,0,9.2320869096,15,4,15.969,3465.7679586736,14.107612,0.447388,9.54396356,0,0,-7.158208,228.8, 0.8, 1.1,0,0,1024,1024,1024,1024,229.6,-6.9,94,4.052,4.059,4.037,4.026,0,0,12.236,69.71,3465.7679586736,14.107612,14,Waypoint,
93200,2021-03-21 11:10:16,40.1849555941963,33.328194432056,15.091864,,,3466.7522106736,15.748032,0,9.2601709,15,4,15.969,3466.7522106736,15.091864,0.447388,9.54396356,0,0,-7.158208,228.9, 1.7, 0.5,0,0,1024,1024,1024,1024,229.5,-6.9,94,4.052,4.059,4.037,4.026,0,0,12.236,69.71,3466.7522106736,15.091864,14,Waypoint,
93300,2021-03-21 11:10:17,40.1849556628735,33.3281943877182,16.4042,,,3468.0645466736,16.732284,0,9.282644654,15,4,15.969,3468.0645466736,16.4042,0.447388,9.54396356,0,0,-7.158208,228.9, 2, 0.3,0,0,1024,1024,1024,1024,229.5,-6.9,94,4.052,4.059,4.037,4.026,0,0,12.236,69.71,3468.0645466736,16.4042,14,Waypoint,
93400,2021-03-21 11:10:17,40.1849557679138,33.3281943192773,17.388452,,,3469.0487986736,17.716536,0,9.3172247076,15,4,15.969,3469.0487986736,17.388452,0.447388,9.54396356,0,0,-6.934514,228.9, 1.1, 0.4,0,0,1024,1024,1024,1024,229.5,-6.9,94,4.052,4.059,4.037,4.026,0,0,12.236,69.71,3469.0487986736,17.388452,14,Waypoint,
93500,2021-03-21 11:10:17,40.1849558132318,33.3281942621045,18.372704,,,3470.0330506736,19.028872,0,9.3390094852,15,4,15.969,3470.0330506736,18.372704,0.447388,9.54396356,0,0,-6.934514,228.9, 1.5, 0.3,0,0,1024,1024,1024,1024,229.5,-6.9,94,4.052,4.059,4.037,4.026,0,0,12.236,69.71,3470.0330506736,18.372704,14,Waypoint,
93600,2021-03-21 11:10:17,40.1849558055708,33.3281941802093,19.356956,,,3471.0173026736,20.013124,0,9.357939932,15,4,15.969,3471.0173026736,19.356956,0.447388,9.54396356,0,0,-6.934514,228.9, 2.3, 0.7,0,0,1024,1024,1024,1024,229.5,-6.9,94,4.052,4.059,4.037,4.026,0,0,12.236,69.71,3471.0173026736,19.356956,14,Waypoint,
93700,2021-03-21 11:10:17,40.1849557729897,33.3281941215902,20.341208,,,3472.0015546736,20.997376,0,9.3669950504,15,4,15.969,3472.0015546736,20.341208,0.447388,9.54396356,0,0,-6.71082,228.8, 2, 1,0,0,1024,1024,1024,1024,229.5,-6.9,94,4.052,4.059,4.037,4.026,0,0,12.236,69.71,3472.0015546736,20.341208,14,Waypoint,
93800,2021-03-21 11:10:17,40.1849556545,33.3281940533175,21.32546,,,3472.9858066736,21.981628,0,9.3641079112,15,4,15.996,3472.9858066736,21.32546,0.447388,9.54396356,0,0,-6.71082,228.9, 1.3, 1,0,0,1024,1024,1024,1024,229.5,-6.9,94,3.999,4.01,4.004,3.989,0,0,16.428,69.71,3472.9858066736,21.32546,14,Waypoint,
93900,2021-03-21 11:10:17,40.184955534022,33.3281939795258,22.309712,,,3473.9700586736,22.96588,0,9.362533108,15,4,15.996,3473.9700586736,22.309712,0.447388,9.54396356,0,0,-6.71082,228.8, 2, 0.4,0,0,1024,1024,1024,1024,229.5,-6.9,94,3.999,4.01,4.004,3.989,0,0,16.428,69.71,3473.9700586736,22.309712,14,Waypoint,
94000,2021-03-21 11:10:17,40.1849553745737,33.3281938664976,23.293964,,,3474.9543106736,23.950132,0.223694,9.3646984624,15,4,15.996,3474.9543106736,23.293964,0.447388,9.54396356,-0.223694,0,-6.71082,228.9, 2.8, 0.4,0,0,1024,1024,1024,1024,229.5,-6.9,94,3.999,4.01,4.004,3.989,0,0,16.428,69.71,3474.9543106736,23.293964,14,Waypoint,
94100,2021-03-21 11:10:17,40.1849552297627,33.3281938038506,24.6063,,,3476.2666466736,24.934384,0.223694,9.3570212968,15,4,15.996,3476.2666466736,24.6063,0.447388,9.54396356,-0.223694,0,-6.71082,229, 2.6, 1.2,0,0,1024,1024,1024,1024,229.5,-6.9,94,3.999,4.01,4.004,3.989,0,0,16.428,69.71,3476.2666466736,24.6063,14,Waypoint,
94200,2021-03-21 11:10:17,40.1849550470831,33.3281937274716,25.590552,,,3477.2508986736,26.24672,0,9.3471459684,14,4,15.996,3477.2508986736,25.590552,0.447388,9.54396356,0,0,-6.934514,228.8, 2.3, 1.9,0,0,1024,1024,1024,1024,229.5,-6.9,94,3.999,4.01,4.004,3.989,0,0,16.428,69.71,3477.2508986736,25.590552,14,Waypoint,
94300,2021-03-21 11:10:18,40.184954894103,33.3281936690627,26.574804,,,3478.2351506736,27.230972,0,9.3378611912,14,4,15.996,3478.2351506736,26.574804,0.447388,9.54396356,0,0,-6.934514,228.9, 1.9, 2.2,0,0,1024,1024,1024,1024,229.5,-6.9,94,3.999,4.01,4.004,3.989,0,0,16.428,69.71,3478.2351506736,26.574804,14,Waypoint,
94400,2021-03-21 11:10:18,40.1849547262723,33.3281935862145,27.559056,,,3479.2194026736,28.215224,0,9.332841506,15,4,15.996,3479.2194026736,27.559056,0.447388,9.54396356,0,0,-6.934514,229, 1.8, 1.7,0,0,1024,1024,1024,1024,229.5,-6.9,94,3.999,4.01,4.004,3.989,0,0,16.428,69.71,3479.2194026736,27.559056,14,Waypoint,
94500,2021-03-21 11:10:18,40.1849545808775,33.3281935052947,28.543308,,,3480.2036546736,29.199476,0,9.3311682776,15,4,15.996,3480.2036546736,28.543308,0.447388,9.54396356,0,0,-6.934514,229, 2.5, 1.6,0,0,1024,1024,1024,1024,229.5,-6.9,94,3.999,4.01,4.004,3.989,0,0,16.428,69.71,3480.2036546736,28.543308,14,Waypoint,
94600,2021-03-21 11:10:18,40.184954408584,33.328193413219,29.52756,,,3481.1879066736,30.183728,0,9.3286748392,15,4,15.996,3481.1879066736,29.52756,0.447388,9.54396356,0,0,-6.934514,228.9, 3.1, 1.6,0,0,1024,1024,1024,1024,229.5,-6.9,94,3.999,4.01,4.004,3.989,0,0,16.428,69.71,3481.1879066736,29.52756,14,Waypoint,
94700,2021-03-21 11:10:18,40.1849542690614,33.3281933471158,30.511812,,,3482.1721586736,31.16798,0,9.3248690648,15,4,15.996,3482.1721586736,30.511812,0.447388,9.54396356,0,0,-6.934514,228.9, 3.1, 1.5,0,0,1024,1024,1024,1024,229.5,-6.9,94,3.999,4.01,4.004,3.989,0,0,16.428,69.71,3482.1721586736,30.511812,14,Waypoint,
94800,2021-03-21 11:10:18,40.1849541214641,33.3281932993023,31.824148,,,3483.4844946736,32.152232,0,9.3155186708,15,4,16.023,3483.4844946736,31.824148,0.447388,9.54396356,0,0,-6.71082,229, 2.3, 1.8,0,0,1024,1024,1024,1024,229.4,-6.9,94,4.016,4.024,4.024,4.014,0,0,14.148,69.71,3483.4844946736,31.824148,14,Waypoint,
94900,2021-03-21 11:10:18,40.1849539943787,33.3281932527781,32.8084,,,3484.4687466736,33.136484,0,9.3091210328,15,4,16.023,3484.4687466736,32.8084,0.447388,9.54396356,0,0,-6.71082,229, 3, 1.7,0,0,1024,1024,1024,1024,229.4,-6.9,94,4.016,4.024,4.024,4.014,0,0,14.148,69.71,3484.4687466736,32.8084,14,Waypoint,
95000,2021-03-21 11:10:18,40.1849539196738,33.3281932690719,33.792652,,,3485.4529986736,34.120736,0,9.2942588276,14,4,16.023,3485.4529986736,33.792652,0.447388,9.54396356,0,0,-6.71082,229, 3.3, 1.7,0,0,1024,1024,1024,1024,229.4,-6.9,94,4.016,4.024,4.024,4.014,0,0,14.148,69.71,3485.4529986736,33.792652,14,Waypoint,
95100,2021-03-21 11:10:18,40.1849538646577,33.3281933038711,34.776904,,,3486.4372506736,35.104988,0,9.2774937352,14,4,16.023,3486.4372506736,34.776904,0.447388,9.54396356,0,0,-6.71082,229, 2.4, 1.8,0,0,1024,1024,1024,1024,229.4,-6.9,94,4.016,4.024,4.024,4.014,0,0,14.148,69.71,3486.4372506736,34.776904,14,Waypoint,
95200,2021-03-21 11:10:18,40.1849538404859,33.3281933880592,35.761156,,,3487.4215026736,36.08924,0,9.252460926,14,4,16.023,3487.4215026736,35.761156,0.447388,9.54396356,0,0,-6.71082,229, 3.1, 1.6,0,0,1024,1024,1024,1024,229.4,-6.9,94,4.016,4.024,4.024,4.014,0,0,14.148,69.71,3487.4215026736,35.761156,14,Waypoint,
95300,2021-03-21 11:10:19,40.1849538154485,33.3281934598048,36.745408,,,3488.4057546736,36.745408,0,9.230479298,14,4,16.023,3488.4057546736,36.745408,0.447388,9.54396356,0,0,-6.71082,229, 3.5, 1.9,0,0,1024,1024,1024,1024,229.4,-6.9,94,4.016,4.024,4.024,4.014,0,0,14.148,69.71,3488.4057546736,36.745408,14,Waypoint,
95400,2021-03-21 11:10:19,40.1849537813196,33.3281935513227,37.72966,,,3489.3900066736,37.72966,0,9.2021328404,14,5,16.023,3489.3900066736,37.72966,0.447388,9.54396356,0,0,-6.71082,229, 3, 1.9,0,0,1024,1024,1024,1024,229.4,-6.9,94,4.016,4.024,4.024,4.014,0,0,14.148,69.71,3489.3900066736,37.72966,14,Waypoint,
95500,2021-03-21 11:10:19,40.1849537552401,33.3281936316735,38.713912,,,3490.3742586736,38.385828,0,9.1777890076,14,5,16.023,3490.3742586736,38.713912,0.447388,9.54396356,0,0,-6.71082,229, 2.6, 1.7,0,0,1024,1024,1024,1024,229.4,-6.9,94,4.016,4.024,4.024,4.014,0,0,14.148,69.71,3490.3742586736,38.713912,14,Waypoint,
95600,2021-03-21 11:10:19,40.1849536894452,33.3281937297084,39.698164,,,3491.3585106736,39.37008,0,9.1433073792,15,5,16.023,3491.3585106736,39.698164,0.447388,9.54396356,0,0,-6.71082,229, 2.5, 2.2,0,0,1024,1024,1024,1024,229.4,-6.9,94,4.016,4.024,4.024,4.014,0,0,14.148,69.71,3491.3585106736,39.698164,14,Waypoint,
95700,2021-03-21 11:10:19,40.184953635135,33.328193809151,40.682416,,,3492.3427626736,40.354332,0,9.1151905804,15,5,16.023,3492.3427626736,40.682416,0.447388,9.54396356,0,0,-6.71082,229, 3.2, 2,0,0,1024,1024,1024,1024,229.4,-6.9,94,4.016,4.024,4.024,4.014,0,0,14.148,69.71,3492.3427626736,40.682416,14,Waypoint,
95800,2021-03-21 11:10:19,40.1849535775223,33.3281939226165,41.666668,,,3493.3270146736,41.338584,0,9.077920238,15,5,15.996,3493.3270146736,41.666668,0.447388,9.54396356,0,0,-6.71082,229, 2.5, 2,0,0,1024,1024,1024,1024,229.4,-6.9,94,4.016,4.024,4.024,4.014,0,0,14.148,69.71,3493.3270146736,41.666668,14,Waypoint,
95900,2021-03-21 11:10:19,40.184953538986,33.3281940240766,42.979004,,,3494.6393506736,42.322836,0,9.0463913656,15,5,15.996,3494.6393506736,42.979004,0.447388,9.54396356,0,0,-6.934514,229.1, 2.9, 2.1,0,0,1024,1024,1024,1024,229.4,-6.9,94,4.016,4.024,4.024,4.014,0,0,14.148,69.71,3494.6393506736,42.979004,14,Waypoint,
96000,2021-03-21 11:10:19,40.1849534543956,33.32819414349,43.963256,,,3495.6236026736,42.979004,0,9.0038060624,15,5,15.996,3495.6236026736,43.963256,0.447388,9.54396356,0,0,-6.934514,229, 3.1, 2.2,0,0,1024,1024,1024,1024,229.4,-6.9,94,4.016,4.024,4.024,4.014,0,0,14.148,69.71,3495.6236026736,43.963256,14,Waypoint,
96100,2021-03-21 11:10:19,40.1849534038243,33.3281942497265,44.947508,,,3496.6078546736,43.963256,0,8.9693572424,15,5,15.996,3496.6078546736,44.947508,0.447388,9.54396356,0,0,-6.71082,229, 2.7, 1.8,0,0,1024,1024,1024,1024,229.4,-6.9,94,4.016,4.024,4.024,4.014,0,0,14.148,69.71,3496.6078546736,44.947508,14,Waypoint,
96200,2021-03-21 11:10:19,40.1849533742412,33.3281943753177,45.93176,,,3497.5921066736,44.947508,0,8.93290711,15,5,15.996,3497.5921066736,45.93176,0.447388,9.54396356,0,0,-6.71082,229, 2.8, 1.9,0,0,1024,1024,1024,1024,229.4,-6.9,94,4.016,4.024,4.024,4.014,0,0,14.148,69.71,3497.5921066736,45.93176,14,Waypoint,
96300,2021-03-21 11:10:20,40.1849533612674,33.3281944892204,46.916012,,,3498.5763586736,45.93176,0,8.9017719384,15,5,15.996,3498.5763586736,46.916012,0.447388,9.54396356,0,0,-6.71082,228.9, 2.8, 2.1,0,0,1024,1024,1024,1024,229.4,-6.9,94,4.016,4.024,4.024,4.014,0,0,14.148,69.71,3498.5763586736,46.916012,14,Waypoint,
96400,2021-03-21 11:10:20,40.1849533679961,33.3281946566183,47.900264,,,3499.5606106736,46.916012,0,8.8596787612,15,5,15.996,3499.5606106736,47.900264,0.447388,9.54396356,0,0,-6.71082,228.9, 2.1, 2,0,0,1024,1024,1024,1024,229.4,-6.9,94,4.016,4.024,4.024,4.014,0,0,14.148,69.71,3499.5606106736,47.900264,14,Waypoint,
96500,2021-03-21 11:10:20,40.1849533756775,33.3281947958012,48.884516,,,3500.5448626736,47.900264,0,8.8250002824,15,5,15.996,3500.5448626736,48.884516,0.447388,9.54396356,0,0,-6.487126,229, 2.6, 2.2,0,0,1024,1024,1024,1024,229.4,-6.9,94,4.016,4.024,4.024,4.014,0,0,14.148,69.71,3500.5448626736,48.884516,14,Waypoint,
96600,2021-03-21 11:10:20,40.1849533875081,33.328194935528,49.868768,,,3501.5291146736,48.556432,0,8.7908139296,15,5,15.996,3501.5291146736,49.868768,0.447388,9.54396356,0,0,-6.487126,228.9, 2.2, 2.5,0,0,1024,1024,1024,1024,229.4,-6.9,94,4.016,4.024,4.024,4.014,0,0,14.148,69.71,3501.5291146736,49.868768,14,Waypoint,
96700,2021-03-21 11:10:20,40.1849534112655,33.3281950466052,50.85302,,,3502.5133666736,49.540684,0,8.765748312,15,5,15.996,3502.5133666736,50.85302,0.447388,9.54396356,0,0,-6.487126,229, 2.2, 2.6,0,0,1024,1024,1024,1024,229.4,-6.9,94,4.016,4.024,4.024,4.014,0,0,14.148,69.71,3502.5133666736,50.85302,14,Waypoint,
96800,2021-03-21 11:10:20,40.1849534032796,33.3281951385324,51.837272,,,3503.4976186736,0,0,8.7410435868,15,5,16.05,3503.4976186736,51.837272,0.447388,9.54396356,0,0,-6.487126,228.9, 2.7, 2.1,0,0,1024,1024,1024,1024,229.4,-6.9,94,4.022,4.026,4.026,4.018,0,0,13.458,69.71,3503.4976186736,51.837272,14,Waypoint,
96900,2021-03-21 11:10:20,40.1849534153895,33.3281952160045,52.821524,,,3504.4818706736,0,0,8.72293335,15,5,16.05,3504.4818706736,52.821524,0.447388,9.54396356,0,0,-6.487126,228.9, 2.5, 1.6,0,0,1024,1024,1024,1024,229.4,-6.9,94,4.022,4.026,4.026,4.018,0,0,13.458,69.71,3504.4818706736,52.821524,14,Waypoint,
97000,2021-03-21 11:10:20,40.1849534514424,33.3281953095967,53.805776,,,3505.4661226736,0,0,8.7041997536,14,5,16.05,3505.4661226736,53.805776,0.447388,9.54396356,0,0,-6.487126,228.9, 1.8, 2.2,0,0,1024,1024,1024,1024,229.3,-6.9,94,4.022,4.026,4.026,4.018,0,0,13.458,69.71,3505.4661226736,53.805776,14,Waypoint,
97100,2021-03-21 11:10:20,40.1849534889634,33.328195388759,54.790028,,,3506.4503746736,0,0,8.6894031652,14,5,16.05,3506.4503746736,54.790028,0.447388,9.54396356,0,0,-6.487126,228.9, 2.3, 2.1,0,0,1024,1024,1024,1024,229.3,-6.9,94,4.022,4.026,4.026,4.018,0,0,13.458,69.71,3506.4503746736,54.790028,14,Waypoint,
97200,2021-03-21 11:10:20,40.1849535445056,33.3281955154125,55.77428,,,3507.4346266736,0,0,8.6652233744,14,5,16.05,3507.4346266736,55.77428,0.447388,9.54396356,0,0,-6.487126,228.9, 2.3, 2.2,0,0,1024,1024,1024,1024,229.3,-6.9,94,4.022,4.026,4.026,4.018,0,0,13.458,69.71,3507.4346266736,55.77428,14,Waypoint,
97300,2021-03-21 11:10:21,40.1849536047808,33.3281956291975,56.758532,,,3508.4188786736,0,0,8.6451118252,14,5,16.05,3508.4188786736,56.758532,0.447388,9.54396356,0,0,-6.487126,228.9, 1.5, 2.3,0,0,1024,1024,1024,1024,229.3,-6.9,94,4.022,4.026,4.026,4.018,0,0,13.458,69.71,3508.4188786736,56.758532,14,Waypoint,
97400,2021-03-21 11:10:21,40.1849536339926,33.3281956962284,57.742784,,,3509.4031306736,0,0,8.6324149744,15,5,16.05,3509.4031306736,57.742784,0.447388,9.54396356,0,0,-6.487126,229, 2.2, 2.1,0,0,1024,1024,1024,1024,229.3,-6.9,94,4.022,4.026,4.026,4.018,0,0,13.458,69.71,3509.4031306736,57.742784,14,Waypoint,
97500,2021-03-21 11:10:21,40.1849536631149,33.3281957501721,58.727036,,,3510.3873826736,0,0,8.623031772,15,5,16.05,3510.3873826736,58.727036,0.447388,9.54396356,0,0,-6.487126,228.9, 1.7, 2.4,0,0,1024,1024,1024,1024,229.3,-6.9,94,4.022,4.026,4.026,4.018,0,0,13.458,69.71,3510.3873826736,58.727036,14,Waypoint,
97600,2021-03-21 11:10:21,40.1849536267119,33.3281958185877,59.711288,,,3511.3716346736,0,0,8.6001971256,15,5,16.05,3511.3716346736,59.711288,0.447388,9.54396356,0,0,-6.487126,228.9, 1.6, 2.3,0,0,1024,1024,1024,1024,229.3,-6.9,94,4.022,4.026,4.026,4.018,0,0,13.458,69.71,3511.3716346736,59.711288,14,Waypoint,
97700,2021-03-21 11:10:21,40.1849536037671,33.3281958552061,60.69554,,,3512.3558866736,0,0,8.5874674664,15,5,16.05,3512.3558866736,60.69554,0.447388,9.54396356,0,0,-6.487126,229, 2.3, 2.5,0,0,1024,1024,1024,1024,229.3,-6.9,94,4.022,4.026,4.026,4.018,0,0,13.458,69.71,3512.3558866736,60.69554,14,Waypoint,
97800,2021-03-21 11:10:21,40.1849535981734,33.3281958489694,61.679792,,,3513.3401386736,0,0,8.5882220596,15,5,16.05,3513.3401386736,61.679792,0.447388,9.54396356,0,0,-6.487126,229, 2.1, 2.5,0,0,1024,1024,1024,1024,229.3,-6.9,94,4.023,4.022,4.016,4.01,0,0,13.378,69.71,3513.3401386736,61.679792,14,Waypoint,
97900,2021-03-21 11:10:21,40.1849536182407,33.3281958263212,62.664044,,,3514.3243906736,0,0,8.596949094,15,5,16.05,3514.3243906736,62.664044,0.447388,9.54396356,0,0,-6.487126,229, 2, 2.4,0,0,1024,1024,1024,1024,229.3,-6.9,94,4.023,4.022,4.016,4.01,0,0,13.378,69.71,3514.3243906736,62.664044,14,Waypoint,
98000,2021-03-21 11:10:21,40.1849536599191,33.328195808951,63.648296,,,3515.3086426736,0,0,8.607611824,15,5,16.05,3515.3086426736,63.648296,0.447388,9.54396356,0,0,-6.487126,228.9, 2.6, 1.9,0,0,1024,1024,1024,1024,229.3,-6.9,94,4.023,4.022,4.016,4.01,0,0,13.378,69.71,3515.3086426736,63.648296,14,Waypoint,
98100,2021-03-21 11:10:21,40.1849537083132,33.3281957889993,64.632548,,,3516.2928946736,0,0,8.6199477824,15,5,16.05,3516.2928946736,64.632548,0.447388,9.54396356,0,0,-6.487126,229, 2.1, 2.5,0,0,1024,1024,1024,1024,229.3,-6.9,94,4.023,4.022,4.016,4.01,0,0,13.378,69.71,3516.2928946736,64.632548,14,Waypoint,
98200,2021-03-21 11:10:21,40.1849537741488,33.3281957656867,65.6168,,,3517.2771466736,0,0,8.6357942396,14,5,16.05,3517.2771466736,65.6168,0.447388,9.54396356,0,0,-6.487126,229, 2.2, 2,0,0,1024,1024,1024,1024,229.3,-6.9,94,4.023,4.022,4.016,4.01,0,0,13.378,69.71,3517.2771466736,65.6168,14,Waypoint,
98300,2021-03-21 11:10:22,40.1849538380131,33.3281957171724,66.601052,,,3518.2613986736,0,0,8.6577758676,14,5,16.05,3518.2613986736,66.601052,0.447388,9.54396356,0,0,-6.487126,229, 2.3, 2,0,0,1024,1024,1024,1024,229.3,-6.9,94,4.023,4.022,4.016,4.01,0,0,13.378,69.71,3518.2613986736,66.601052,14,Waypoint,
98400,2021-03-21 11:10:22,40.1849539720576,33.3281956832757,67.585304,,,3519.2456506736,0,0,8.6867784932,15,5,16.05,3519.2456506736,67.585304,0.447388,9.54396356,0,0,-6.487126,229, 2.2, 1.7,0,0,1024,1024,1024,1024,229.3,-6.9,94,4.023,4.022,4.016,4.01,0,0,13.378,69.71,3519.2456506736,67.585304,14,Waypoint,
98500,2021-03-21 11:10:22,40.1849540964431,33.3281956360452,68.89764,,,3520.5579866736,0,0,8.7178808564,15,5,16.05,3520.5579866736,68.89764,0.447388,9.54396356,0,0,-6.487126,229, 2.5, 1.8,0,0,1024,1024,1024,1024,229.3,-6.9,94,4.023,4.022,4.016,4.01,0,0,13.378,69.71,3520.5579866736,68.89764,14,Waypoint,
98600,2021-03-21 11:10:22,40.1849542493971,33.3281955848232,69.881892,,,3521.5422386736,0,0.223694,8.7545606476,15,5,16.05,3521.5422386736,69.881892,0.447388,9.54396356,0.223694,0,-6.487126,228.9, 2.6, 1.4,0,0,1024,1024,1024,1024,229.3,-6.9,94,4.023,4.022,4.016,4.01,0,0,13.378,69.71,3521.5422386736,69.881892,14,Waypoint,
98700,2021-03-21 11:10:22,40.1849543818637,33.3281955342795,70.866144,,,3522.5264906736,0,0.223694,8.7880908324,15,5,16.05,3522.5264906736,70.866144,0.447388,9.54396356,0.223694,0,-6.487126,229, 2, 1.3,0,0,1024,1024,1024,1024,229.3,-6.9,94,4.023,4.022,4.016,4.01,0,0,13.378,69.71,3522.5264906736,70.866144,14,Waypoint,
98800,2021-03-21 11:10:22,40.1849544808983,33.3281954524571,71.850396,,,3523.5107426736,0,0,8.824311306,15,5,15.996,3523.5107426736,71.850396,0.447388,9.54396356,0,0,-6.487126,228.9, 2.3, 1.2,0,0,1024,1024,1024,1024,229.3,-6.9,94,4.023,4.022,4.016,4.01,0,0,13.096,69.71,3523.5107426736,71.850396,14,Waypoint,
98900,2021-03-21 11:10:22,40.1849545604055,33.3281953747636,72.834648,,,3524.4949946736,0,0,8.8564307296,15,5,15.996,3524.4949946736,72.834648,0.447388,9.54396356,0,0,-6.487126,229, 1.6, 1.3,0,0,1024,1024,1024,1024,229.3,-6.9,94,4.023,4.022,4.016,4.01,0,0,13.096,69.71,3524.4949946736,72.834648,14,Waypoint,
99000,2021-03-21 11:10:22,40.1849546335658,33.3281952964001,73.8189,,,3525.4792466736,0,0,8.8877299432,15,5,15.996,3525.4792466736,73.8189,0.447388,9.54396356,0,0,-6.487126,229, 2.2, 0.9,0,0,1024,1024,1024,1024,229.3,-6.9,94,4.023,4.022,4.016,4.01,0,0,13.096,69.71,3525.4792466736,73.8189,14,Waypoint,
99100,2021-03-21 11:10:22,40.1849546840101,33.328195221333,74.475068,,,3526.1354146736,0,0,8.9146328312,15,5,15.996,3526.1354146736,74.475068,0.447388,9.54396356,0,0,-6.263432,229, 2.1, 1.5,0,0,1024,1024,1024,1024,229.3,-6.9,94,4.023,4.022,4.016,4.01,0,0,13.096,69.71,3526.1354146736,74.475068,14,Waypoint,
99200,2021-03-21 11:10:22,40.1849547772377,33.3281951919043,75.45932,,,3527.1196666736,0,0,8.9369425432,15,5,15.996,3527.1196666736,75.45932,0.447388,9.54396356,0,0,-6.487126,228.9, 2, 1.3,0,0,1024,1024,1024,1024,229.3,-6.9,94,4.023,4.022,4.016,4.01,0,0,13.096,69.71,3527.1196666736,75.45932,14,Waypoint,
99300,2021-03-21 11:10:23,40.1849548456079,33.3281951444916,76.771656,,,3528.4320026736,0,0,8.959809998,15,5,15.996,3528.4320026736,76.771656,0.447388,9.54396356,0,0,-6.487126,229, 2, 1.4,0,0,1024,1024,1024,1024,229.3,-6.9,94,4.023,4.022,4.016,4.01,0,0,13.096,69.71,3528.4320026736,76.771656,14,Waypoint,
99400,2021-03-21 11:10:23,40.1849548571365,33.3281950262807,77.755908,,,3529.4162546736,0,0.223694,8.9912404452,15,5,15.996,3529.4162546736,77.755908,0.447388,9.54396356,0,-0.223694,-6.487126,229, 2.9, 1.4,0,0,1024,1024,1024,1024,229.3,-6.9,94,4.023,4.022,4.016,4.01,0,0,13.096,69.71,3529.4162546736,77.755908,14,Waypoint,
99500,2021-03-21 11:10:23,40.1849548583399,33.3281949081707,78.74016,,,3530.4005066736,0,0.223694,9.0209648556,15,5,15.996,3530.4005066736,78.74016,0.447388,9.54396356,0,-0.223694,-6.487126,229.1, 2.7, 1.7,0,0,1024,1024,1024,1024,229.3,-6.9,94,4.023,4.022,4.016,4.01,0,0,13.096,69.71,3530.4005066736,78.74016,14,Waypoint,
99600,2021-03-21 11:10:23,40.1849549504398,33.3281947042273,79.396328,,,3531.0566746736,0,0.223694,9.0868113144,15,5,15.996,3531.0566746736,79.396328,0.447388,9.54396356,0,-0.223694,-6.263432,229, 2.7, 0.8,0,0,1024,1024,1024,1024,229.3,-6.9,94,4.023,4.022,4.016,4.01,0,0,13.096,69.71,3531.0566746736,79.396328,14,Waypoint,
99700,2021-03-21 11:10:23,40.184955016864,33.3281945255136,80.38058,,,3532.0409266736,0,0,9.1421918936,15,5,15.996,3532.0409266736,80.38058,0.447388,9.54396356,0,0,-6.487126,229, 3.2, 1.1,0,0,1024,1024,1024,1024,229.3,-6.9,94,4.023,4.022,4.016,4.01,0,0,13.096,69.71,3532.0409266736,80.38058,14,Waypoint,
99800,2021-03-21 11:10:23,40.1849550560395,33.3281943505756,81.364832,,,3533.0251786736,0,0,9.1922903204,15,5,16.023,3533.0251786736,81.364832,0.447388,9.54396356,0,0,-6.263432,228.9, 3.3, 1.3,0,0,1024,1024,1024,1024,229.3,-6.9,94,4.02,4.022,4.018,4.008,0,0,13.096,69.71,3533.0251786736,81.364832,14,Waypoint,
99900,2021-03-21 11:10:23,40.1849550842148,33.3281942183021,82.349084,,,3534.0094306736,0,0,9.2299215552,15,5,16.023,3534.0094306736,82.349084,0.447388,9.54396356,0,0,-6.263432,228.9, 3.2, 0.8,0,0,1024,1024,1024,1024,229.3,-6.9,94,4.02,4.022,4.018,4.008,0,0,13.096,69.71,3534.0094306736,82.349084,14,Waypoint,
100000,2021-03-21 11:10:23,40.1849551317524,33.3281941267589,83.333336,,,3534.9936826736,0,0,9.2604661756,15,5,16.023,3534.9936826736,83.333336,0.447388,9.54396356,0,0,-6.263432,228.9, 2.4, 1.2,0,0,1024,1024,1024,1024,229.3,-6.9,94,4.02,4.022,4.018,4.008,0,0,13.096,69.71,3534.9936826736,83.333336,14,Waypoint,
100100,2021-03-21 11:10:23,40.1849551615977,33.3281940672064,84.317588,,,3535.9779346736,0,0,9.2801512156,15,5,16.023,3535.9779346736,84.317588,0.447388,9.54396356,0,0,-6.263432,228.9, 1.9, 1.6,0,0,1024,1024,1024,1024,229.3,-6.9,94,4.02,4.022,4.018,4.008,0,0,13.096,69.71,3535.9779346736,84.317588,14,Waypoint,
100200,2021-03-21 11:10:23,40.1849551338645,33.3281939530879,85.629924,,,3537.2902706736,0,0,9.304298198,15,5,16.023,3537.2902706736,85.629924,0.447388,9.54396356,0,0,-6.487126,228.8, 2.5, 1.3,0,0,1024,1024,1024,1024,229.3,-6.9,94,4.02,4.022,4.018,4.008,0,0,13.096,69.71,3537.2902706736,85.629924,14,Waypoint,
100300,2021-03-21 11:10:24,40.1849550982211,33.3281938635965,86.614176,,,3538.2745226736,0,0,9.3210632904,15,5,16.023,3538.2745226736,86.614176,0.447388,9.54396356,0,0,-6.487126,228.9, 3.1, 0.7,0,0,1024,1024,1024,1024,229.3,-6.9,94,4.02,4.022,4.018,4.008,0,0,13.096,69.71,3538.2745226736,86.614176,14,Waypoint,
100400,2021-03-21 11:10:24,40.1849550484624,33.3281937882323,87.598428,,,3539.2587746736,0,0,9.3320869128,15,5,16.023,3539.2587746736,87.598428,0.447388,9.54396356,0,0,-6.487126,229, 3.2, 0.8,0,0,1024,1024,1024,1024,229.3,-6.9,94,4.02,4.022,4.018,4.008,0,0,13.096,69.71,3539.2587746736,87.598428,14,Waypoint,
100500,2021-03-21 11:10:24,40.1849549917852,33.3281937870101,88.58268,,,3540.2430266736,0,0,9.3234583036,15,5,16.023,3540.2430266736,88.58268,0.447388,9.54396356,0,0,-6.487126,229, 2.9, 2,0,0,1024,1024,1024,1024,229.2,-6.9,94,4.02,4.022,4.018,4.008,0,0,13.096,69.71,3540.2430266736,88.58268,14,Waypoint,
100600,2021-03-21 11:10:24,40.184954979019,33.3281938468065,89.566932,,,3541.2272786736,0,0,9.3063979356,15,5,16.023,3541.2272786736,89.566932,0.447388,9.54396356,0,0,-6.487126,228.9, 2.2, 2.7,0,0,1024,1024,1024,1024,229.2,-6.9,94,4.02,4.022,4.018,4.008,0,0,13.096,69.71,3541.2272786736,89.566932,14,Waypoint,
100700,2021-03-21 11:10:24,40.1849549607047,33.3281939087752,90.551184,,,3542.2115306736,0,0,9.2879596148,15,5,16.023,3542.2115306736,90.551184,0.447388,9.54396356,0,0,-6.71082,228.9, 1.4, 3,0,0,1024,1024,1024,1024,229.3,-6.9,94,4.02,4.022,4.018,4.008,0,0,13.096,69.71,3542.2115306736,90.551184,14,Waypoint,
100800,2021-03-21 11:10:24,40.1849549942743,33.3281939216186,91.535436,,,3543.1957826736,0,0,9.290026544,14,5,15.942,3543.1957826736,91.535436,0.447388,9.54396356,0,0,-6.71082,228.9, 1.7, 3,0,0,1024,1024,1024,1024,229.2,-6.9,94,4.012,4.012,4.007,3.999,0,0,13.64,71.51,3543.1957826736,91.535436,14,Waypoint,
100900,2021-03-21 11:10:24,40.1849549999184,33.3281939057116,92.847772,,,3544.5081186736,0,0,9.2949149956,14,5,15.942,3544.5081186736,92.847772,0.447388,9.54396356,0,0,-6.71082,229, 2.4, 2.8,0,0,1024,1024,1024,1024,229.2,-6.9,94,4.012,4.012,4.007,3.999,0,0,13.64,71.51,3544.5081186736,92.847772,14,Waypoint,
101000,2021-03-21 11:10:24,40.1849550254533,33.3281938494666,93.832024,,,3545.4923706736,0,0,9.3130580408,16,5,15.942,3545.4923706736,93.832024,0.447388,9.54396356,0,0,-6.487126,229, 2.6, 2.3,0,0,1024,1024,1024,1024,229.2,-6.9,94,4.012,4.012,4.007,3.999,0,0,13.64,71.51,3545.4923706736,93.832024,14,Waypoint,
101200,2021-03-21 11:10:24,40.1849550482547,33.3281937790749,95.800528,,,3547.4608746736,0,0,9.3343506924,15,5,15.942,3547.4608746736,95.800528,0.447388,9.54396356,0,0,-6.487126,229, 2.4, 2.5,0,0,1024,1024,1024,1024,229.2,-6.9,94,4.012,4.012,4.007,3.999,0,0,13.64,71.51,3547.4608746736,95.800528,14,Waypoint,
101300,2021-03-21 11:10:25,40.1849550323684,33.3281937848322,96.78478,,,3548.4451266736,0,0,9.3304136844,15,5,15.942,3548.4451266736,96.78478,0.447388,9.54396356,0,0,-6.263432,228.9, 2.8, 2.6,0,0,1024,1024,1024,1024,229.2,-6.9,94,4.012,4.012,4.007,3.999,0,0,13.64,71.51,3548.4451266736,96.78478,14,Waypoint,
101400,2021-03-21 11:10:25,40.1849549281944,33.3281937609843,97.769032,,,3549.4293786736,0,0,9.3200134216,16,5,15.942,3549.4293786736,97.769032,0.447388,9.54396356,0,0,-6.263432,229, 3.4, 2.8,0,0,1024,1024,1024,1024,229.2,-6.9,94,4.012,4.012,4.007,3.999,0,0,13.64,71.51,3549.4293786736,97.769032,14,Waypoint,
101500,2021-03-21 11:10:25,40.1849548358625,33.3281937596949,98.753284,,,3550.4136306736,0,0,9.305938618,16,5,15.942,3550.4136306736,98.753284,0.447388,9.54396356,0,0,-6.487126,229, 2.5, 2.7,0,0,1024,1024,1024,1024,229.2,-6.9,94,4.012,4.012,4.007,3.999,0,0,13.64,71.51,3550.4136306736,98.753284,14,Waypoint,
101600,2021-03-21 11:10:25,40.1849546851256,33.3281937079319,99.737536,,,3551.3978826736,0,0,9.2957352056,16,5,15.942,3551.3978826736,99.737536,0.447388,9.54396356,0,0,-6.263432,229, 2.9, 2.2,0,0,1024,1024,1024,1024,229.2,-6.9,94,4.012,4.012,4.007,3.999,0,0,13.64,71.51,3551.3978826736,99.737536,14,Waypoint,
101700,2021-03-21 11:10:25,40.1849545439509,33.328193676073,100.721788,,,3552.3821346736,0,0,9.2822837616,16,5,15.942,3552.3821346736,100.721788,0.447388,9.54396356,0,0,-6.263432,229, 3.9, 2.9,0,0,1024,1024,1024,1024,229.2,-6.9,94,4.012,4.012,4.007,3.999,0,0,13.64,71.51,3552.3821346736,100.721788,14,Waypoint,
101800,2021-03-21 11:10:25,40.1849544255597,33.3281936661056,101.70604,,,3553.3663866736,0,0,9.2669294304,16,5,15.942,3553.3663866736,101.70604,0.447388,9.54396356,0,0,-6.263432,228.9, 3.3, 3.3,0,0,1024,1024,1024,1024,229.2,-6.9,94,4.012,4.012,4.007,3.999,0,0,13.64,71.51,3553.3663866736,101.70604,14,Waypoint,
101900,2021-03-21 11:10:25,40.184954341256,33.3281936743184,102.690292,,,3554.3506386736,0,0,9.2522312672,16,5,15.942,3554.3506386736,102.690292,0.447388,9.54396356,0,0,-6.263432,228.9, 2.6, 3.1,0,0,1024,1024,1024,1024,229.2,-6.9,94,4.012,4.012,4.007,3.999,0,0,13.64,71.51,3554.3506386736,102.690292,14,Waypoint,
102000,2021-03-21 11:10:25,40.1849542747162,33.3281936983905,104.002628,,,3555.6629746736,0,0,9.2361879596,16,5,15.942,3555.6629746736,104.002628,0.447388,9.54396356,0,0,-6.263432,229, 3.6, 3.1,0,0,1024,1024,1024,1024,229.2,-6.9,94,4.012,4.012,4.007,3.999,0,0,13.64,71.51,3555.6629746736,104.002628,14,Waypoint,
102100,2021-03-21 11:10:25,40.1849542165978,33.3281937357405,104.658796,,,3556.3191426736,0,0,9.2180777228,16,5,15.942,3556.3191426736,104.658796,0.447388,9.54396356,0,0,-6.263432,229, 3.3, 3.3,0,0,1024,1024,1024,1024,229.2,-6.9,94,4.012,4.012,4.007,3.999,0,0,13.64,71.51,3556.3191426736,104.658796,14,Waypoint,
102200,2021-03-21 11:10:25,40.184954149944,33.3281937667837,105.643048,,,3557.3033946736,0,0,9.20029557,16,5,15.942,3557.3033946736,105.643048,0.447388,9.54396356,0,0,-6.263432,229, 2.9, 3.3,0,0,1024,1024,1024,1024,229.2,-6.9,94,4.012,4.012,4.007,3.999,0,0,13.64,71.51,3557.3033946736,105.643048,14,Waypoint,
102300,2021-03-21 11:10:26,40.1849540915585,33.3281937955509,106.6273,,,3558.2876466736,0,0,9.184383496,16,5,15.942,3558.2876466736,106.6273,0.447388,9.54396356,0,0,-6.263432,229, 3.1, 3.2,0,0,1024,1024,1024,1024,229.2,-6.9,94,4.012,4.012,4.007,3.999,0,0,13.64,71.51,3558.2876466736,106.6273,14,Waypoint,
102400,2021-03-21 11:10:26,40.1849540122012,33.328193846316,107.611552,,,3559.2718986736,0,0,9.1598100044,16,5,15.942,3559.2718986736,107.611552,0.447388,9.54396356,0,0,-6.263432,229.1, 3.2, 3.5,0,0,1024,1024,1024,1024,229.2,-6.9,94,4.012,4.012,4.007,3.999,0,0,13.64,71.51,3559.2718986736,107.611552,14,Waypoint,
102500,2021-03-21 11:10:26,40.1849539634586,33.3281938991862,108.595804,,,3560.2561506736,0,0,9.1392063292,16,5,15.942,3560.2561506736,108.595804,0.447388,9.54396356,0,0,-6.039738,229.1, 3.3, 3.5,0,0,1024,1024,1024,1024,229.2,-6.9,94,4.012,4.012,4.007,3.999,0,0,13.64,71.51,3560.2561506736,108.595804,14,Waypoint,
102600,2021-03-21 11:10:26,40.1849539410748,33.3281939556302,109.580056,,,3561.2404026736,0,0,9.1215226016,16,5,15.942,3561.2404026736,109.580056,0.447388,9.54396356,0,0,-6.039738,229.1, 3.2, 2.8,0,0,1024,1024,1024,1024,229.2,-6.9,94,4.012,4.012,4.007,3.999,0,0,13.64,71.51,3561.2404026736,109.580056,14,Waypoint,
102700,2021-03-21 11:10:26,40.1849539380345,33.3281940205617,110.564308,,,3562.2246546736,0,0,9.1044622336,16,5,15.942,3562.2246546736,110.564308,0.447388,9.54396356,0,0,-6.039738,229, 2.4, 2.8,0,0,1024,1024,1024,1024,229.2,-6.9,94,4.012,4.012,4.007,3.999,0,0,13.64,71.51,3562.2246546736,110.564308,14,Waypoint,
102800,2021-03-21 11:10:26,40.1849539528957,33.3281940926548,111.54856,,,3563.2089066736,0,0,9.0882220756,15,5,16.023,3563.2089066736,111.54856,0.447388,9.54396356,0,0,-6.039738,228.9, 2.3, 3.1,0,0,1024,1024,1024,1024,229.2,-6.9,94,4.009,4.01,4.006,4,0,0,13.434,71.51,3563.2089066736,111.54856,14,Waypoint,
102900,2021-03-21 11:10:26,40.1849539698096,33.328194151316,112.532812,,,3564.1931586736,0,0,9.0757220752,15,5,16.023,3564.1931586736,112.532812,0.447388,9.54396356,0,0,-6.263432,228.9, 3, 2.7,0,0,1024,1024,1024,1024,229.2,-6.9,94,4.009,4.01,4.006,4,0,0,13.434,71.51,3564.1931586736,112.532812,14,Waypoint,
103000,2021-03-21 11:10:26,40.1849539556641,33.3281942448353,113.517064,,,3565.1774106736,0,0,9.0498034392,14,5,16.023,3565.1774106736,113.517064,0.447388,9.54396356,0,0,-6.039738,229, 3.1, 2.7,0,0,1024,1024,1024,1024,229.2,-6.9,94,4.009,4.01,4.006,4,0,0,13.434,71.51,3565.1774106736,113.517064,14,Waypoint,
103100,2021-03-21 11:10:26,40.1849539554548,33.3281943485154,114.501316,,,3566.1616626736,0,0,9.0233270604,14,5,16.023,3566.1616626736,114.501316,0.447388,9.54396356,0,0,-6.263432,228.9, 2.3, 3.2,0,0,1024,1024,1024,1024,229.2,-6.9,94,4.009,4.01,4.006,4,0,0,13.434,71.51,3566.1616626736,114.501316,14,Waypoint,
103200,2021-03-21 11:10:26,40.1849539223705,33.3281944330483,115.485568,,,3567.1459146736,0,0,8.99688349,15,5,16.023,3567.1459146736,115.485568,0.447388,9.54396356,0,0,-6.263432,228.9, 1.4, 3.3,0,0,1024,1024,1024,1024,229.2,-6.9,94,4.009,4.01,4.006,4,0,0,13.434,71.51,3567.1459146736,115.485568,14,Waypoint,
103300,2021-03-21 11:10:27,40.1849539002465,33.3281944723379,116.46982,,,3568.1301666736,0,0,8.983596088,15,5,16.023,3568.1301666736,116.46982,0.447388,9.54396356,0,0,-6.263432,228.9, 1.7, 3,0,0,1024,1024,1024,1024,229.2,-6.9,94,4.009,4.01,4.006,4,0,0,13.434,71.51,3568.1301666736,116.46982,14,Waypoint,
103400,2021-03-21 11:10:27,40.1849538957398,33.3281945210624,117.454072,,,3569.1144186736,0,0,8.9705055364,14,5,16.023,3569.1144186736,117.454072,0.447388,9.54396356,0,0,-6.263432,229, 2.6, 2.9,0,0,1024,1024,1024,1024,229.2,-6.9,94,4.009,4.01,4.006,4,0,0,13.434,71.51,3569.1144186736,117.454072,14,Waypoint,
103500,2021-03-21 11:10:27,40.1849538980106,33.3281945335442,118.438324,,,3570.0986706736,0,0,8.967684014,14,5,16.023,3570.0986706736,118.438324,0.447388,9.54396356,0,0,-6.263432,229.1, 3.6, 2.7,0,0,1024,1024,1024,1024,229.2,-6.9,94,4.009,4.01,4.006,4,0,0,13.434,71.51,3570.0986706736,118.438324,14,Waypoint,
103600,2021-03-21 11:10:27,40.1849539361586,33.3281945851698,119.422576,,,3571.0829226736,0,0,8.960138082,15,5,16.023,3571.0829226736,119.422576,0.447388,9.54396356,0,0,-6.263432,229.2, 3.2, 3,0,0,1024,1024,1024,1024,229.2,-6.9,94,4.009,4.01,4.006,4,0,0,13.434,71.51,3571.0829226736,119.422576,14,Waypoint,
103700,2021-03-21 11:10:27,40.1849539854247,33.3281946150666,120.734912,,,3572.3952586736,0,0,8.9598428064,15,5,16.023,3572.3952586736,120.734912,0.447388,9.54396356,0,0,-6.263432,229.1, 2.7, 2.6,0,0,1024,1024,1024,1024,229.2,-6.9,94,4.009,4.01,4.006,4,0,0,13.434,71.51,3572.3952586736,120.734912,14,Waypoint,
103800,2021-03-21 11:10:27,40.1849539884284,33.328194624793,121.719164,,,3573.3795106736,0,0,8.9578086856,15,5,15.942,3573.3795106736,121.719164,0.447388,9.54396356,0,0,-6.263432,229.1, 3.3, 2.8,0,0,1024,1024,1024,1024,229.2,-6.9,94,4.009,4.01,4.006,4,0,0,13.528,71.51,3573.3795106736,121.719164,14,Waypoint,
103900,2021-03-21 11:10:27,40.1849539965356,33.3281946106996,122.703416,,,3574.3637626736,0,0,8.9626315204,15,5,15.942,3574.3637626736,122.703416,0.447388,9.54396356,0,0,-6.263432,229.1, 3.7, 2.2,0,0,1024,1024,1024,1024,229.2,-6.9,94,4.009,4.01,4.006,4,0,0,13.528,71.51,3574.3637626736,122.703416,14,Waypoint,
104000,2021-03-21 11:10:27,40.1849540250203,33.3281946188927,123.687668,,,3575.3480146736,0,0,8.9647640664,16,5,15.942,3575.3480146736,123.687668,0.447388,9.54396356,0,0,-6.263432,229, 3.2, 2.4,0,0,1024,1024,1024,1024,229.2,-6.9,94,4.009,4.01,4.006,4,0,0,13.528,71.51,3575.3480146736,123.687668,14,Waypoint,
104100,2021-03-21 11:10:27,40.1849540580468,33.3281946285995,124.67192,,,3576.3322666736,0,0,8.9672575048,16,5,15.942,3576.3322666736,124.67192,0.447388,9.54396356,0,0,-6.263432,228.9, 2.7, 2.7,0,0,1024,1024,1024,1024,229.2,-6.9,94,4.009,4.01,4.006,4,0,0,13.528,71.51,3576.3322666736,124.67192,14,Waypoint,
104200,2021-03-21 11:10:27,40.1849541443844,33.3281946820667,125.656172,,,3577.3165186736,0,0,8.9666669536,14,5,15.942,3577.3165186736,125.656172,0.447388,9.54396356,0,0,-6.263432,228.9, 3.6, 2.4,0,0,1024,1024,1024,1024,229.2,-6.9,94,4.009,4.01,4.006,4,0,0,13.528,71.51,3577.3165186736,125.656172,14,Waypoint,
104300,2021-03-21 11:10:28,40.184954229009,33.3281947272399,126.640424,,,3578.3007706736,0,0,8.9680449064,14,5,15.942,3578.3007706736,126.640424,0.447388,9.54396356,0,0,-6.263432,229, 2.7, 2.5,0,0,1024,1024,1024,1024,229.2,-6.9,94,4.009,4.01,4.006,4,0,0,13.528,71.51,3578.3007706736,126.640424,14,Waypoint,
104400,2021-03-21 11:10:28,40.1849543196352,33.3281948148476,127.624676,,,3579.2850226736,0,0,8.9597443812,15,5,15.942,3579.2850226736,127.624676,0.447388,9.54396356,0,0,-6.263432,228.9, 2.3, 2.4,0,0,1024,1024,1024,1024,229.2,-6.9,94,4.009,4.01,4.006,4,0,0,13.528,71.51,3579.2850226736,127.624676,14,Waypoint,
104500,2021-03-21 11:10:28,40.184954384707,33.3281948676001,128.608928,,,3580.2692746736,0,0,8.9564635412,15,5,15.942,3580.2692746736,128.608928,0.447388,9.54396356,0,0,-6.263432,229.1, 2.8, 2.8,0,0,1024,1024,1024,1024,229.2,-6.9,94,4.009,4.01,4.006,4,0,0,13.528,71.51,3580.2692746736,128.608928,14,Waypoint,
104600,2021-03-21 11:10:28,40.1849544104128,33.3281948679981,129.59318,,,3581.2535266736,0,0,8.9603349324,15,5,15.942,3581.2535266736,129.59318,0.447388,9.54396356,0,0,-6.263432,229, 3.1, 2,0,0,1024,1024,1024,1024,229.2,-6.9,94,4.009,4.01,4.006,4,0,0,13.528,71.51,3581.2535266736,129.59318,14,Waypoint,
104700,2021-03-21 11:10:28,40.1849544258569,33.3281948641019,130.577432,,,3582.2377786736,0,0,8.9637141976,15,5,15.942,3582.2377786736,130.577432,0.447388,9.54396356,0,0,-6.263432,229.1, 2.6, 2.5,0,0,1024,1024,1024,1024,229.2,-6.9,94,4.009,4.01,4.006,4,0,0,13.528,71.51,3582.2377786736,130.577432,14,Waypoint,
104800,2021-03-21 11:10:28,40.1849544313293,33.3281949047426,131.561684,,,3583.2220306736,0,0,8.9543309952,14,5,15.969,3583.2220306736,131.561684,0.447388,9.54396356,0,0,-6.263432,229, 2.2, 2.7,0,0,1024,1024,1024,1024,229.2,-6.9,94,4.002,4.009,4.007,3.996,0,0,13.528,71.51,3583.2220306736,131.561684,14,Waypoint,
104900,2021-03-21 11:10:28,40.1849544268429,33.3281949211542,132.545936,,,3584.2062826736,0,0,8.949475352,14,5,15.969,3584.2062826736,132.545936,0.447388,9.54396356,0,0,-6.263432,229.1, 3.4, 3,0,0,1024,1024,1024,1024,229.2,-6.9,94,4.002,4.009,4.007,3.996,0,0,13.528,71.51,3584.2062826736,132.545936,14,Waypoint,
105000,2021-03-21 11:10:28,40.1849544384179,33.3281949720454,133.530188,,,3585.1905346736,0,0,8.9384517296,14,5,15.969,3585.1905346736,133.530188,0.447388,9.54396356,0,0,-6.263432,229, 3.4, 3,0,0,1024,1024,1024,1024,229.2,-6.9,94,4.002,4.009,4.007,3.996,0,0,13.528,71.51,3585.1905346736,133.530188,14,Waypoint,
105100,2021-03-21 11:10:28,40.1849544586155,33.3281950146258,134.51444,,,3586.1747866736,0,0,8.9308729892,14,5,15.969,3586.1747866736,134.51444,0.447388,9.54396356,0,0,-6.263432,228.9, 3, 2.9,0,0,1024,1024,1024,1024,229.2,-6.9,94,4.002,4.009,4.007,3.996,0,0,13.528,71.51,3586.1747866736,134.51444,14,Waypoint,
105200,2021-03-21 11:10:28,40.1849544724361,33.3281950483599,135.498692,,,3587.1590386736,0,0,8.924540968,15,5,15.969,3587.1590386736,135.498692,0.447388,9.54396356,0,0,-6.263432,229, 2.4, 3.4,0,0,1024,1024,1024,1024,229.2,-6.9,94,4.002,4.009,4.007,3.996,0,0,13.528,71.51,3587.1590386736,135.498692,14,Waypoint,
105300,2021-03-21 11:10:29,40.1849544840697,33.3281950493998,136.482944,,,3588.1432906736,0,0,8.9261157712,15,5,15.969,3588.1432906736,136.482944,0.447388,9.54396356,0,0,-6.263432,229, 3.1, 3,0,0,1024,1024,1024,1024,229.2,-6.9,94,4.002,4.009,4.007,3.996,0,0,13.528,71.51,3588.1432906736,136.482944,14,Waypoint,
105400,2021-03-21 11:10:29,40.1849544587059,33.3281950691582,137.467196,,,3589.1275426736,0,0,8.917159078,15,5,15.969,3589.1275426736,137.467196,0.447388,9.54396356,0,0,-6.263432,229, 2.7, 3.1,0,0,1024,1024,1024,1024,229.2,-6.9,94,4.002,4.009,4.007,3.996,0,0,13.528,71.51,3589.1275426736,137.467196,14,Waypoint,
105500,2021-03-21 11:10:29,40.1849544421292,33.3281950761516,138.779532,,,3590.4398786736,0,0,8.9128283692,15,5,15.969,3590.4398786736,138.779532,0.447388,9.54396356,0,0,-6.487126,229.1, 2.7, 2.9,0,0,1024,1024,1024,1024,229.1,-6.9,94,4.002,4.009,4.007,3.996,0,0,13.528,71.51,3590.4398786736,138.779532,14,Waypoint,
105600,2021-03-21 11:10:29,40.184954420593,33.3281950308047,139.763784,,,3591.4241306736,0,0,8.9208664272,14,5,15.969,3591.4241306736,139.763784,0.447388,9.54396356,0,0,-6.263432,229, 3.4, 2.7,0,0,1024,1024,1024,1024,229.2,-6.9,94,4.002,4.009,4.007,3.996,0,0,13.528,71.51,3591.4241306736,139.763784,14,Waypoint,
105700,2021-03-21 11:10:29,40.1849544100757,33.328194982139,140.748036,,,3592.4083826736,0,0,8.9314963488,14,5,15.969,3592.4083826736,140.748036,0.447388,9.54396356,0,0,-6.263432,229, 3.1, 2.9,0,0,1024,1024,1024,1024,229.2,-6.9,94,4.002,4.009,4.007,3.996,0,0,13.528,71.51,3592.4083826736,140.748036,14,Waypoint,
105800,2021-03-21 11:10:29,40.18495443634,33.328194982509,141.732288,,,3593.3926346736,0,0,8.9354989736,14,5,15.914,3593.3926346736,141.732288,0.447388,9.54396356,0,0,-6.263432,229.1, 3.3, 2.8,0,0,1024,1024,1024,1024,229.2,-6.9,93,3.996,4.006,4.004,3.995,0,0,13.332,71.51,3593.3926346736,141.732288,14,Waypoint,
105900,2021-03-21 11:10:29,40.1849544565865,33.3281949712774,142.71654,,,3594.3768866736,0,0,8.9415029108,14,5,15.914,3594.3768866736,142.71654,0.447388,9.54396356,0,0,-6.263432,229.1, 3.5, 3,0,0,1024,1024,1024,1024,229.2,-6.9,93,3.996,4.006,4.004,3.995,0,0,13.332,71.51,3594.3768866736,142.71654,14,Waypoint,
106000,2021-03-21 11:10:29,40.1849545869809,33.328194976718,143.700792,,,3595.3611386736,0,0,8.9605973996,14,5,15.914,3595.3611386736,143.700792,0.447388,9.54396356,0,0,-6.263432,229, 3.3, 2.8,0,0,1024,1024,1024,1024,229.1,-6.9,93,3.996,4.006,4.004,3.995,0,0,13.332,71.51,3595.3611386736,143.700792,14,Waypoint,
106100,2021-03-21 11:10:29,40.1849547003027,33.3281949637009,144.685044,,,3596.3453906736,0,0,8.981791626,14,5,15.914,3596.3453906736,144.685044,0.447388,9.54396356,0,0,-6.263432,229, 3.6, 2.4,0,0,1024,1024,1024,1024,229.1,-6.9,93,3.996,4.006,4.004,3.995,0,0,13.332,71.51,3596.3453906736,144.685044,14,Waypoint,
106200,2021-03-21 11:10:29,40.1849548593064,33.3281949488702,145.669296,,,3597.3296426736,0,0,9.0109582936,14,5,15.914,3597.3296426736,145.669296,0.447388,9.54396356,0,0,-6.263432,229, 2.8, 2.4,0,0,1024,1024,1024,1024,229.1,-6.9,93,3.996,4.006,4.004,3.995,0,0,13.332,71.51,3597.3296426736,145.669296,14,Waypoint,
106300,2021-03-21 11:10:30,40.1849549840281,33.3281949279346,146.653548,,,3598.3138946736,0,0,9.0363191868,14,5,15.914,3598.3138946736,146.653548,0.447388,9.54396356,0,0,-6.039738,229.1, 3, 2.4,0,0,1024,1024,1024,1024,229.2,-6.9,93,3.996,4.006,4.004,3.995,0,0,13.332,71.51,3598.3138946736,146.653548,14,Waypoint,
