time(millisecond),datetime(utc),latitude,longitude,height_above_takeoff(feet),height_above_ground_at_drone_location(feet),ground_elevation_at_drone_location(feet),altitude_above_seaLevel(feet),height_sonar(feet),speed(mph),distance(feet),satellites,gpslevel,voltage(v),max_altitude(feet),max_ascent(feet),max_speed(mph),max_distance(feet), xSpeed(mph), ySpeed(mph), zSpeed(mph), compass_heading(degrees), pitch(degrees), roll(degrees),isPhoto,isVideo,rc_elevator,rc_aileron,rc_throttle,rc_rudder,gimbal_heading(degrees),gimbal_pitch(degrees),battery_percent,voltageCell1,voltageCell2,voltageCell3,voltageCell4,voltageCell5,voltageCell6,current(A),battery_temperature(f),altitude(feet),ascent(feet),flycStateRaw,flycState,message
0,,40.1849538263943,33.3283527976876,0,Available with any HD 360 subscription,Available with any HD 360 subscription,3452.5013824617,0.656168,0,0,8,4,0,3452.5013824617,0,0,0,0,0,0,253.5, -0.6, -0.5,0,0,1024,1024,1024,1024,253.5,0,99,4.281,4.282,4.283,4.282,0,0,0,75.11,3452.5013824617,0,41,Motors_Started,
100,,40.1849538897399,33.3283527587731,0,,,3452.5013824617,0.328084,0,0.025530348586,8,4,0,3452.5013824617,0,0,0.025530348586,0,0,0,253.3, -0.6, -0.5,0,0,1024,1024,1024,1024,253.5,0,99,4.281,4.282,4.283,4.282,0,0,0,75.11,3452.5013824617,0,41,Motors_Started,
200,,40.1849539533549,33.3283527216942,0,,,3452.5013824617,0.328084,0,0.050934712916,8,4,0,3452.5013824617,0,0,0.050934712916,0,0,0,253.4, -0.6, -0.4,0,0,1024,1024,1024,1024,253.5,0,99,4.281,4.282,4.283,4.282,0,0,0,75.11,3452.5013824617,0,41,Motors_Started,
300,,40.1849539844852,33.3283526084316,0,,,3452.5013824617,0.328084,0,0.07816437258,8,4,0,3452.5013824617,0,0,0.07816437258,0,0,0,253.5, -0.6, -0.4,0,0,1024,1024,1024,1024,253.5,0,99,4.281,4.282,4.283,4.282,0,0,0,75.11,3452.5013824617,0,41,Motors_Started,
400,,40.1849539982627,33.3283525975004,0,,,3452.5013824617,0.328084,0,0.083937666728,8,4,0,3452.5013824617,0,0,0.083937666728,0,0,0,253.5, -0.6, -0.4,0,0,1024,1024,1024,1024,253.5,0,99,4.281,4.282,4.283,4.282,0,0,0,75.11,3452.5013824617,0,41,Motors_Started,
500,2021-04-13 10:25:02,40.1849540414561,33.3283525981445,0,,,3452.5013824617,0.328084,0,0.096178480768,8,4,0,3452.5013824617,0,0,0.096178480768,0,0,0,253.5, -0.6, -0.4,0,0,1024,1024,1024,1024,253.5,0,99,4.281,4.282,4.283,4.282,0,0,0,75.11,3452.5013824617,0,41,Motors_Started,
600,2021-04-13 10:25:03,40.1849540868781,33.3283525997001,0,,,3452.5013824617,0.328084,0,0.109897969396,8,4,0,3452.5013824617,0,0,0.109897969396,0,0,0,253.6, -0.6, -0.5,0,0,1024,1024,1024,1024,253.5,0,99,4.281,4.282,4.283,4.282,0,0,0,75.11,3452.5013824617,0,41,Motors_Started,
700,2021-04-13 10:25:03,40.1849540611332,33.3283526063295,0,,,3452.5013824617,0.328084,0,0.100895344436,8,4,0,3452.5013824617,0,0,0.109897969396,0,0,0,253.7, -0.6, -0.5,0,0,1024,1024,1024,1024,253.5,0,99,4.281,4.282,4.283,4.282,0,0,0,75.11,3452.5013824617,0,41,Motors_Started,
800,2021-04-13 10:25:03,40.1849540642053,33.3283526127985,0,,,3452.5013824617,0.328084,0,0.100916013728,8,4,17.068,3452.5013824617,0,0,0.109897969396,0,0,0,253.6, -0.6, -0.5,0,0,1024,1024,1024,1024,253.5,0,99,4.281,4.282,4.283,4.282,0,0,1.306,75.11,3452.5013824617,0,41,Motors_Started,Setting new Return-To-Home altitude to 150m (492 ft). Data Recorder File Index is 374. Setting new Maximum Flight Altitude to 500m (1640 ft)
900,2021-04-13 10:25:03,40.1849540549527,33.3283526207779,0,,,3452.5013824617,0.328084,0,0.096877955856,8,4,17.068,3452.5013824617,0,0,0.109897969396,0,0,0,253.6, -0.6, -0.5,0,0,1024,1024,1024,1024,253.5,0,99,4.281,4.282,4.283,4.282,0,0,1.306,75.11,3452.5013824617,0,41,Motors_Started,
1000,2021-04-13 10:25:03,40.1849540439701,33.3283526294525,0,,,3452.5013824617,0.328084,0,0.09219816568,8,4,17.068,3452.5013824617,0,0,0.109897969396,0,0,0,253.5, -0.6, -0.5,0,0,1024,1024,1024,1024,253.5,0,99,4.281,4.282,4.283,4.282,0,0,1.306,75.11,3452.5013824617,0,41,Motors_Started,
1100,2021-04-13 10:25:03,40.1849540842675,33.3283526370204,0,,,3452.5013824617,0.328084,0,0.1041994784,8,4,17.068,3452.5013824617,0,0,0.109897969396,0,0,0,253.5, -0.6, -0.4,0,0,1024,1024,1024,1024,253.5,0,99,4.281,4.282,4.283,4.282,0,0,1.306,75.11,3452.5013824617,0,41,Motors_Started,
1200,2021-04-13 10:25:03,40.1849541236168,33.3283526377425,0,,,3452.5013824617,0.328084,0,0.117248035248,8,4,17.068,3452.5013824617,0,0,0.117248035248,0,0,0,253.5, -0.6, -0.4,0,0,1024,1024,1024,1024,253.5,0,99,4.281,4.282,4.283,4.282,0,0,1.306,75.11,3452.5013824617,0,41,Motors_Started,
1300,2021-04-13 10:25:03,40.1849541805314,33.3283525912559,0,,,3452.5013824617,0.328084,0,0.141439637072,8,4,17.068,3452.5013824617,0,0,0.141439637072,0,0,0,253.5, -0.6, -0.5,0,0,1024,1024,1024,1024,253.5,0,99,4.281,4.282,4.283,4.282,0,0,1.306,75.11,3452.5013824617,0,41,Motors_Started,
1400,2021-04-13 10:25:03,40.1849542416204,33.3283525448986,0,,,3452.5013824617,0.328084,0,0.167079073588,8,4,17.068,3452.5013824617,0,0,0.167079073588,0,0,0,253.5, -0.6, -0.5,0,0,1024,1024,1024,1024,253.5,0,99,4.281,4.282,4.283,4.282,0,0,1.306,75.11,3452.5013824617,0,41,Motors_Started,
1500,2021-04-13 10:25:03,40.1849542532715,33.328352529404,0,,,3452.5013824617,0.328084,0,0.172767722064,8,4,17.068,3452.5013824617,0,0,0.172767722064,0,0,0,253.5, -0.6, -0.4,0,0,1024,1024,1024,1024,253.5,0,99,4.281,4.282,4.283,4.282,0,0,1.306,75.11,3452.5013824617,0,11,AutoTakeoff,
1600,2021-04-13 10:25:04,40.1849542707624,33.3283524200367,0,,,3452.5013824617,0.328084,0,0.19330217154,8,4,17.068,3452.5013824617,0,0,0.19330217154,0,0,0,253.5, -0.6, -0.5,0,0,1024,1024,1024,1024,253.5,0,99,4.281,4.282,4.283,4.282,0,0,1.306,75.11,3452.5013824617,0,11,AutoTakeoff,
1700,2021-04-13 10:25:04,40.1849542588223,33.3283523667879,0,,,3452.5013824617,0.328084,0,0.198285439416,8,4,17.068,3452.5013824617,0,0,0.198285439416,0,0,0,253.5, -0.6, -0.5,0,0,1024,1024,1024,1024,253.5,0,99,4.281,4.282,4.283,4.282,0,0,1.306,75.11,3452.5013824617,0,11,AutoTakeoff,
1800,2021-04-13 10:25:04,40.1849542482987,33.3283523169808,0,,,3452.5013824617,0.328084,0,0.20407809052,8,4,16.996,3452.5013824617,0,0,0.20407809052,0,0,0,253.5, -0.6, -0.5,0,0,1024,1024,1024,1024,253.5,0,99,4.249,4.251,4.247,4.262,0,0,4.208,75.11,3452.5013824617,0,11,AutoTakeoff,
1900,2021-04-13 10:25:04,40.1849542329074,33.3283523568494,0,,,3452.5013824617,0.328084,0,0.192603680704,8,4,16.996,3452.5013824617,0,0,0.20407809052,0,0,0,253.6, -0.6, -0.5,0,0,1024,1024,1024,1024,253.5,0,99,4.249,4.251,4.247,4.262,0,0,4.208,75.11,3452.5013824617,0,11,AutoTakeoff,
2000,2021-04-13 10:25:04,40.1849541338783,33.3283524531396,0,,,3452.5013824617,0.328084,0,0.147677498164,8,4,16.996,3452.5013824617,0,0,0.20407809052,0,0,0,253.5, -0.5, -0.4,0,0,1024,1024,1024,1024,253.5,0,99,4.249,4.251,4.247,4.262,0,0,4.208,75.11,3452.5013824617,0,11,AutoTakeoff,
2100,2021-04-13 10:25:04,40.1849541218219,33.3283524312512,0,,,3452.5013824617,0.328084,0,0.14849245882,8,4,16.996,3452.5013824617,0,0,0.20407809052,0,0,0,253.5, -0.5, -0.5,0,0,1024,1024,1024,1024,253.5,0,99,4.249,4.251,4.247,4.262,0,0,4.208,75.11,3452.5013824617,0,11,AutoTakeoff,
2200,2021-04-13 10:25:04,40.1849541043815,33.3283524007684,0,,,3452.5013824617,0.328084,0,0.150088915564,8,4,16.996,3452.5013824617,0,0,0.20407809052,0,0,0,253.6, -1.1, -0.5,0,0,1024,1024,1024,1024,253.5,0,99,4.249,4.251,4.247,4.262,0,0,4.208,75.11,3452.5013824617,0,11,AutoTakeoff,
2300,2021-04-13 10:25:04,40.1849541275829,33.3283523760086,0,,,3452.5013824617,0.328084,0,0.16090387654,8,4,16.996,3452.5013824617,0,0,0.20407809052,0,0,-0.223694,253.8, -1.3, 0.1,0,0,1024,1024,1024,1024,253.5,0,99,4.249,4.251,4.247,4.262,0,0,4.208,75.11,3452.5013824617,0,11,AutoTakeoff,
2400,2021-04-13 10:25:04,40.1849541469531,33.3283523271102,0,,,3452.5013824617,0.328084,0,0.175735241844,8,4,16.996,3452.5013824617,0,0,0.20407809052,0,0,-0.671082,253.8, -0.5, 0.6,0,0,1024,1024,1024,1024,253.5,0,99,4.249,4.251,4.247,4.262,0,0,4.208,75.11,3452.5013824617,0,11,AutoTakeoff,
2500,2021-04-13 10:25:04,40.1849541693867,33.3283522387217,0,,,3452.5013824617,0.656168,0,0.1998359644,8,4,16.996,3452.5013824617,0,0,0.20407809052,0,0,-1.11847,253.8, 0.5, 0.1,0,0,1024,1024,1024,1024,253.5,0,99,4.249,4.251,4.247,4.262,0,0,4.208,75.11,3452.5013824617,0,11,AutoTakeoff,
2600,2021-04-13 10:25:05,40.1849541994075,33.32835215785,0.328084,,,3452.8294664617,0.984252,0,0.224338589856,8,4,16.996,3452.8294664617,0.328084,0,0.224338589856,0,0,-1.342164,253.8, 0.9, -0.2,0,0,1024,1024,1024,1024,253.5,0,99,4.249,4.251,4.247,4.262,0,0,4.208,75.11,3452.8294664617,0.328084,11,AutoTakeoff,
2700,2021-04-13 10:25:05,40.1849542387769,33.3283521101685,0.328084,,,3452.8294664617,0.984252,0,0.243641083912,8,4,16.996,3452.8294664617,0.328084,0,0.243641083912,0,0,-1.342164,253.7, 0.8, 0,0,0,1024,1024,1024,1024,253.5,0,99,4.249,4.251,4.247,4.262,0,0,4.208,75.11,3452.8294664617,0.328084,11,AutoTakeoff,
2800,2021-04-13 10:25:05,40.1849542791402,33.3283520851368,0.656168,,,3453.1575504617,1.312336,0,0.258325467584,8,4,16.888,3453.1575504617,0.656168,0,0.258325467584,0,0,-1.342164,253.6, 0.5, 0.3,0,0,1024,1024,1024,1024,253.5,0,99,4.249,4.251,4.247,4.262,0,0,4.208,75.11,3453.1575504617,0.656168,11,AutoTakeoff,
2900,2021-04-13 10:25:05,40.184954330315,33.3283520616094,0.984252,,,3453.4856344617,1.312336,0,0.275494103304,8,4,16.888,3453.4856344617,0.984252,0,0.275494103304,0,0,-1.11847,253.6, 0, 0.5,0,0,1024,1024,1024,1024,253.5,0,99,4.249,4.251,4.247,4.262,0,0,4.208,75.11,3453.4856344617,0.984252,11,AutoTakeoff,
3000,2021-04-13 10:25:05,40.1849543565016,33.3283520295591,0.984252,,,3453.4856344617,1.64042,0,0.288525599784,8,4,16.888,3453.4856344617,0.984252,0,0.288525599784,0,0,-1.11847,253.6, 0.1, 0.1,0,0,1024,1024,1024,1024,253.5,0,99,4.249,4.251,4.247,4.262,0,0,4.208,75.11,3453.4856344617,0.984252,11,AutoTakeoff,
3100,2021-04-13 10:25:05,40.1849543814814,33.3283520211471,1.312336,,,3453.8137184617,1.968504,0.223694,0.296420285076,8,4,16.888,3453.8137184617,1.312336,0.223694,0.296420285076,-0.223694,0,-1.11847,253.5, 0.5, 0,0,0,1024,1024,1024,1024,253.5,0,99,4.249,4.251,4.247,4.262,0,0,4.208,75.11,3453.8137184617,1.312336,11,AutoTakeoff,
3200,2021-04-13 10:25:05,40.1849544030652,33.3283520141174,1.312336,,,3453.8137184617,1.968504,0,0.303263461148,8,4,16.888,3453.8137184617,1.312336,0.223694,0.303263461148,0,0,-0.894776,253.4, 0.3, 0.5,0,0,1024,1024,1024,1024,253.5,0,99,4.249,4.251,4.247,4.262,0,0,4.208,75.11,3453.8137184617,1.312336,11,AutoTakeoff,
3300,2021-04-13 10:25:05,40.1849542665397,33.3283521049637,1.312336,,,3453.8137184617,1.968504,0.223694,0.25113681906,8,4,16.888,3453.8137184617,1.312336,0.223694,0.303263461148,-0.223694,0,-0.894776,253.2, 0, 1.1,0,0,1024,1024,1024,1024,253.5,0,99,4.249,4.251,4.247,4.262,0,0,4.208,75.11,3453.8137184617,1.312336,11,AutoTakeoff,
3400,2021-04-13 10:25:05,40.1849542445233,33.3283521095559,1.64042,,,3454.1418024617,2.296588,0,0.245075139076,7,3,16.888,3454.1418024617,1.64042,0.223694,0.303263461148,0,0,-0.894776,253.1, 0.2, 1.1,0,0,1024,1024,1024,1024,253.5,0,99,4.249,4.251,4.247,4.262,0,0,4.208,75.11,3454.1418024617,1.64042,11,AutoTakeoff,
3500,2021-04-13 10:25:05,40.1849542628054,33.3283519790963,1.64042,,,3454.1418024617,2.296588,0.223694,0.278231964284,7,3,16.888,3454.1418024617,1.64042,0.223694,0.303263461148,0,-0.223694,-0.894776,253.1, 0.7, 1.3,0,0,1024,1024,1024,1024,253.5,0,99,4.249,4.251,4.247,4.262,0,0,4.208,75.11,3454.1418024617,1.64042,11,AutoTakeoff,
3600,2021-04-13 10:25:06,40.184954295708,33.3283518448453,1.968504,,,3454.4698864617,2.624672,0.223694,0.316000338196,7,3,16.888,3454.4698864617,1.968504,0.223694,0.316000338196,0,-0.223694,-0.894776,253.1, 1.1, 1.5,0,0,1024,1024,1024,1024,253.5,0,99,4.249,4.251,4.247,4.262,0,0,4.208,75.11,3454.4698864617,1.968504,11,AutoTakeoff,
3700,2021-04-13 10:25:06,40.1849546243208,33.328351525178,1.968504,,,3454.4698864617,2.952756,0.223694,0.45886484408,7,3,16.888,3454.4698864617,1.968504,0.223694,0.45886484408,0,-0.223694,-1.11847,253.1, 1, 1.4,0,0,1024,1024,1024,1024,253.5,0,99,4.249,4.251,4.247,4.262,0,0,4.208,75.11,3454.4698864617,1.968504,11,AutoTakeoff,
3800,2021-04-13 10:25:06,40.1849548199193,33.328351410076,2.296588,,,3454.7979704617,2.952756,0.223694,0.5300853188,7,3,16.73,3454.7979704617,2.296588,0.223694,0.5300853188,0,-0.223694,-1.11847,253.2, 1.4, 0.6,0,0,1024,1024,1024,1024,253.5,0,99,4.172,4.186,4.185,4.177,0,0,9.354,75.11,3454.7979704617,2.296588,11,AutoTakeoff,
3900,2021-04-13 10:25:06,40.1849549699904,33.3283513374952,2.296588,,,3454.7979704617,3.28084,0.223694,0.5828740344,7,3,16.73,3454.7979704617,2.296588,0.223694,0.5828740344,0.223694,0,-1.11847,253.2, 1.5, 0,0,0,1024,1024,1024,1024,253.5,0,99,4.172,4.186,4.185,4.177,0,0,9.354,75.11,3454.7979704617,2.296588,11,AutoTakeoff,
4000,2021-04-13 10:25:06,40.1849551302833,33.3283512890905,2.624672,,,3455.1260544617,3.28084,0.223694,0.634924561,8,3,16.73,3455.1260544617,2.624672,0.223694,0.634924561,0.223694,0,-1.11847,253.3, 1.6, -0.6,0,0,1024,1024,1024,1024,253.5,0,99,4.172,4.186,4.185,4.177,0,0,9.354,75.11,3455.1260544617,2.624672,11,AutoTakeoff,
4100,2021-04-13 10:25:06,40.184955651963,33.3283512528769,2.952756,,,3455.4541384617,3.608924,0.223694,0.79312010412,8,3,16.73,3455.4541384617,2.952756,0.223694,0.79312010412,0.223694,0,-0.894776,253.6, 0.9, -0.9,0,0,1024,1024,1024,1024,253.5,0,99,4.172,4.186,4.185,4.177,0,0,9.354,75.11,3455.4541384617,2.952756,14,Waypoint,
4200,2021-04-13 10:25:06,40.1849559817547,33.3283512260478,2.952756,,,3455.4541384617,3.608924,0.223694,0.90016735164,8,3,16.73,3455.4541384617,2.952756,0.223694,0.90016735164,0.223694,0,-0.894776,253.7, 0.6, -1.9,0,0,1024,1024,1024,1024,253.5,0,99,4.172,4.186,4.185,4.177,0,0,9.354,75.11,3455.4541384617,2.952756,14,Waypoint,
4300,2021-04-13 10:25:06,40.1849562802127,33.3283512589582,3.28084,,,3455.7822224617,3.937008,0.223694,0.99270672468,8,3,16.73,3455.7822224617,3.28084,0.223694,0.99270672468,0.223694,0,-0.894776,253.8, 0.9, -2.5,0,0,1024,1024,1024,1024,253.5,0,99,4.172,4.186,4.185,4.177,0,0,9.354,75.11,3455.7822224617,3.28084,14,Waypoint,
4400,2021-04-13 10:25:06,40.1849565622665,33.3283513067037,3.28084,,,3455.7822224617,3.937008,0.223694,1.08124019208,8,3,16.73,3455.7822224617,3.28084,0.223694,1.08124019208,0.223694,0,-1.11847,253.9, 0.5, -3,0,0,1024,1024,1024,1024,253.5,0,99,4.172,4.186,4.185,4.177,0,0,9.354,75.11,3455.7822224617,3.28084,14,Waypoint,
4500,2021-04-13 10:25:06,40.1849567676922,33.3283514656534,3.608924,,,3456.1103064617,4.265092,0.223694,1.13554465576,8,3,16.73,3456.1103064617,3.608924,0.223694,1.13554465576,0.223694,0,-1.11847,253.9, -0.5, -3.4,0,0,1024,1024,1024,1024,253.5,0,99,4.172,4.186,4.185,4.177,0,0,9.354,75.11,3456.1103064617,3.608924,14,Waypoint,
4600,2021-04-13 10:25:07,40.1849568960824,33.3283518548663,3.608924,,,3456.1103064617,4.593176,0.223694,1.1503937376,7,3,16.73,3456.1103064617,3.608924,0.223694,1.1503937376,0.223694,0,-1.11847,253.9, -0.8, -3.4,0,0,1024,1024,1024,1024,253.5,0,99,4.172,4.186,4.185,4.177,0,0,9.354,75.11,3456.1103064617,3.608924,14,Waypoint,
4700,2021-04-13 10:25:07,40.1849570966725,33.3283519584595,3.937008,,,3456.4383904617,4.593176,0,1.21587274232,7,3,16.73,3456.4383904617,3.937008,0.223694,1.21587274232,0,0,-1.11847,253.9, -1, -3.6,0,0,1024,1024,1024,1024,253.5,0,99,4.172,4.186,4.185,4.177,0,0,9.354,75.11,3456.4383904617,3.937008,14,Waypoint,
4800,2021-04-13 10:25:07,40.1849572564416,33.3283520579212,3.937008,,,3456.4383904617,4.92126,0,1.2683235314,8,3,16.613,3456.4383904617,3.937008,0.223694,1.2683235314,0,0,-1.342164,254, -1, -3.4,0,0,1024,1024,1024,1024,253.5,0,99,4.159,4.175,4.176,4.164,0,0,11.57,75.11,3456.4383904617,3.937008,14,Waypoint,
4900,2021-04-13 10:25:07,40.184957280701,33.3283522059726,4.265092,,,3456.7664744617,4.92126,0,1.2710466286,8,3,16.613,3456.7664744617,4.265092,0.223694,1.2710466286,0,0,-1.789552,254.2, -1.4, -2.3,0,0,1024,1024,1024,1024,253.5,0,99,4.159,4.175,4.176,4.164,0,0,11.57,75.11,3456.7664744617,4.265092,14,Waypoint,
5000,2021-04-13 10:25:07,40.1849571275255,33.3283524582715,4.593176,,,3457.0945584617,5.249344,0,1.20812667908,8,3,16.613,3457.0945584617,4.593176,0.223694,1.2710466286,0,0,-2.23694,254.3, -1.6, -0.9,0,0,1024,1024,1024,1024,253.5,0,99,4.159,4.175,4.176,4.164,0,0,11.57,75.11,3457.0945584617,4.593176,14,Waypoint,
5100,2021-04-13 10:25:07,40.1849572121769,33.3283525872796,4.92126,,,3457.4226424617,5.905512,0,1.23669295296,8,3,16.613,3457.4226424617,4.92126,0.223694,1.2710466286,0,0,-3.131716,254.2, -1.3, -0.6,0,0,1024,1024,1024,1024,253.5,0,99,4.159,4.175,4.176,4.164,0,0,11.57,75.11,3457.4226424617,4.92126,14,Waypoint,
5200,2021-04-13 10:25:07,40.1849573003367,33.3283526580663,5.577428,,,3458.0788104617,6.233596,0,1.26806434504,8,3,16.613,3458.0788104617,5.577428,0.223694,1.2710466286,0,0,-3.802798,254.1, -0.7, -1.8,0,0,1024,1024,1024,1024,253.5,0,99,4.159,4.175,4.176,4.164,0,0,11.57,75.11,3458.0788104617,5.577428,14,Waypoint,
5300,2021-04-13 10:25:07,40.1849574745925,33.3283526779758,6.233596,,,3458.7349784617,6.889764,0,1.33146001636,8,3,16.613,3458.7349784617,6.233596,0.223694,1.33146001636,0,0,-4.47388,254, -0.1, -2.8,0,0,1024,1024,1024,1024,253.6,0,99,4.159,4.175,4.176,4.164,0,0,11.57,75.11,3458.7349784617,6.233596,14,Waypoint,
5400,2021-04-13 10:25:07,40.1849578237549,33.328352829371,6.889764,,,3459.3911464617,7.545932,0,1.45846133276,8,3,16.613,3459.3911464617,6.889764,0.223694,1.45846133276,0,0,-5.144962,253.8, -0.1, -3.3,0,0,1024,1024,1024,1024,253.5,0,99,4.159,4.175,4.176,4.164,0,0,11.57,75.11,3459.3911464617,6.889764,14,Waypoint,
5500,2021-04-13 10:25:07,40.1849579282647,33.3283528072969,7.545932,,,3460.0473144617,8.530184,0,1.49656828936,8,3,16.613,3460.0473144617,7.545932,0.223694,1.49656828936,0,0,-6.039738,253.6, -0.3, -3,0,0,1024,1024,1024,1024,253.6,0,99,4.159,4.175,4.176,4.164,0,0,11.57,75.11,3460.0473144617,7.545932,14,Waypoint,
5600,2021-04-13 10:25:08,40.1849580124305,33.3283528063525,8.530184,,,3461.0315664617,9.514436,0.223694,1.52727367092,8,3,16.613,3461.0315664617,8.530184,0.223694,1.52727367092,-0.223694,0,-6.487126,253.7, -0.8, -2,0,0,1024,1024,1024,1024,253.6,0,99,4.159,4.175,4.176,4.164,0,0,11.57,75.11,3461.0315664617,8.530184,14,Waypoint,
5700,2021-04-13 10:25:08,40.1849580132418,33.3283528020716,9.514436,,,3462.0158184617,10.498688,0,1.52756894652,8,3,16.613,3462.0158184617,9.514436,0.223694,1.52756894652,0,0,-6.934514,253.8, -1.1, -1.8,0,0,1024,1024,1024,1024,253.5,0,99,4.159,4.175,4.176,4.164,0,0,11.57,75.11,3462.0158184617,9.514436,14,Waypoint,
5800,2021-04-13 10:25:08,40.1849578163312,33.3283527018872,10.826772,,,3463.3281544617,11.48294,0.223694,1.4559711752,8,3,16.681,3463.3281544617,10.826772,0.223694,1.52756894652,-0.223694,0,-7.158208,253.7, -1.3, -2.5,0,0,1024,1024,1024,1024,253.5,0,99,4.159,4.175,4.176,4.164,0,0,11.57,75.11,3463.3281544617,10.826772,14,Waypoint,
5900,2021-04-13 10:25:08,40.1849578021157,33.3283526114842,11.811024,,,3464.3124064617,12.795276,0.223694,1.45146658188,8,3,16.681,3464.3124064617,11.811024,0.223694,1.52756894652,-0.223694,0,-7.158208,253.6, -0.6, -1.9,0,0,1024,1024,1024,1024,253.6,0,99,4.159,4.175,4.176,4.164,0,0,11.57,75.11,3464.3124064617,11.811024,14,Waypoint,
6000,2021-04-13 10:25:08,40.1849578089218,33.3283525243023,13.12336,,,3465.6247424617,13.779528,0.50107456,1.4550197316,8,3,16.681,3465.6247424617,13.12336,0.50107456,1.52756894652,-0.447388,-0.223694,-7.158208,253.7, -0.1, -1.9,0,0,1024,1024,1024,1024,253.6,0,99,4.159,4.175,4.176,4.164,0,0,11.57,75.11,3465.6247424617,13.12336,14,Waypoint,
6100,2021-04-13 10:25:08,40.1849578159909,33.3283522753834,14.107612,,,3466.6089944617,14.76378,0.31540854,1.46286422004,8,3,16.681,3466.6089944617,14.107612,0.50107456,1.52756894652,-0.223694,-0.223694,-7.158208,253.6, -0.1, -1.9,0,0,1024,1024,1024,1024,253.6,0,99,4.159,4.175,4.176,4.164,0,0,11.57,75.11,3466.6089944617,14.107612,14,Waypoint,
6200,2021-04-13 10:25:08,40.1849578495466,33.3283520346005,15.091864,,,3467.5932464617,16.076116,0.447388,1.48317590048,8,3,16.681,3467.5932464617,15.091864,0.50107456,1.52756894652,-0.447388,0,-7.158208,253.7, -0.3, -1.7,0,0,1024,1024,1024,1024,253.6,0,99,4.159,4.175,4.176,4.164,0,0,11.57,75.11,3467.5932464617,15.091864,14,Waypoint,
6300,2021-04-13 10:25:08,40.1849581142343,33.3283518003622,16.4042,,,3468.9055824617,17.060368,0.223694,1.58892065452,8,3,16.681,3468.9055824617,16.4042,0.50107456,1.58892065452,-0.223694,0,-7.158208,253.7, 0, -1.8,0,0,1024,1024,1024,1024,253.6,0,99,4.159,4.175,4.176,4.164,0,0,11.57,75.11,3468.9055824617,16.4042,14,Waypoint,
6400,2021-04-13 10:25:08,40.184958399429,33.3283519478131,17.388452,,,3469.8898344617,18.04462,0.31540854,1.68520018516,8,3,16.681,3469.8898344617,17.388452,0.50107456,1.68520018516,-0.223694,-0.223694,-6.934514,253.6, -0.4, -2.4,0,0,1024,1024,1024,1024,253.6,0,99,4.159,4.175,4.176,4.164,0,0,11.57,75.11,3469.8898344617,17.388452,14,Waypoint,
6500,2021-04-13 10:25:08,40.184958698693,33.328351920067,18.700788,,,3471.2021704617,19.028872,0.223694,1.7944062254,8,3,16.681,3471.2021704617,18.700788,0.50107456,1.7944062254,-0.223694,0,-6.934514,253.7, -0.8, -2.9,0,0,1024,1024,1024,1024,253.6,0,99,4.159,4.175,4.176,4.164,0,0,11.57,75.11,3471.2021704617,18.700788,14,Waypoint,
6600,2021-04-13 10:25:09,40.1849590198165,33.3283519048997,19.68504,,,3472.1864224617,20.013124,0.31540854,1.9110893,8,3,16.681,3472.1864224617,19.68504,0.50107456,1.9110893,-0.223694,-0.223694,-6.934514,253.8, -0.9, -3.3,0,0,1024,1024,1024,1024,253.6,0,99,4.159,4.175,4.176,4.164,0,0,11.57,75.11,3472.1864224617,19.68504,14,Waypoint,
6700,2021-04-13 10:25:09,40.1849595887126,33.3283517662506,20.997376,,,3473.4987584617,20.997376,0,2.12194560596,8,3,16.681,3473.4987584617,20.997376,0.50107456,2.12194560596,0,0,-6.934514,253.9, -1, -3.7,0,0,1024,1024,1024,1024,253.6,0,99,4.159,4.175,4.176,4.164,0,0,11.57,75.11,3473.4987584617,20.997376,14,Waypoint,
6800,2021-04-13 10:25:09,40.1849598851903,33.3283517960559,21.981628,,,3474.4830104617,22.309712,0,2.22811030752,8,3,16.337,3474.4830104617,21.981628,0.50107456,2.22811030752,0,0,-6.71082,253.9, -1.2, -3.9,0,0,1024,1024,1024,1024,253.5,0,99,4.097,4.117,4.118,4.103,0,0,14.792,75.11,3474.4830104617,21.981628,14,Waypoint,
6900,2021-04-13 10:25:09,40.1849602804275,33.3283521467831,22.96588,,,3475.4672624617,23.293964,0,2.3617290782,8,3,16.337,3475.4672624617,22.96588,0.50107456,2.3617290782,0,0,-6.71082,253.9, -1.6, -4,0,0,1024,1024,1024,1024,253.6,0,99,4.097,4.117,4.118,4.103,0,0,14.792,75.11,3475.4672624617,22.96588,14,Waypoint,
7000,2021-04-13 10:25:09,40.1849606787482,33.3283525252123,23.950132,,,3476.4515144617,24.278216,0,2.501230395,8,3,16.337,3476.4515144617,23.950132,0.50107456,2.501230395,0,0,-6.71082,254, -2.3, -4.1,0,0,1024,1024,1024,1024,253.6,0,99,4.097,4.117,4.118,4.103,0,0,14.792,75.11,3476.4515144617,23.950132,14,Waypoint,
7100,2021-04-13 10:25:09,40.1849614501551,33.3283535815617,24.934384,,,3477.4357664617,25.262468,0,2.7900919528,8,3,16.337,3477.4357664617,24.934384,0.50107456,2.7900919528,0,0,-6.487126,254, -2.7, -4.4,0,0,1024,1024,1024,1024,253.6,0,99,4.097,4.117,4.118,4.103,0,0,14.792,75.11,3477.4357664617,24.934384,14,Waypoint,
7200,2021-04-13 10:25:09,40.1849618035299,33.3283539372651,25.918636,,,3478.4200184617,26.24672,0,2.92773631416,8,3,16.337,3478.4200184617,25.918636,0.50107456,2.92773631416,0,0,-6.487126,254, -3.7, -4.7,0,0,1024,1024,1024,1024,253.6,0,99,4.097,4.117,4.118,4.103,0,0,14.792,75.11,3478.4200184617,25.918636,14,Waypoint,
7300,2021-04-13 10:25:09,40.1849621261996,33.3283542285645,26.902888,,,3479.4042704617,27.230972,0,3.0543308064,8,3,16.337,3479.4042704617,26.902888,0.50107456,3.0543308064,0,0,-6.487126,254, -3.7, -4.9,0,0,1024,1024,1024,1024,253.6,0,99,4.097,4.117,4.118,4.103,0,0,14.792,75.11,3479.4042704617,26.902888,14,Waypoint,
7400,2021-04-13 10:25:09,40.1849624267314,33.3283545016173,27.88714,,,3480.3885224617,28.215224,0,3.17356637452,8,3,16.337,3480.3885224617,27.88714,0.50107456,3.17356637452,0,0,-6.487126,253.9, -3.6, -5,0,0,1024,1024,1024,1024,253.6,0,99,4.097,4.117,4.118,4.103,0,0,14.792,75.11,3480.3885224617,27.88714,14,Waypoint,
7500,2021-04-13 10:25:09,40.1849626746978,33.3283543034668,28.871392,,,3481.3727744617,29.199476,0.223694,3.25546598344,8,3,16.337,3481.3727744617,28.871392,0.50107456,3.25546598344,-0.223694,0,-6.487126,253.9, -3.6, -5.1,0,0,1024,1024,1024,1024,253.6,0,99,4.097,4.117,4.118,4.103,0,0,14.792,75.11,3481.3727744617,28.871392,14,Waypoint,
7600,2021-04-13 10:25:10,40.1849628196529,33.3283542699254,29.855644,,,3482.3570264617,30.183728,0,3.306758636,8,3,16.337,3482.3570264617,29.855644,0.50107456,3.306758636,0,0,-6.487126,254, -3.6, -5.3,0,0,1024,1024,1024,1024,253.6,0,99,4.097,4.117,4.118,4.103,0,0,14.792,75.11,3482.3570264617,29.855644,14,Waypoint,
7700,2021-04-13 10:25:10,40.1849629672787,33.3283542812252,30.839896,,,3483.3412784617,31.16798,0.223694,3.3605972204,8,3,16.337,3483.3412784617,30.839896,0.50107456,3.3605972204,-0.223694,0,-6.263432,254, -3.3, -5.4,0,0,1024,1024,1024,1024,253.6,0,99,4.097,4.117,4.118,4.103,0,0,14.792,75.11,3483.3412784617,30.839896,14,Waypoint,
7800,2021-04-13 10:25:10,40.1849630870662,33.3283542894465,31.824148,,,3484.3255304617,31.824148,0.31540854,3.4042323924,8,3,16.484,3484.3255304617,31.824148,0.50107456,3.4042323924,-0.223694,-0.223694,-6.263432,254, -3.2, -5.4,0,0,1024,1024,1024,1024,253.6,0,99,4.097,4.117,4.118,4.103,0,0,12.124,75.11,3484.3255304617,31.824148,14,Waypoint,
7900,2021-04-13 10:25:10,40.1849630897662,33.3283541328297,32.8084,,,3485.3097824617,32.8084,0.31540854,3.4001641508,8,3,16.484,3485.3097824617,32.8084,0.50107456,3.4042323924,-0.223694,-0.223694,-6.263432,254, -2.9, -5.2,0,0,1024,1024,1024,1024,253.6,0,99,4.097,4.117,4.118,4.103,0,0,12.124,75.11,3485.3097824617,32.8084,14,Waypoint,
8000,2021-04-13 10:25:10,40.1849630333927,33.3283535278046,33.464568,,,3485.9659504617,33.792652,0.223694,3.36532163,7,3,16.484,3485.9659504617,33.464568,0.50107456,3.4042323924,-0.223694,0,-6.263432,253.9, -2.5, -5.3,0,0,1024,1024,1024,1024,253.6,0,99,4.097,4.117,4.118,4.103,0,0,12.124,75.11,3485.9659504617,33.464568,14,Waypoint,
8100,2021-04-13 10:25:10,40.184963023596,33.3283534601694,34.44882,,,3486.9502024617,34.776904,0.223694,3.3606628372,7,3,16.484,3486.9502024617,34.44882,0.50107456,3.4042323924,-0.223694,0,-6.263432,253.9, -2.3, -5.2,0,0,1024,1024,1024,1024,253.6,0,99,4.097,4.117,4.118,4.103,0,0,12.124,75.11,3486.9502024617,34.44882,14,Waypoint,
8200,2021-04-13 10:25:10,40.1849629920001,33.3283534028055,35.433072,,,3487.9344544617,35.761156,0.223694,3.3483268788,8,3,16.484,3487.9344544617,35.433072,0.50107456,3.4042323924,-0.223694,0,-6.263432,253.9, -2.3, -5.1,0,0,1024,1024,1024,1024,253.6,0,99,4.097,4.117,4.118,4.103,0,0,12.124,75.11,3487.9344544617,35.433072,14,Waypoint,
8300,2021-04-13 10:25:10,40.1849629229378,33.328353389159,36.417324,,,3488.9187064617,36.745408,0.223694,3.3229659856,8,3,16.484,3488.9187064617,36.417324,0.50107456,3.4042323924,-0.223694,0,-6.487126,254, -2.4, -4.9,0,0,1024,1024,1024,1024,253.6,0,99,4.097,4.117,4.118,4.103,0,0,12.124,75.11,3488.9187064617,36.417324,14,Waypoint,
8400,2021-04-13 10:25:10,40.1849628305676,33.3283533863089,37.401576,,,3489.9029584617,37.72966,0.223694,3.2892717588,9,3,16.484,3489.9029584617,37.401576,0.50107456,3.4042323924,-0.223694,0,-6.487126,254, -2.5, -4.9,0,0,1024,1024,1024,1024,253.6,0,99,4.097,4.117,4.118,4.103,0,0,12.124,75.11,3489.9029584617,37.401576,14,Waypoint,
8500,2021-04-13 10:25:10,40.1849627412971,33.3283534013369,38.385828,,,3490.8872104617,38.713912,0.447388,3.25694564228,9,3,16.484,3490.8872104617,38.385828,0.50107456,3.4042323924,-0.447388,0,-6.487126,254, -2.4, -4.9,0,0,1024,1024,1024,1024,253.6,0,99,4.097,4.117,4.118,4.103,0,0,12.124,75.11,3490.8872104617,38.385828,14,Waypoint,
8600,2021-04-13 10:25:11,40.1849626277896,33.3283534172219,39.37008,,,3491.8714624617,39.698164,0.447388,3.21582359372,9,3,16.484,3491.8714624617,39.37008,0.50107456,3.4042323924,-0.447388,0,-6.487126,254, -2.4, -4.6,0,0,1024,1024,1024,1024,253.6,0,99,4.097,4.117,4.118,4.103,0,0,12.124,75.11,3491.8714624617,39.37008,14,Waypoint,
8700,2021-04-13 10:25:11,40.1849624670736,33.3283532950351,40.026248,,,3492.5276304617,40.354332,0.447388,3.155593933,9,3,16.484,3492.5276304617,40.026248,0.50107456,3.4042323924,-0.447388,0,-6.487126,253.9, -2.4, -4.6,0,0,1024,1024,1024,1024,253.6,0,99,4.097,4.117,4.118,4.103,0,0,12.124,75.11,3492.5276304617,40.026248,14,Waypoint,
8800,2021-04-13 10:25:11,40.1849622693121,33.3283530369671,41.0105,,,3493.5118824617,40.682416,0.447388,3.08111558416,9,3,16.471,3493.5118824617,41.0105,0.50107456,3.4042323924,-0.447388,0,-6.487126,253.9, -2.2, -4.5,0,0,1024,1024,1024,1024,253.6,0,99,4.135,4.149,4.15,4.137,0,0,12.124,75.11,3493.5118824617,41.0105,14,Waypoint,
8900,2021-04-13 10:25:11,40.184962111314,33.3283529539915,41.994752,,,3494.4961344617,40.682416,0.447388,3.02306112036,9,3,16.471,3494.4961344617,41.994752,0.50107456,3.4042323924,-0.447388,0,-6.487126,253.9, -1.9, -4.3,0,0,1024,1024,1024,1024,253.6,0,99,4.135,4.149,4.15,4.137,0,0,12.124,75.11,3494.4961344617,41.994752,14,Waypoint,
9000,2021-04-13 10:25:11,40.1849619525936,33.3283528809883,42.979004,,,3495.4803864617,40.682416,0.447388,2.96493119724,9,3,16.471,3495.4803864617,42.979004,0.50107456,3.4042323924,-0.447388,0,-6.487126,253.9, -1.8, -4.2,0,0,1024,1024,1024,1024,253.6,0,99,4.135,4.149,4.15,4.137,0,0,12.124,75.11,3495.4803864617,42.979004,14,Waypoint,
9100,2021-04-13 10:25:11,40.1849617816583,33.3283528927223,43.963256,,,3496.4646384617,40.682416,0.447388,2.90259523724,9,3,16.471,3496.4646384617,43.963256,0.50107456,3.4042323924,-0.447388,0,-6.487126,253.9, -1.9, -4,0,0,1024,1024,1024,1024,253.6,0,99,4.135,4.149,4.15,4.137,0,0,12.124,75.11,3496.4646384617,43.963256,14,Waypoint,
9200,2021-04-13 10:25:11,40.1849616150725,33.3283529123991,44.947508,,,3497.4488904617,40.682416,0.447388,2.84187345052,9,3,16.471,3497.4488904617,44.947508,0.50107456,3.4042323924,-0.447388,0,-6.487126,254, -2.2, -3.8,0,0,1024,1024,1024,1024,253.6,0,99,4.135,4.149,4.15,4.137,0,0,12.124,75.11,3497.4488904617,44.947508,14,Waypoint,
9300,2021-04-13 10:25:11,40.1849615903023,33.3283530125817,45.603676,,,3498.1050584617,40.682416,0.671082,2.83329077308,9,3,16.471,3498.1050584617,45.603676,0.671082,3.4042323924,-0.671082,0,-6.487126,254, -2.3, -4,0,0,1024,1024,1024,1024,253.6,0,99,4.135,4.149,4.15,4.137,0,0,12.124,75.11,3498.1050584617,45.603676,14,Waypoint,
9400,2021-04-13 10:25:11,40.1849615599961,33.3283531100105,46.587928,,,3499.0893104617,40.682416,0.671082,2.82294300372,9,3,16.471,3499.0893104617,46.587928,0.671082,3.4042323924,-0.671082,0,-6.487126,254, -2.3, -3.9,0,0,1024,1024,1024,1024,253.6,0,99,4.135,4.149,4.15,4.137,0,0,12.124,75.11,3499.0893104617,46.587928,14,Waypoint,
9500,2021-04-13 10:25:11,40.1849613286887,33.3283529780146,47.57218,,,3500.0735624617,40.682416,0.671082,2.73767069128,9,3,16.471,3500.0735624617,47.57218,0.671082,3.4042323924,-0.671082,0,-6.71082,254, -2.1, -3.4,0,0,1024,1024,1024,1024,253.6,0,99,4.135,4.149,4.15,4.137,0,0,12.124,75.11,3500.0735624617,47.57218,14,Waypoint,
9600,2021-04-13 10:25:12,40.1849610968894,33.3283528470779,48.556432,,,3501.0578144617,40.682416,0.671082,2.65267068856,9,3,16.471,3501.0578144617,48.556432,0.671082,3.4042323924,-0.671082,0,-6.71082,253.9, -1.9, -2.8,0,0,1024,1024,1024,1024,253.6,0,99,4.135,4.149,4.15,4.137,0,0,12.124,75.11,3501.0578144617,48.556432,14,Waypoint,
9700,2021-04-13 10:25:12,40.184960939896,33.3283530911079,49.2126,,,3501.7139824617,40.682416,0.671082,2.59664378388,9,3,16.471,3501.7139824617,49.2126,0.671082,3.4042323924,-0.671082,0,-6.71082,253.9, -1.8, -2.3,0,0,1024,1024,1024,1024,253.6,0,99,4.135,4.149,4.15,4.137,0,0,12.124,75.11,3501.7139824617,49.2126,14,Waypoint,
9800,2021-04-13 10:25:12,40.1849607867596,33.3283532043418,50.196852,,,3502.6982344617,40.682416,0.671082,2.54201451704,9,3,16.463,3502.6982344617,50.196852,0.671082,3.4042323924,-0.671082,0,-6.71082,253.9, -1.9, -2.1,0,0,1024,1024,1024,1024,253.6,0,99,4.126,4.143,4.144,4.132,0,0,12.818,75.11,3502.6982344617,50.196852,14,Waypoint,
9900,2021-04-13 10:25:12,40.1849606527965,33.3283531885062,51.181104,,,3503.6824864617,40.682416,0.447388,2.49298892492,9,3,16.463,3503.6824864617,51.181104,0.671082,3.4042323924,-0.447388,0,-6.71082,253.9, -2.1, -2.4,0,0,1024,1024,1024,1024,253.6,0,99,4.126,4.143,4.144,4.132,0,0,12.818,75.11,3503.6824864617,51.181104,14,Waypoint,
10000,2021-04-13 10:25:12,40.1849605206702,33.3283531673229,52.165356,,,3504.6667384617,40.682416,0.447388,2.44457356904,9,3,16.463,3504.6667384617,52.165356,0.671082,3.4042323924,-0.447388,0,-6.71082,253.9, -2, -2.7,0,0,1024,1024,1024,1024,253.6,0,99,4.126,4.143,4.144,4.132,0,0,12.818,75.11,3504.6667384617,52.165356,14,Waypoint,
10100,2021-04-13 10:25:12,40.1849602411926,33.3283528231539,52.821524,,,3505.3229064617,40.682416,0.447388,2.34044626912,9,3,16.463,3505.3229064617,52.821524,0.671082,3.4042323924,-0.447388,0,-6.71082,253.9, -1.8, -2.6,0,0,1024,1024,1024,1024,253.6,0,99,4.126,4.143,4.144,4.132,0,0,12.818,75.11,3505.3229064617,52.821524,14,Waypoint,
10200,2021-04-13 10:25:12,40.1849600300429,33.3283526955637,53.805776,,,3506.3071584617,40.682416,0.447388,2.26357618792,9,3,16.463,3506.3071584617,53.805776,0.671082,3.4042323924,-0.447388,0,-6.71082,253.9, -1.8, -2.7,0,0,1024,1024,1024,1024,253.6,0,99,4.126,4.143,4.144,4.132,0,0,12.818,75.11,3506.3071584617,53.805776,14,Waypoint,
10300,2021-04-13 10:25:12,40.1849598070527,33.328352552132,54.790028,,,3507.2914104617,40.682416,0.447388,2.18311358692,9,3,16.463,3507.2914104617,54.790028,0.671082,3.4042323924,-0.447388,0,-6.934514,254, -1.6, -2.6,0,0,1024,1024,1024,1024,253.6,0,99,4.126,4.143,4.144,4.132,0,0,12.818,75.11,3507.2914104617,54.790028,14,Waypoint,
10400,2021-04-13 10:25:12,40.1849595797105,33.328352409507,55.77428,,,3508.2756624617,40.682416,0.447388,2.10187998852,9,3,16.463,3508.2756624617,55.77428,0.671082,3.4042323924,-0.447388,0,-6.934514,253.9, -1.1, -2.2,0,0,1024,1024,1024,1024,253.6,0,99,4.126,4.143,4.144,4.132,0,0,12.818,75.11,3508.2756624617,55.77428,14,Waypoint,
10500,2021-04-13 10:25:12,40.1849594193373,33.3283518154436,56.102364,,,3508.6037464617,40.682416,0.447388,2.05886817612,9,3,16.463,3508.6037464617,56.102364,0.671082,3.4042323924,-0.447388,0,-6.71082,253.9, -1, -2.1,0,0,1024,1024,1024,1024,253.6,0,99,4.126,4.143,4.144,4.132,0,0,12.818,75.11,3508.6037464617,56.102364,14,Waypoint,
10600,2021-04-13 10:25:13,40.1849593192539,33.3283516085343,57.4147,,,3509.9160824617,40.682416,0.447388,2.03129271592,9,3,16.463,3509.9160824617,57.4147,0.671082,3.4042323924,-0.447388,0,-6.934514,253.9, -0.7, -1.9,0,0,1024,1024,1024,1024,253.6,0,99,4.126,4.143,4.144,4.132,0,0,12.818,75.11,3509.9160824617,57.4147,14,Waypoint,
10700,2021-04-13 10:25:13,40.1849592243205,33.3283515591609,58.398952,,,3510.9003344617,40.682416,0.223694,1.9994587254,9,3,16.463,3510.9003344617,58.398952,0.671082,3.4042323924,-0.223694,0,-7.158208,253.9, -1.2, -1.9,0,0,1024,1024,1024,1024,253.6,0,99,4.126,4.143,4.144,4.132,0,0,12.818,75.11,3510.9003344617,58.398952,14,Waypoint,
10800,2021-04-13 10:25:13,40.184959161312,33.3283515119218,59.383204,,,3511.8845864617,40.682416,0.223694,1.97916016832,9,3,16.468,3511.8845864617,59.383204,0.671082,3.4042323924,-0.223694,0,-7.158208,253.9, -1.4, -3.5,0,0,1024,1024,1024,1024,253.6,0,98,4.119,4.133,4.134,4.122,0,0,13.172,75.11,3511.8845864617,59.383204,14,Waypoint,
10900,2021-04-13 10:25:13,40.1849589891618,33.3283515788511,60.039372,,,3512.5407544617,40.682416,0.223694,1.9140256518,9,3,16.468,3512.5407544617,60.039372,0.671082,3.4042323924,-0.223694,0,-7.158208,253.9, -1.4, -4,0,0,1024,1024,1024,1024,253.6,0,98,4.119,4.133,4.134,4.122,0,0,13.172,75.11,3512.5407544617,60.039372,14,Waypoint,
11000,2021-04-13 10:25:13,40.1849589158778,33.3283515283548,61.351708,,,3513.8530904617,40.682416,0.223694,1.89030189776,9,3,16.468,3513.8530904617,61.351708,0.671082,3.4042323924,-0.223694,0,-7.158208,253.8, -1, -4.3,0,0,1024,1024,1024,1024,253.6,0,98,4.119,4.133,4.134,4.122,0,0,13.172,75.11,3513.8530904617,61.351708,14,Waypoint,
11100,2021-04-13 10:25:13,40.1849589622233,33.3283515796839,62.33596,,,3514.8373424617,40.682416,0.223694,1.90431108456,9,3,16.468,3514.8373424617,62.33596,0.671082,3.4042323924,-0.223694,0,-7.381902,253.8, -1, -4.2,0,0,1024,1024,1024,1024,253.6,0,98,4.119,4.133,4.134,4.122,0,0,13.172,75.11,3514.8373424617,62.33596,14,Waypoint,
11200,2021-04-13 10:25:13,40.1849590141877,33.3283516581671,62.992128,,,3515.4935104617,40.682416,0.223694,1.91922906404,9,3,16.468,3515.4935104617,62.992128,0.671082,3.4042323924,-0.223694,0,-7.158208,253.7, -1.6, -4,0,0,1024,1024,1024,1024,253.6,0,98,4.119,4.133,4.134,4.122,0,0,13.172,75.11,3515.4935104617,62.992128,14,Waypoint,
11300,2021-04-13 10:25:13,40.1849590086592,33.3283518039102,64.304464,,,3516.8058464617,40.682416,0.223694,1.91092853884,9,3,16.468,3516.8058464617,64.304464,0.671082,3.4042323924,-0.223694,0,-7.158208,253.8, -1.9, -3.9,0,0,1024,1024,1024,1024,253.6,0,98,4.119,4.133,4.134,4.122,0,0,13.172,75.11,3516.8058464617,64.304464,14,Waypoint,
11400,2021-04-13 10:25:13,40.1849591276317,33.3283522530555,65.288716,,,3517.7900984617,40.682416,0.223694,1.94010176812,9,3,16.468,3517.7900984617,65.288716,0.671082,3.4042323924,-0.223694,0,-7.381902,253.8, -2.3, -3.8,0,0,1024,1024,1024,1024,253.6,0,98,4.119,4.133,4.134,4.122,0,0,13.172,75.11,3517.7900984617,65.288716,14,Waypoint,
11500,2021-04-13 10:25:13,40.184959085937,33.3283522716528,66.272968,,,3518.7743504617,40.682416,0.223694,1.92453418232,9,3,16.468,3518.7743504617,66.272968,0.671082,3.4042323924,-0.223694,0,-7.158208,253.8, -2.7, -3.4,0,0,1024,1024,1024,1024,253.6,0,98,4.119,4.133,4.134,4.122,0,0,13.172,75.11,3518.7743504617,66.272968,14,Waypoint,
11600,2021-04-13 10:25:14,40.1849590455719,33.3283522817867,66.929136,,,3519.4305184617,40.682416,0.223694,1.90963588788,9,3,16.468,3519.4305184617,66.929136,0.671082,3.4042323924,-0.223694,0,-7.158208,253.9, -2.9, -3.3,0,0,1024,1024,1024,1024,253.6,0,98,4.119,4.133,4.134,4.122,0,0,13.172,75.11,3519.4305184617,66.929136,14,Waypoint,
11700,2021-04-13 10:25:14,40.1849590456704,33.3283522991227,67.913388,,,3520.4147704617,40.682416,0.223694,1.90931436556,9,3,16.468,3520.4147704617,67.913388,0.671082,3.4042323924,-0.223694,0,-7.158208,253.9, -3, -3.2,0,0,1024,1024,1024,1024,253.6,0,98,4.119,4.133,4.134,4.122,0,0,13.172,75.11,3520.4147704617,67.913388,14,Waypoint,
11800,2021-04-13 10:25:14,40.1849590148106,33.3283521213013,69.225724,,,3521.7271064617,40.682416,0.447388,1.90235570392,9,3,16.401,3521.7271064617,69.225724,0.671082,3.4042323924,-0.447388,0,-7.381902,253.9, -2.8, -3.2,0,0,1024,1024,1024,1024,253.6,0,98,4.103,4.123,4.134,4.122,0,0,13.778,75.11,3521.7271064617,69.225724,14,Waypoint,
11900,2021-04-13 10:25:14,40.1849589424898,33.3283520348834,69.553808,,,3522.0551904617,40.682416,0.223694,1.8786746008,9,3,16.401,3522.0551904617,69.553808,0.671082,3.4042323924,-0.223694,0,-7.158208,253.9, -2.6, -3.3,0,0,1024,1024,1024,1024,253.6,0,98,4.103,4.123,4.134,4.122,0,0,13.778,75.11,3522.0551904617,69.553808,14,Waypoint,
12000,2021-04-13 10:25:14,40.1849588764141,33.3283519320557,70.53806,,,3523.0394424617,40.682416,0.223694,1.85822840592,9,3,16.401,3523.0394424617,70.53806,0.671082,3.4042323924,-0.223694,0,-7.158208,253.9, -1.9, -3.4,0,0,1024,1024,1024,1024,253.6,0,98,4.103,4.123,4.134,4.122,0,0,13.778,75.11,3523.0394424617,70.53806,14,Waypoint,
12100,2021-04-13 10:25:14,40.1849588440756,33.3283518524926,71.522312,,,3524.0236944617,40.682416,0.223694,1.8495571458,9,3,16.401,3524.0236944617,71.522312,0.671082,3.4042323924,-0.223694,0,-7.158208,253.9, -1.5, -3.7,0,0,1024,1024,1024,1024,253.6,0,98,4.103,4.123,4.134,4.122,0,0,13.778,75.11,3524.0236944617,71.522312,14,Waypoint,
12200,2021-04-13 10:25:14,40.1849587093312,33.328351628794,72.506564,,,3525.0079464617,40.682416,0,1.81108273512,9,3,16.401,3525.0079464617,72.506564,0.671082,3.4042323924,0,0,-7.158208,253.9, -1.4, -3.9,0,0,1024,1024,1024,1024,253.6,0,98,4.103,4.123,4.134,4.122,0,0,13.778,75.11,3525.0079464617,72.506564,14,Waypoint,
12300,2021-04-13 10:25:14,40.1849587561702,33.3283516320123,73.490816,,,3525.9921984617,40.682416,0,1.82773627896,9,3,16.401,3525.9921984617,73.490816,0.671082,3.4042323924,0,0,-7.158208,253.9, -1.5, -3.9,0,0,1024,1024,1024,1024,253.6,0,98,4.103,4.123,4.134,4.122,0,0,13.778,75.11,3525.9921984617,73.490816,14,Waypoint,
12400,2021-04-13 10:25:14,40.1849588053777,33.3283516594939,74.475068,,,3526.9764504617,40.682416,0,1.84407486216,9,3,16.401,3526.9764504617,74.475068,0.671082,3.4042323924,0,0,-7.381902,253.9, -2.3, -4.1,0,0,1024,1024,1024,1024,253.6,0,98,4.103,4.123,4.134,4.122,0,0,13.778,75.11,3526.9764504617,74.475068,14,Waypoint,
12500,2021-04-13 10:25:14,40.1849589010638,33.3283516859297,75.45932,,,3527.9607024617,40.682416,0.223694,1.87724415456,9,3,16.401,3527.9607024617,75.45932,0.671082,3.4042323924,-0.223694,0,-7.381902,253.9, -2.8, -3.9,0,0,1024,1024,1024,1024,253.6,0,98,4.103,4.123,4.134,4.122,0,0,13.778,75.11,3527.9607024617,75.45932,14,Waypoint,
12600,2021-04-13 10:25:15,40.1849589916655,33.3283517118499,76.115488,,,3528.6168704617,40.682416,0.223694,1.9086942868,9,3,16.401,3528.6168704617,76.115488,0.671082,3.4042323924,-0.223694,0,-7.381902,254, -2.7, -4.3,0,0,1024,1024,1024,1024,253.6,0,98,4.103,4.123,4.134,4.122,0,0,13.778,75.11,3528.6168704617,76.115488,14,Waypoint,
12700,2021-04-13 10:25:15,40.184959073034,33.328351905715,76.771656,,,3529.2730384617,40.682416,0.223694,1.93031174156,9,3,16.401,3529.2730384617,76.771656,0.671082,3.4042323924,-0.223694,0,-7.158208,254, -3, -4.2,0,0,1024,1024,1024,1024,253.6,0,98,4.103,4.123,4.134,4.122,0,0,13.778,75.11,3529.2730384617,76.771656,14,Waypoint,
12800,2021-04-13 10:25:15,40.1849591388516,33.3283520929046,78.083992,,,3530.5853744617,40.682416,0.223694,1.94817591536,9,3,16.439,3530.5853744617,78.083992,0.671082,3.4042323924,-0.223694,0,-7.381902,254.1, -3.3, -4.1,0,0,1024,1024,1024,1024,253.6,0,98,4.103,4.123,4.134,4.122,0,0,13.778,75.11,3530.5853744617,78.083992,14,Waypoint,
12900,2021-04-13 10:25:15,40.1849590746909,33.3283521275615,78.74016,,,3531.2415424617,40.682416,0.447388,1.92392722692,9,3,16.439,3531.2415424617,78.74016,0.671082,3.4042323924,-0.447388,0,-7.381902,254.2, -4.1, -4.2,0,0,1024,1024,1024,1024,253.6,0,98,4.103,4.123,4.134,4.122,0,0,13.778,75.11,3531.2415424617,78.74016,14,Waypoint,
13000,2021-04-13 10:25:15,40.1849589844051,33.328352110721,80.052496,,,3532.5538784617,40.682416,0.447388,1.89161423376,9,3,16.439,3532.5538784617,80.052496,0.671082,3.4042323924,-0.447388,0,-7.381902,254.2, -3.5, -3.5,0,0,1024,1024,1024,1024,253.6,0,98,4.103,4.123,4.134,4.122,0,0,13.778,75.11,3532.5538784617,80.052496,14,Waypoint,
13100,2021-04-13 10:25:15,40.1849587225261,33.3283518515598,81.036748,,,3533.5381304617,40.682416,0.50107456,1.80571200004,9,3,16.439,3533.5381304617,81.036748,0.671082,3.4042323924,-0.447388,-0.223694,-7.381902,254.1, -1.7, -3,0,0,1024,1024,1024,1024,253.6,0,98,4.103,4.123,4.134,4.122,0,0,13.778,75.11,3533.5381304617,81.036748,14,Waypoint,
13200,2021-04-13 10:25:15,40.1849586082309,33.3283516769026,82.021,,,3534.5223824617,40.682416,0.50107456,1.77239835068,9,4,16.439,3534.5223824617,82.021,0.671082,3.4042323924,-0.447388,-0.223694,-7.158208,254.1, -0.1, -2.6,0,0,1024,1024,1024,1024,253.6,0,98,4.103,4.123,4.134,4.122,0,0,13.778,75.11,3534.5223824617,82.021,14,Waypoint,
13300,2021-04-13 10:25:15,40.184958529069,33.3283515263132,83.005252,,,3535.5066344617,40.682416,0.50107456,1.75198168336,9,4,16.439,3535.5066344617,83.005252,0.671082,3.4042323924,-0.447388,-0.223694,-7.158208,254.1, 0.3, -2.7,0,0,1024,1024,1024,1024,253.6,0,98,4.103,4.123,4.134,4.122,0,0,13.778,75.11,3535.5066344617,83.005252,14,Waypoint,
13400,2021-04-13 10:25:15,40.1849584714461,33.3283514002022,83.66142,,,3536.1628024617,40.682416,0.50107456,1.73893378268,9,4,16.439,3536.1628024617,83.66142,0.671082,3.4042323924,-0.447388,-0.223694,-7.158208,254, 0, -3.3,0,0,1024,1024,1024,1024,253.6,0,98,4.103,4.123,4.134,4.122,0,0,13.778,75.11,3536.1628024617,83.66142,14,Waypoint,
13500,2021-04-13 10:25:15,40.1849584532527,33.3283510127484,84.317588,,,3536.8189704617,40.682416,0.31540854,1.75989506944,9,4,16.439,3536.8189704617,84.317588,0.671082,3.4042323924,-0.223694,-0.223694,-6.934514,254, -0.1, -3.7,0,0,1024,1024,1024,1024,253.6,0,98,4.103,4.123,4.134,4.122,0,0,13.778,75.11,3536.8189704617,84.317588,14,Waypoint,
13600,2021-04-13 10:25:16,40.1849584105484,33.3283508237038,85.30184,,,3537.8032224617,40.682416,0.447388,1.76070215608,9,4,16.439,3537.8032224617,85.30184,0.671082,3.4042323924,-0.447388,0,-6.71082,254, 0.2, -3.7,0,0,1024,1024,1024,1024,253.6,0,98,4.103,4.123,4.134,4.122,0,0,13.778,75.11,3537.8032224617,85.30184,14,Waypoint,
13700,2021-04-13 10:25:16,40.1849583362677,33.3283506686609,86.286092,,,3538.7874744617,40.682416,0.223694,1.74916672264,9,4,16.439,3538.7874744617,86.286092,0.671082,3.4042323924,-0.223694,0,-6.71082,254, 0.3, -3.4,0,0,1024,1024,1024,1024,253.6,0,98,4.103,4.123,4.134,4.122,0,0,13.778,75.11,3538.7874744617,86.286092,14,Waypoint,
13800,2021-04-13 10:25:16,40.1849582598233,33.3283505366867,87.598428,,,3540.0998104617,40.682416,0.223694,1.73596790332,9,4,16.43,3540.0998104617,87.598428,0.671082,3.4042323924,-0.223694,0,-6.487126,253.9, 0.3, -4.1,0,0,1024,1024,1024,1024,253.6,0,98,4.112,4.131,4.131,4.117,0,0,12.912,75.11,3540.0998104617,87.598428,14,Waypoint,
13900,2021-04-13 10:25:16,40.1849583383835,33.3283504504646,88.254596,,,3540.7559784617,40.682416,0.447388,1.7714403454,9,4,16.43,3540.7559784617,88.254596,0.671082,3.4042323924,-0.447388,0,-6.039738,253.9, 0.3, -3.9,0,0,1024,1024,1024,1024,253.6,0,98,4.112,4.131,4.131,4.117,0,0,12.912,75.11,3540.7559784617,88.254596,14,Waypoint,
14000,2021-04-13 10:25:16,40.1849583070066,33.3283504188131,88.910764,,,3541.4121464617,40.682416,0.447388,1.76410438716,9,4,16.43,3541.4121464617,88.910764,0.671082,3.4042323924,-0.447388,0,-5.816044,253.9, 0.2, -3.5,0,0,1024,1024,1024,1024,253.6,0,98,4.112,4.131,4.131,4.117,0,0,12.912,75.11,3541.4121464617,88.910764,14,Waypoint,
14100,2021-04-13 10:25:16,40.1849582630871,33.328350455206,89.566932,,,3542.0683144617,40.682416,0.447388,1.74544625008,9,4,16.43,3542.0683144617,89.566932,0.671082,3.4042323924,-0.447388,0,-5.368656,253.9, 0, -3.3,0,0,1024,1024,1024,1024,253.6,0,98,4.112,4.131,4.131,4.117,0,0,12.912,75.11,3542.0683144617,89.566932,14,Waypoint,
14200,2021-04-13 10:25:16,40.1849582126155,33.328350512928,90.2231,,,3542.7244824617,40.682416,0.447388,1.72236882152,9,4,16.43,3542.7244824617,90.2231,0.671082,3.4042323924,-0.447388,0,-5.368656,253.9, -0.5, -3.1,0,0,1024,1024,1024,1024,253.7,0,98,4.112,4.131,4.131,4.117,0,0,12.912,75.11,3542.7244824617,90.2231,14,Waypoint,
14300,2021-04-13 10:25:16,40.1849580587235,33.3283507678566,90.879268,,,3543.3806504617,40.682416,0.223694,1.64455057756,9,4,16.43,3543.3806504617,90.879268,0.671082,3.4042323924,-0.223694,0,-5.144962,254, -0.8, -3,0,0,1024,1024,1024,1024,253.7,0,98,4.112,4.131,4.131,4.117,0,0,12.912,75.11,3543.3806504617,90.879268,14,Waypoint,
14400,2021-04-13 10:25:16,40.184957916827,33.3283508602745,91.535436,,,3544.0368184617,40.682416,0.223694,1.5870899458,9,4,16.43,3544.0368184617,91.535436,0.671082,3.4042323924,-0.223694,0,-4.921268,254, -1, -2.9,0,0,1024,1024,1024,1024,253.7,0,98,4.112,4.131,4.131,4.117,0,0,12.912,75.11,3544.0368184617,91.535436,14,Waypoint,
14500,2021-04-13 10:25:16,40.1849577567627,33.3283508523648,91.86352,,,3544.3649024617,40.682416,0.223694,1.53308403856,9,4,16.43,3544.3649024617,91.86352,0.671082,3.4042323924,-0.223694,0,-4.697574,254, -0.9, -3.2,0,0,1024,1024,1024,1024,253.7,0,98,4.112,4.131,4.131,4.117,0,0,12.912,75.11,3544.3649024617,91.86352,14,Waypoint,
14600,2021-04-13 10:25:17,40.1849575874994,33.3283508426668,92.847772,,,3545.3491544617,40.682416,0.223694,1.4764764252,8,4,16.43,3545.3491544617,92.847772,0.671082,3.4042323924,-0.223694,0,-4.697574,254, -0.8, -3.2,0,0,1024,1024,1024,1024,253.7,0,98,4.112,4.131,4.131,4.117,0,0,12.912,75.11,3545.3491544617,92.847772,14,Waypoint,
14700,2021-04-13 10:25:17,40.1849574429559,33.3283508470105,93.50394,,,3546.0053224617,40.682416,0.223694,1.4271325916,8,4,16.43,3546.0053224617,93.50394,0.671082,3.4042323924,-0.223694,0,-4.47388,254.1, -0.5, -3.1,0,0,1024,1024,1024,1024,253.7,0,98,4.112,4.131,4.131,4.117,0,0,12.912,75.11,3546.0053224617,93.50394,14,Waypoint,
14800,2021-04-13 10:25:17,40.1849572224674,33.3283507311436,94.160108,,,3546.6614904617,40.682416,0.223694,1.36640096236,9,4,16.399,3546.6614904617,94.160108,0.671082,3.4042323924,-0.223694,0,-4.250186,254.1, -0.1, -2.7,0,0,1024,1024,1024,1024,253.7,0,98,4.106,4.126,4.131,4.117,0,0,12.732,75.11,3546.6614904617,94.160108,14,Waypoint,
14900,2021-04-13 10:25:17,40.1849570294207,33.3283507375912,94.488192,,,3546.9895744617,40.682416,0.223694,1.30207681332,9,4,16.399,3546.9895744617,94.488192,0.671082,3.4042323924,-0.223694,0,-4.026492,254.1, -0.1, -2.3,0,0,1024,1024,1024,1024,253.7,0,98,4.106,4.126,4.131,4.117,0,0,12.732,75.11,3546.9895744617,94.488192,14,Waypoint,
15000,2021-04-13 10:25:17,40.1849568401975,33.3283507566322,95.14436,,,3547.6457424617,40.682416,0.223694,1.23803809736,9,4,16.399,3547.6457424617,95.14436,0.671082,3.4042323924,-0.223694,0,-3.802798,254, -0.4, -2.4,0,0,1024,1024,1024,1024,253.7,0,98,4.106,4.126,4.131,4.117,0,0,12.732,75.11,3547.6457424617,95.14436,14,Waypoint,
15100,2021-04-13 10:25:17,40.1849567125149,33.3283508822769,95.472444,,,3547.9738264617,40.682416,0.223694,1.180610274,9,4,16.399,3547.9738264617,95.472444,0.671082,3.4042323924,-0.223694,0,-3.35541,254, -0.4, -2.4,0,0,1024,1024,1024,1024,253.7,0,98,4.106,4.126,4.131,4.117,0,0,12.732,75.11,3547.9738264617,95.472444,14,Waypoint,
15200,2021-04-13 10:25:17,40.184956593294,33.3283511187102,96.128612,,,3548.6299944617,40.682416,0,1.11270016684,9,4,16.399,3548.6299944617,96.128612,0.671082,3.4042323924,0,0,-3.35541,254, -0.8, -2.2,0,0,1024,1024,1024,1024,253.7,0,98,4.106,4.126,4.131,4.117,0,0,12.732,75.11,3548.6299944617,96.128612,14,Waypoint,
15300,2021-04-13 10:25:17,40.1849564561917,33.3283510947624,96.78478,,,3549.2861624617,40.682416,0,1.07046919436,9,4,16.399,3549.2861624617,96.78478,0.671082,3.4042323924,0,0,-2.908022,253.9, -0.9, -2.4,0,0,1024,1024,1024,1024,253.7,0,98,4.106,4.126,4.131,4.117,0,0,12.732,75.11,3549.2861624617,96.78478,14,Waypoint,
15400,2021-04-13 10:25:17,40.1849563107049,33.3283510691889,96.78478,,,3549.2861624617,40.682416,0,1.02648953416,9,4,16.399,3549.2861624617,96.78478,0.671082,3.4042323924,0,0,-2.684328,253.9, -0.8, -2.2,0,0,1024,1024,1024,1024,253.7,0,98,4.106,4.126,4.131,4.117,0,0,12.732,75.11,3549.2861624617,96.78478,14,Waypoint,
15500,2021-04-13 10:25:17,40.184956122129,33.3283510677796,97.440948,,,3549.9423304617,40.682416,0,0.96647312804,9,4,16.399,3549.9423304617,97.440948,0.671082,3.4042323924,0,0,-2.684328,253.9, -0.7, -2.2,0,0,1024,1024,1024,1024,253.7,0,98,4.106,4.126,4.131,4.117,0,0,12.732,75.11,3549.9423304617,97.440948,14,Waypoint,
15600,2021-04-13 10:25:18,40.1849558831451,33.3283508253104,97.769032,,,3550.2704144617,40.682416,0,0.93024281192,9,4,16.399,3550.2704144617,97.769032,0.671082,3.4042323924,0,0,-2.460634,253.9, -0.6, -2.2,0,0,1024,1024,1024,1024,253.7,0,98,4.106,4.126,4.131,4.117,0,0,12.732,75.11,3550.2704144617,97.769032,14,Waypoint,
15700,2021-04-13 10:25:18,40.1849557870934,33.3283508976751,98.4252,,,3550.9265824617,40.682416,0,0.89006236444,9,4,16.399,3550.9265824617,98.4252,0.671082,3.4042323924,0,0,-2.460634,253.8, -0.6, -2.2,0,0,1024,1024,1024,1024,253.7,0,98,4.106,4.126,4.131,4.117,0,0,12.732,75.11,3550.9265824617,98.4252,14,Waypoint,
15800,2021-04-13 10:25:18,40.1849556942289,33.3283509879969,98.753284,,,3551.2546664617,40.682416,0,0.847851077,9,4,16.422,3551.2546664617,98.753284,0.671082,3.4042323924,0,0,-2.013246,253.8, -0.8, -2.4,0,0,1024,1024,1024,1024,253.7,0,98,4.132,4.144,4.146,4.131,0,0,11.202,75.11,3551.2546664617,98.753284,14,Waypoint,
15900,2021-04-13 10:25:18,40.1849555367742,33.3283510437725,99.081368,,,3551.5827504617,40.682416,0,0.79272312248,9,4,16.422,3551.5827504617,99.081368,0.671082,3.4042323924,0,0,-2.013246,253.9, -1, -2.3,0,0,1024,1024,1024,1024,253.7,0,98,4.132,4.144,4.146,4.131,0,0,11.202,75.11,3551.5827504617,99.081368,14,Waypoint,
16000,2021-04-13 10:25:18,40.1849553743036,33.3283510959813,99.409452,,,3551.9108344617,40.682416,0,0.73751314696,9,4,16.422,3551.9108344617,99.409452,0.671082,3.4042323924,0,0,-1.789552,253.9, -1.1, -2.1,0,0,1024,1024,1024,1024,253.7,0,98,4.132,4.144,4.146,4.131,0,0,11.202,75.11,3551.9108344617,99.409452,14,Waypoint,
16100,2021-04-13 10:25:18,40.1849551869385,33.3283512379862,99.737536,,,3552.2389184617,40.682416,0,0.65985238332,9,4,16.422,3552.2389184617,99.737536,0.671082,3.4042323924,0,0,-1.565858,253.9, -1.3, -2,0,0,1024,1024,1024,1024,253.7,0,98,4.132,4.144,4.146,4.131,0,0,11.202,75.11,3552.2389184617,99.737536,14,Waypoint,
16200,2021-04-13 10:25:18,40.1849549998797,33.3283513926204,100.06562,,,3552.5670024617,40.682416,0,0.5802493624,8,4,16.422,3552.5670024617,100.06562,0.671082,3.4042323924,0,0,-1.11847,254.3, -1.6, -2.3,0,0,1024,1024,1024,1024,253.7,0,98,4.132,4.144,4.146,4.131,0,0,11.202,75.11,3552.5670024617,100.06562,14,Waypoint,
16300,2021-04-13 10:25:18,40.184954811941,33.3283515015013,100.06562,,,3552.5670024617,40.682416,0,0.50973098744,8,4,16.422,3552.5670024617,100.06562,0.671082,3.4042323924,0,0,-0.671082,255.2, -1.7, -2.8,0,0,1024,1024,1024,1024,253.7,0,98,4.132,4.144,4.146,4.131,0,0,11.202,75.11,3552.5670024617,100.06562,14,Waypoint,
16400,2021-04-13 10:25:18,40.184954621535,33.3283516112493,100.393704,,,3552.8950864617,40.682416,0,0.43991471224,9,4,16.422,3552.8950864617,100.393704,0.671082,3.4042323924,0,0,-0.447388,256.8, -1.9, -2.6,0,0,1024,1024,1024,1024,253.9,0,98,4.132,4.144,4.146,4.131,0,0,11.202,75.11,3552.8950864617,100.393704,14,Waypoint,
16500,2021-04-13 10:25:18,40.1849541393083,33.3283516474773,100.721788,,,3553.2231704617,40.682416,0,0.3403215332,9,4,16.422,3553.2231704617,100.721788,0.671082,3.4042323924,0,0,-0.223694,258.9, -1.7, -2.6,0,0,1024,1024,1024,1024,254.3,0,98,4.132,4.144,4.146,4.131,0,0,11.202,75.11,3553.2231704617,100.721788,14,Waypoint,
16600,2021-04-13 10:25:19,40.1849539307488,33.3283517099516,100.721788,,,3553.2231704617,40.682416,0,0.305568579332,9,4,16.422,3553.2231704617,100.721788,0.671082,3.4042323924,0,0,0,261.6, -1.4, -2.5,0,0,1024,1024,1024,1024,255.3,0,98,4.132,4.144,4.146,4.131,0,0,11.202,75.11,3553.2231704617,100.721788,14,Waypoint,
16700,2021-04-13 10:25:19,40.1849537394858,33.3283517817369,100.721788,,,3553.2231704617,40.682416,0,0.284948171848,9,4,16.422,3553.2231704617,100.721788,0.671082,3.4042323924,0,0,0,264.7, -1.4, -2.5,0,0,1024,1024,1024,1024,257,0,98,4.132,4.144,4.146,4.131,0,0,11.202,75.11,3553.2231704617,100.721788,14,Waypoint,
16800,2021-04-13 10:25:19,40.1849535427128,33.3283518464071,100.721788,,,3553.2231704617,40.682416,0,0.2846374763,9,4,16.394,3553.2231704617,100.721788,0.671082,3.4042323924,0,0,0,267.8, -1.4, -2.9,0,0,1024,1024,1024,1024,257,0,98,4.132,4.144,4.146,4.131,0,0,9.996,75.11,3553.2231704617,100.721788,14,Waypoint,
16900,2021-04-13 10:25:19,40.1849534059474,33.3283517728492,101.049872,,,3553.5512544617,40.682416,0.223694,0.324238527436,9,4,16.394,3553.5512544617,101.049872,0.671082,3.4042323924,0.223694,0,0,270.3, -0.8, -3.4,0,0,1024,1024,1024,1024,259.3,0,98,4.132,4.144,4.146,4.131,0,0,9.996,75.11,3553.5512544617,101.049872,14,Waypoint,
17000,2021-04-13 10:25:19,40.1849532607191,33.3283517743661,101.049872,,,3553.5512544617,40.682416,0,0.35207022124,9,4,16.394,3553.5512544617,101.049872,0.671082,3.4042323924,0,0,0,272, -0.4, -4.1,0,0,1024,1024,1024,1024,261.6,0,98,4.132,4.144,4.146,4.131,0,0,9.996,75.11,3553.5512544617,101.049872,14,Waypoint,
17100,2021-04-13 10:25:19,40.1849529851478,33.3283517689965,101.049872,,,3553.5512544617,40.682416,0,0.42002297932,9,4,16.394,3553.5512544617,101.049872,0.671082,3.4042323924,0,0,0,273.1, 0, -4.3,0,0,1024,1024,1024,1024,263.8,0,98,4.132,4.144,4.146,4.131,0,0,9.996,75.11,3553.5512544617,101.049872,14,Waypoint,
17200,2021-04-13 10:25:19,40.1849526817102,33.3283517778517,101.377956,,,3553.8793384617,40.682416,0,0.50519686656,9,4,16.394,3553.8793384617,101.377956,0.671082,3.4042323924,0,0,0,273.7, 0, -4.5,0,0,1024,1024,1024,1024,265.6,0,98,4.132,4.144,4.146,4.131,0,0,9.996,75.11,3553.8793384617,101.377956,14,Waypoint,
17300,2021-04-13 10:25:19,40.1849523471978,33.3283515130185,101.377956,,,3553.8793384617,40.682416,0,0.6476706244,9,4,16.394,3553.8793384617,101.377956,0.671082,3.4042323924,0,0,0,273.8, 0, -4.5,0,0,1024,1024,1024,1024,267,0,98,4.132,4.144,4.146,4.131,0,0,9.996,75.11,3553.8793384617,101.377956,14,Waypoint,
17400,2021-04-13 10:25:19,40.1849521177809,33.3283514858713,101.377956,,,3553.8793384617,40.682416,0,0.72270999688,8,4,16.394,3553.8793384617,101.377956,0.671082,3.4042323924,0,0,0,274.3, 0, -4.7,0,0,1024,1024,1024,1024,268,0,98,4.132,4.144,4.146,4.131,0,0,9.996,75.11,3553.8793384617,101.377956,14,Waypoint,
17500,2021-04-13 10:25:19,40.1849519173659,33.3283515249201,101.377956,,,3553.8793384617,40.682416,0,0.78165028748,8,4,16.394,3553.8793384617,101.377956,0.671082,3.4042323924,0,0,0,275.2, -0.3, -4.3,0,0,1024,1024,1024,1024,269,0,98,4.132,4.144,4.146,4.131,0,0,9.996,75.11,3553.8793384617,101.377956,14,Waypoint,
17600,2021-04-13 10:25:20,40.1849517066514,33.328351577011,101.377956,,,3553.8793384617,40.682416,0,0.84492128688,8,4,16.394,3553.8793384617,101.377956,0.671082,3.4042323924,0,0,0,275.8, -1.5, -3.4,0,0,1024,1024,1024,1024,269.9,0,98,4.132,4.144,4.146,4.131,0,0,9.996,75.11,3553.8793384617,101.377956,14,Waypoint,
17700,2021-04-13 10:25:20,40.1849513149638,33.3283517613804,101.377956,,,3553.8793384617,40.682416,0,0.9607447814,8,4,16.394,3553.8793384617,101.377956,0.671082,3.4042323924,0,0,0,275.9, -5.2, -1.6,0,0,1024,1024,1024,1024,270.7,0,98,4.132,4.144,4.146,4.131,0,0,9.996,75.11,3553.8793384617,101.377956,14,Waypoint,
17800,2021-04-13 10:25:20,40.1849510264104,33.3283517962673,101.377956,,,3553.8793384617,40.682416,0,1.05901906276,8,4,16.426,3553.8793384617,101.377956,0.671082,3.4042323924,0,0,0,275.9, -9.5, -1.2,0,0,1024,1024,1024,1024,271.2,0,98,4.128,4.147,4.155,4.157,0,0,9.996,75.11,3553.8793384617,101.377956,14,Waypoint,
17900,2021-04-13 10:25:20,40.1849507842447,33.3283517056993,101.377956,,,3553.8793384617,40.682416,0.447388,1.1509022678,8,4,16.426,3553.8793384617,101.377956,0.671082,3.4042323924,0,-0.447388,0,275.9, -12.8, -1.1,0,0,1024,1024,1024,1024,271.7,0,98,4.128,4.147,4.155,4.157,0,0,9.996,75.11,3553.8793384617,101.377956,14,Waypoint,
18000,2021-04-13 10:25:20,40.1849506062665,33.3283514095796,101.377956,,,3553.8793384617,40.682416,0.894776,1.23693245428,9,4,16.426,3553.8793384617,101.377956,0.894776,3.4042323924,0,-0.894776,0,275.9, -15.5, -1.3,0,0,1024,1024,1024,1024,272,0,98,4.128,4.147,4.155,4.157,0,0,9.996,75.11,3553.8793384617,101.377956,14,Waypoint,
18100,2021-04-13 10:25:20,40.1849504298129,33.3283507724905,101.377956,,,3553.8793384617,40.682416,1.58151658,1.36175201208,9,4,16.426,3553.8793384617,101.377956,1.58151658,3.4042323924,0.223694,-1.565858,0,275.9, -17.4, -1.1,0,0,1024,1024,1024,1024,272.3,0,98,4.128,4.147,4.155,4.157,0,0,9.996,75.11,3553.8793384617,101.377956,14,Waypoint,
18200,2021-04-13 10:25:20,40.1849501126245,33.3283498776432,101.377956,,,3553.8793384617,40.682416,2.4718187,1.580626691,9,4,16.426,3553.8793384617,101.377956,2.4718187,3.4042323924,0.223694,-2.460634,0,275.8, -18.9, -0.8,0,0,1024,1024,1024,1024,272.3,0,98,4.128,4.147,4.155,4.157,0,0,9.996,75.11,3553.8793384617,101.377956,14,Waypoint,
18300,2021-04-13 10:25:20,40.1849499547229,33.3283483931051,101.049872,,,3553.5512544617,40.682416,3.16303316,1.87152893128,9,4,16.426,3553.8793384617,101.377956,3.16303316,3.4042323924,0.447388,-3.131716,0,275.8, -19.8, -0.6,0,0,1024,1024,1024,1024,272.6,0,98,4.128,4.147,4.155,4.157,0,0,9.996,75.11,3553.5512544617,101.049872,14,Waypoint,
