time(millisecond),datetime(utc),latitude,longitude,height_above_takeoff(feet),height_above_ground_at_drone_location(feet),ground_elevation_at_drone_location(feet),altitude_above_seaLevel(feet),height_sonar(feet),speed(mph),distance(feet),satellites,gpslevel,voltage(v),max_altitude(feet),max_ascent(feet),max_speed(mph),max_distance(feet), xSpeed(mph), ySpeed(mph), zSpeed(mph), compass_heading(degrees), pitch(degrees), roll(degrees),isPhoto,isVideo,rc_elevator,rc_aileron,rc_throttle,rc_rudder,gimbal_heading(degrees),gimbal_pitch(degrees),battery_percent,voltageCell1,voltageCell2,voltageCell3,voltageCell4,voltageCell5,voltageCell6,current(A),battery_temperature(f),altitude(feet),ascent(feet),flycStateRaw,flycState,message
503100,,40.1849126336658,33.3282985852772,0,Available with any HD 360 subscription,Available with any HD 360 subscription,3452.6367492639,0.328084,0,0,14,5,0,3452.6367492639,0,0,0,0,0,0,110.8, 0, 0.4,0,0,1024,1024,1024,1024,110.8,0,37,3.768,3.77,3.772,3.769,0,0,0,102.11,3452.6367492639,0,41,Motors_Started,
503200,,40.1849126119138,33.3282985837888,0,,,3452.6367492639,0.328084,0,0.0079470474984,14,5,0,3452.6367492639,0,0,0.0079470474984,0,0,0,111.4, 0, 0.5,0,0,1024,1024,1024,1024,110.8,0,37,3.768,3.77,3.772,3.769,0,0,0,102.11,3452.6367492639,0,41,Motors_Started,
503300,,40.1849126001009,33.3282985810811,0,,,3452.6367492639,0.328084,0,0.012301837664,15,5,0,3452.6367492639,0,0,0.012301837664,0,0,0,110.9, 0, 0.5,0,0,1024,1024,1024,1024,110.8,0,37,3.768,3.77,3.772,3.769,0,0,0,102.11,3452.6367492639,0,41,Motors_Started,
503400,,40.1849126786095,33.3282985286538,0,,,3452.6367492639,0.328084,0,0.0227591542716,15,5,0,3452.6367492639,0,0,0.0227591542716,0,0,0,110.5, 0, 0.4,0,0,1024,1024,1024,1024,110.8,0,37,3.768,3.77,3.772,3.769,0,0,0,102.11,3452.6367492639,0,41,Motors_Started,
503500,,40.1849126812816,33.3282985170774,0,,,3452.6367492639,0.328084,0,0.0257520349448,14,5,0,3452.6367492639,0,0,0.0257520349448,0,0,0,110.5, 0, 0.4,0,0,1024,1024,1024,1024,110.8,0,37,3.768,3.77,3.772,3.769,0,0,0,102.11,3452.6367492639,0,41,Motors_Started,
503600,2021-04-16 08:39:01,40.1849126506216,33.3282985474311,0,,,3452.6367492639,0.328084,0,0.0122290686328,14,5,0,3452.6367492639,0,0,0.0257520349448,0,0,0,110.8, 0, 0.4,0,0,1024,1024,1024,1024,110.8,0,37,3.768,3.77,3.772,3.769,0,0,0,102.11,3452.6367492639,0,41,Motors_Started,
503700,2021-04-16 08:39:01,40.184912605995,33.328298591441,0,,,3452.6367492639,0.328084,0,0.010240813976,14,5,0,3452.6367492639,0,0,0.0257520349448,0,0,0,111.1, 0, 0.5,0,0,1024,1024,1024,1024,110.8,0,37,3.768,3.77,3.772,3.769,0,0,0,102.11,3452.6367492639,0,41,Motors_Started,
503800,2021-04-16 08:39:01,40.1849124627694,33.3282986741659,0,,,3452.6367492639,0.328084,0,0.067093834168,14,5,0,3452.6367492639,0,0,0.067093834168,0,0,0,111, 0, 0.4,0,0,1024,1024,1024,1024,110.8,0,37,3.768,3.77,3.772,3.769,0,0,0,102.11,3452.6367492639,0,41,Motors_Started,
503900,2021-04-16 08:39:01,40.1849124011076,33.3282986871914,0,,,3452.6367492639,0.328084,0,0.089477693152,15,5,15.009,3452.6367492639,0,0,0.089477693152,0,0,0,110.7, -0.1, 0.4,0,0,1024,1024,1024,1024,110.8,0,37,3.768,3.77,3.772,3.769,0,0,1.498,102.11,3452.6367492639,0,41,Motors_Started,Setting new Return-To-Home altitude to 150m (492 ft). Data Recorder File Index is 382. Setting new Maximum Flight Altitude to 500m (1640 ft)
504000,2021-04-16 08:39:01,40.1849123373659,33.3282986881024,0,,,3452.6367492639,0.328084,0,13.590223532,15,5,15.009,3452.6367492639,0,0,13.590223532,0,0,0,110.7, -0.1, 0.4,0,0,1024,1024,1024,1024,110.8,0,37,3.768,3.77,3.772,3.769,0,0,1.498,102.11,3452.6367492639,0,41,Motors_Started,
504100,2021-04-16 08:39:01,40.184912271793,33.3282986862916,0,,,3452.6367492639,0.328084,0,13.5923232696,14,5,15.009,3452.6367492639,0,0,13.5923232696,0,0,0,110.8, -0.1, 0.5,0,0,1024,1024,1024,1024,110.8,0,37,3.768,3.77,3.772,3.769,0,0,1.498,102.11,3452.6367492639,0,41,Motors_Started,
504200,2021-04-16 08:39:01,40.184912214227,33.3282986816723,0,,,3452.6367492639,0.328084,0,13.5950135584,14,5,15.009,3452.6367492639,0,0,13.5950135584,0,0,0,111, -0.1, 0.4,0,0,1024,1024,1024,1024,110.8,0,37,3.768,3.77,3.772,3.769,0,0,1.498,102.11,3452.6367492639,0,41,Motors_Started,
504300,2021-04-16 08:39:01,40.184912099089,33.3282986297439,0,,,3452.6367492639,0.328084,0,13.612369202,15,5,15.009,3452.6367492639,0,0,13.612369202,0,0,0,110.9, 0, 0.4,0,0,1024,1024,1024,1024,110.8,0,37,3.768,3.77,3.772,3.769,0,0,1.498,102.11,3452.6367492639,0,41,Motors_Started,
504400,2021-04-16 08:39:01,40.1849120784208,33.3282986621494,0,,,3452.6367492639,0.328084,0,13.6038718264,15,5,15.009,3452.6367492639,0,0,13.612369202,0,0,0,110.8, -0.1, 0.4,0,0,1024,1024,1024,1024,110.8,0,37,3.768,3.77,3.772,3.769,0,0,1.498,102.11,3452.6367492639,0,41,Motors_Started,
504500,2021-04-16 08:39:02,40.1849120662081,33.3282987075524,0,,,3452.6367492639,0.328084,0,13.5915686764,15,5,15.009,3452.6367492639,0,0,13.612369202,0,0,0,110.8, 0, 0.4,0,0,1024,1024,1024,1024,110.8,0,37,3.768,3.77,3.772,3.769,0,0,1.498,102.11,3452.6367492639,0,41,Motors_Started,
504600,2021-04-16 08:39:02,40.1849120339963,33.3282987290906,0,,,3452.6367492639,0.328084,0,13.586450566,15,5,15.009,3452.6367492639,0,0,13.612369202,0,0,0,110.8, 0, 0.4,0,0,1024,1024,1024,1024,110.8,0,37,3.768,3.77,3.772,3.769,0,0,1.498,102.11,3452.6367492639,0,11,AutoTakeoff,
504700,2021-04-16 08:39:02,40.184912056309,33.3282987951236,0,,,3452.6367492639,0.328084,0,13.5674873108,15,5,15.009,3452.6367492639,0,0,13.612369202,0,0,0,110.8, 0, 0.4,0,0,1024,1024,1024,1024,110.8,0,37,3.768,3.77,3.772,3.769,0,0,1.498,102.11,3452.6367492639,0,11,AutoTakeoff,
504800,2021-04-16 08:39:02,40.1849120426064,33.328298833407,0,,,3452.6367492639,0.328084,0,13.5572182816,15,5,15.009,3452.6367492639,0,0,13.612369202,0,0,0,110.9, 0, 0.4,0,0,1024,1024,1024,1024,110.8,0,37,3.768,3.77,3.772,3.769,0,0,1.498,102.11,3452.6367492639,0,11,AutoTakeoff,
504900,2021-04-16 08:39:02,40.1849120356804,33.3282988811392,0,,,3452.6367492639,0.328084,0,13.54412773,14,5,14.861,3452.6367492639,0,0,13.612369202,0,0,0,110.9, 0, 0.4,0,0,1024,1024,1024,1024,110.8,0,37,3.734,3.739,3.746,3.742,0,0,4.12,102.11,3452.6367492639,0,11,AutoTakeoff,
505000,2021-04-16 08:39:02,40.1849120398812,33.3282988985655,0,,,3452.6367492639,0.328084,0,13.5391736616,14,5,14.861,3452.6367492639,0,0,13.612369202,0,0,0,110.8, 0, 0.4,0,0,1024,1024,1024,1024,110.8,0,37,3.734,3.739,3.746,3.742,0,0,4.12,102.11,3452.6367492639,0,11,AutoTakeoff,
505100,2021-04-16 08:39:02,40.1849121695153,33.3282989264833,0,,,3452.6367492639,0.328084,0,13.528051614,13,4,14.861,3452.6367492639,0,0,13.612369202,0,0,0,110.7, 0, 0.4,0,0,1024,1024,1024,1024,110.8,0,37,3.734,3.739,3.746,3.742,0,0,4.12,102.11,3452.6367492639,0,11,AutoTakeoff,
505200,2021-04-16 08:39:02,40.1849121438845,33.328298957263,0,,,3452.6367492639,0.328084,0,13.5201447896,13,4,14.861,3452.6367492639,0,0,13.612369202,0,0,0,110.8, -0.1, 0.5,0,0,1024,1024,1024,1024,110.8,0,37,3.734,3.739,3.746,3.742,0,0,4.12,102.11,3452.6367492639,0,11,AutoTakeoff,
505300,2021-04-16 08:39:02,40.1849121001117,33.3282990008777,0,,,3452.6367492639,0.328084,0,13.5091539756,13,4,14.861,3452.6367492639,0,0,13.612369202,0,0,0,110.8, -0.1, 0.5,0,0,1024,1024,1024,1024,110.8,0,37,3.734,3.739,3.746,3.742,0,0,4.12,102.11,3452.6367492639,0,11,AutoTakeoff,
505400,2021-04-16 08:39:02,40.1849120397162,33.3282990202436,0,,,3452.6367492639,0.328084,0,13.5053482012,13,4,14.861,3452.6367492639,0,0,13.612369202,0,0,0,110.7, -0.5, 0.3,0,0,1024,1024,1024,1024,110.8,0,37,3.734,3.739,3.746,3.742,0,0,4.12,102.11,3452.6367492639,0,11,AutoTakeoff,
505500,2021-04-16 08:39:03,40.184911877446,33.3282990718216,0,,,3452.6367492639,0.328084,0,13.4954728728,13,4,14.861,3452.6367492639,0,0,13.612369202,0,0,0,110.1, -2.1, -0.6,0,0,1024,1024,1024,1024,110.8,0,37,3.734,3.739,3.746,3.742,0,0,4.12,102.11,3452.6367492639,0,11,AutoTakeoff,
505600,2021-04-16 08:39:03,40.1849118379806,33.3282991909154,0,,,3452.6367492639,0.328084,0.223694,13.4635174912,13,4,14.861,3452.6367492639,0,0.223694,13.612369202,0,0.223694,-0.223694,109.3, -3.9, -2.2,0,0,1024,1024,1024,1024,110.7,0,37,3.734,3.739,3.746,3.742,0,0,4.12,102.11,3452.6367492639,0,11,AutoTakeoff,
505700,2021-04-16 08:39:03,40.1849118146064,33.3282994298625,0,,,3452.6367492639,0.656168,0.447388,13.397802266,13,4,14.861,3452.6367492639,0,0.447388,13.612369202,0,0.447388,-0.671082,109, -2.3, -1.8,0,0,1024,1024,1024,1024,110.7,0,37,3.734,3.739,3.746,3.742,0,0,4.12,102.11,3452.6367492639,0,11,AutoTakeoff,
505800,2021-04-16 08:39:03,40.1849117854496,33.3282997263104,0,,,3452.6367492639,0.656168,0.447388,13.316273392,13,4,14.861,3452.6367492639,0,0.447388,13.612369202,0,0.447388,-0.894776,108.8, 1.1, 0,0,0,1024,1024,1024,1024,110.6,0,37,3.734,3.739,3.746,3.742,0,0,4.12,102.11,3452.6367492639,0,11,AutoTakeoff,
505900,2021-04-16 08:39:03,40.1849117580155,33.3283000585806,0,,,3452.6367492639,0.984252,0.447388,13.2248035728,13,4,15.019,3452.6367492639,0,0.447388,13.612369202,0,0.447388,-1.11847,108.9, 3.3, 1.7,0,0,1024,1024,1024,1024,110.6,0,37,3.734,3.739,3.746,3.742,0,0,4.12,102.11,3452.6367492639,0,11,AutoTakeoff,
506000,2021-04-16 08:39:03,40.1849118045455,33.3283003977125,0.328084,,,3452.9648332639,0.984252,0.447388,13.1291998952,13,4,15.019,3452.9648332639,0.328084,0.447388,13.612369202,0,0.447388,-1.11847,109, 3.5, 2.1,0,0,1024,1024,1024,1024,110.5,0,37,3.734,3.739,3.746,3.742,0,0,4.12,102.11,3452.9648332639,0.328084,11,AutoTakeoff,
506100,2021-04-16 08:39:03,40.1849118019054,33.3283006868502,0.656168,,,3453.2929172639,1.312336,0.223694,13.0489505488,13,4,15.019,3453.2929172639,0.656168,0.447388,13.612369202,0,0.223694,-1.11847,109.1, 3.3, 1.4,0,0,1024,1024,1024,1024,110.5,0,37,3.734,3.739,3.746,3.742,0,0,4.12,102.11,3453.2929172639,0.656168,11,AutoTakeoff,
506200,2021-04-16 08:39:03,40.184911727728,33.3283009286985,0.656168,,,3453.2929172639,1.312336,0.223694,12.9840555336,13,4,15.019,3453.2929172639,0.656168,0.447388,13.612369202,0,0.223694,-1.11847,109.2, 2.7, 0.7,0,0,1024,1024,1024,1024,110.5,0,37,3.734,3.739,3.746,3.742,0,0,4.12,102.11,3453.2929172639,0.656168,11,AutoTakeoff,
506300,2021-04-16 08:39:03,40.1849116236806,33.3283011471585,0.984252,,,3453.6210012639,1.64042,0,12.926673642,15,4,15.019,3453.6210012639,0.984252,0.447388,13.612369202,0,0,-0.894776,109.2, 2.2, 0,0,0,1024,1024,1024,1024,110.4,0,37,3.734,3.739,3.746,3.742,0,0,4.12,102.11,3453.6210012639,0.984252,11,AutoTakeoff,
506400,2021-04-16 08:39:03,40.1849115545836,33.3283015426615,0.984252,,,3453.6210012639,1.64042,0,12.8191277068,15,4,15.019,3453.6210012639,0.984252,0.447388,13.612369202,0,0,-0.894776,109.1, 1.7, -0.5,0,0,1024,1024,1024,1024,110.4,0,37,3.734,3.739,3.746,3.742,0,0,4.12,102.11,3453.6210012639,0.984252,11,AutoTakeoff,
506500,2021-04-16 08:39:04,40.1849115263478,33.3283016823826,0.984252,,,3453.6210012639,1.968504,0,12.7812668132,13,4,15.019,3453.6210012639,0.984252,0.447388,13.612369202,0,0,-0.894776,109, 1, 0.1,0,0,1024,1024,1024,1024,110.4,0,37,3.734,3.739,3.746,3.742,0,0,4.12,102.11,3453.6210012639,0.984252,11,AutoTakeoff,
506600,2021-04-16 08:39:04,40.1849115283864,33.3283017069032,1.312336,,,3453.9490852639,1.968504,0,12.7744098576,13,4,15.019,3453.9490852639,1.312336,0.447388,13.612369202,0,0,-0.894776,109, 1.1, 0.4,0,0,1024,1024,1024,1024,110.4,0,37,3.734,3.739,3.746,3.742,0,0,4.12,102.11,3453.9490852639,1.312336,11,AutoTakeoff,
506700,2021-04-16 08:39:04,40.1849115416356,33.3283016883081,1.312336,,,3453.9490852639,2.296588,0,12.7791014588,14,4,15.019,3453.9490852639,1.312336,0.447388,13.612369202,0,0,-0.894776,109, 0.7, 0.1,0,0,1024,1024,1024,1024,110.3,0,37,3.734,3.739,3.746,3.742,0,0,4.12,102.11,3453.9490852639,1.312336,11,AutoTakeoff,
506800,2021-04-16 08:39:04,40.1849114724968,33.3283014562255,1.64042,,,3454.2771692639,2.296588,0,12.8458665528,14,4,15.019,3454.2771692639,1.64042,0.447388,13.612369202,0,0,-0.894776,109.1, 0.5, 0.1,0,0,1024,1024,1024,1024,110.3,0,37,3.734,3.739,3.746,3.742,0,0,4.12,102.11,3454.2771692639,1.64042,11,AutoTakeoff,
506900,2021-04-16 08:39:04,40.1849114231762,33.3283014776488,1.64042,,,3454.2771692639,2.624672,0,12.8416014608,13,4,14.756,3454.2771692639,1.64042,0.447388,13.612369202,0,0,-0.894776,109, 0.6, 0.4,0,0,1024,1024,1024,1024,110.3,0,37,3.738,3.743,3.741,3.729,0,0,4.612,102.11,3454.2771692639,1.64042,11,AutoTakeoff,
507000,2021-04-16 08:39:04,40.1849113195997,33.3283015323297,1.968504,,,3454.6052532639,2.624672,0,12.830052904,13,4,14.756,3454.6052532639,1.968504,0.447388,13.612369202,0,0,-0.894776,108.9, 1, 0.5,0,0,1024,1024,1024,1024,110.3,0,37,3.738,3.743,3.741,3.729,0,0,4.612,102.11,3454.6052532639,1.968504,11,AutoTakeoff,
507100,2021-04-16 08:39:04,40.1849111957317,33.3283016099419,1.968504,,,3454.6052532639,2.952756,0,12.812992536,13,4,14.756,3454.6052532639,1.968504,0.447388,13.612369202,0,0,-0.894776,108.9, 1.1, 1,0,0,1024,1024,1024,1024,110.2,0,37,3.738,3.743,3.741,3.729,0,0,4.612,102.11,3454.6052532639,1.968504,11,AutoTakeoff,
507200,2021-04-16 08:39:04,40.1849109619591,33.3283016874784,2.296588,,,3454.9333372639,2.952756,0,12.8004269188,13,4,14.756,3454.9333372639,2.296588,0.447388,13.612369202,0,0,-0.894776,108.8, 1.1, 1.4,0,0,1024,1024,1024,1024,110.2,0,37,3.738,3.743,3.741,3.729,0,0,4.612,102.11,3454.9333372639,2.296588,11,AutoTakeoff,
507300,2021-04-16 08:39:04,40.1849109054585,33.3283017477317,2.296588,,,3454.9333372639,3.28084,0,12.7859584144,14,4,14.756,3454.9333372639,2.296588,0.447388,13.612369202,0,0,-0.894776,108.8, 1.2, 1.5,0,0,1024,1024,1024,1024,110.2,0,37,3.738,3.743,3.741,3.729,0,0,4.612,102.11,3454.9333372639,2.296588,11,AutoTakeoff,
507400,2021-04-16 08:39:04,40.1849109262888,33.3283018365951,2.624672,,,3455.2614212639,3.28084,0,12.760499096,14,4,14.756,3455.2614212639,2.624672,0.447388,13.612369202,0,0,-0.894776,108.9, 1.2, 1.6,0,0,1024,1024,1024,1024,110.1,0,37,3.738,3.743,3.741,3.729,0,0,4.612,102.11,3455.2614212639,2.624672,11,AutoTakeoff,
507500,2021-04-16 08:39:05,40.1849109582145,33.3283019305937,2.624672,,,3455.2614212639,3.608924,0,12.7332025072,14,4,14.756,3455.2614212639,2.624672,0.447388,13.612369202,0,0,-0.894776,109.1, 1.1, 1.2,0,0,1024,1024,1024,1024,110.1,0,37,3.738,3.743,3.741,3.729,0,0,4.612,102.11,3455.2614212639,2.624672,11,AutoTakeoff,
507600,2021-04-16 08:39:05,40.1849109622176,33.3283020165112,2.952756,,,3455.5895052639,3.608924,0,12.7092195668,14,4,14.756,3455.5895052639,2.952756,0.447388,13.612369202,0,0,-0.894776,109.2, 0.8, 0.9,0,0,1024,1024,1024,1024,110.1,0,37,3.738,3.743,3.741,3.729,0,0,4.612,102.11,3455.5895052639,2.952756,14,Waypoint,
507700,2021-04-16 08:39:05,40.184911156094,33.3283022584491,2.952756,,,3455.5895052639,3.937008,0,12.634678882,13,4,14.756,3455.5895052639,2.952756,0.447388,13.612369202,0,0,-0.894776,109, 0.9, 0.6,0,0,1024,1024,1024,1024,110.1,0,37,3.738,3.743,3.741,3.729,0,0,4.612,102.11,3455.5895052639,2.952756,14,Waypoint,
507800,2021-04-16 08:39:05,40.1849111233769,33.3283023378553,3.28084,,,3455.9175892639,3.937008,0,12.6139111648,13,4,14.756,3455.9175892639,3.28084,0.447388,13.612369202,0,0,-1.11847,109, 1.2, 0.4,0,0,1024,1024,1024,1024,110.1,0,37,3.738,3.743,3.741,3.729,0,0,4.612,102.11,3455.9175892639,3.28084,14,Waypoint,
507900,2021-04-16 08:39:05,40.1849110829908,33.3283024173595,3.28084,,,3455.9175892639,4.265092,0,12.5934059148,11,4,14.593,3455.9175892639,3.28084,0.447388,13.612369202,0,0,-1.11847,108.9, 1.4, 0.9,0,0,1024,1024,1024,1024,110.1,0,37,3.663,3.674,3.676,3.657,0,0,13.632,102.11,3455.9175892639,3.28084,14,Waypoint,
508000,2021-04-16 08:39:05,40.1849110124957,33.3283024531482,3.608924,,,3456.2456732639,4.265092,0,12.5862536836,11,4,14.593,3456.2456732639,3.608924,0.447388,13.612369202,0,0,-1.11847,108.9, 1.4, 1.1,0,0,1024,1024,1024,1024,110,0,37,3.663,3.674,3.676,3.657,0,0,13.632,102.11,3456.2456732639,3.608924,14,Waypoint,
508100,2021-04-16 08:39:05,40.1849109081794,33.3283024026157,3.937008,,,3456.5737572639,4.593176,0,12.6044295372,11,4,14.593,3456.5737572639,3.937008,0.447388,13.612369202,0,0,-1.11847,109, 1.1, 1,0,0,1024,1024,1024,1024,110,0,37,3.663,3.674,3.676,3.657,0,0,13.632,102.11,3456.5737572639,3.937008,14,Waypoint,
508200,2021-04-16 08:39:05,40.1849108861158,33.3283023637494,3.937008,,,3456.5737572639,4.593176,0,12.6160765192,11,4,14.593,3456.5737572639,3.937008,0.447388,13.612369202,0,0,-1.11847,109, 1.3, 0.6,0,0,1024,1024,1024,1024,110,0,37,3.663,3.674,3.676,3.657,0,0,13.632,102.11,3456.5737572639,3.937008,14,Waypoint,
508300,2021-04-16 08:39:05,40.1849108729037,33.3283023002783,4.265092,,,3456.9018412639,4.92126,0,12.6342195644,12,4,14.593,3456.9018412639,4.265092,0.447388,13.612369202,0,0,-1.342164,109, 1.8, -0.5,0,0,1024,1024,1024,1024,110,0,37,3.663,3.674,3.676,3.657,0,0,13.632,102.11,3456.9018412639,4.265092,14,Waypoint,
508400,2021-04-16 08:39:05,40.1849107900644,33.3283022912919,4.593176,,,3457.2299252639,5.249344,0,12.6401250764,12,4,14.593,3457.2299252639,4.593176,0.447388,13.612369202,0,0,-1.789552,109.1, 1.4, -1.6,0,0,1024,1024,1024,1024,110,0,37,3.663,3.674,3.676,3.657,0,0,13.632,102.11,3457.2299252639,4.593176,14,Waypoint,
508500,2021-04-16 08:39:06,40.1849107241274,33.3283023029804,4.92126,,,3457.5580092639,5.577428,0,12.6396329504,14,4,14.593,3457.5580092639,4.92126,0.447388,13.612369202,0,0,-2.460634,109.3, 0.8, -1.4,0,0,1024,1024,1024,1024,110,0,37,3.663,3.674,3.676,3.657,0,0,13.632,102.11,3457.5580092639,4.92126,14,Waypoint,
508600,2021-04-16 08:39:06,40.184910668493,33.3283022637917,5.249344,,,3457.8860932639,5.905512,0,12.6528547356,14,4,14.593,3457.8860932639,5.249344,0.447388,13.612369202,0,0,-3.131716,109.2, 0.3, -0.4,0,0,1024,1024,1024,1024,110,0,37,3.663,3.674,3.676,3.657,0,0,13.632,102.11,3457.8860932639,5.249344,14,Waypoint,
508700,2021-04-16 08:39:06,40.1849106272468,33.3283022199247,5.905512,,,3458.5422612639,6.56168,0,12.6667983056,13,4,14.593,3458.5422612639,5.905512,0.447388,13.612369202,0,0,-4.026492,109.2, -0.2, 0.1,0,0,1024,1024,1024,1024,110,0,37,3.663,3.674,3.676,3.657,0,0,13.632,102.11,3458.5422612639,5.905512,14,Waypoint,
508800,2021-04-16 08:39:06,40.1849106529587,33.3283021311846,6.56168,,,3459.1984292639,7.217848,0.223694,12.6902235032,13,4,14.593,3459.1984292639,6.56168,0.447388,13.612369202,0.223694,0,-4.697574,109.1, -0.6, 0.2,0,0,1024,1024,1024,1024,109.9,0,37,3.663,3.674,3.676,3.657,0,0,13.632,102.11,3459.1984292639,6.56168,14,Waypoint,
508900,2021-04-16 08:39:06,40.1849107112398,33.3283018832791,7.217848,,,3459.8545972639,7.874016,0.223694,12.756398046,14,4,14.418,3459.8545972639,7.217848,0.447388,13.612369202,0.223694,0,-5.59235,109, 0.2, 0.8,0,0,1024,1024,1024,1024,109.9,0,37,3.663,3.674,3.676,3.657,0,0,13.212,102.11,3459.8545972639,7.217848,14,Waypoint,
509000,2021-04-16 08:39:06,40.1849107835866,33.3283019438771,7.874016,,,3460.5107652639,8.858268,0.223694,12.7365817724,14,4,14.418,3460.5107652639,7.874016,0.447388,13.612369202,0.223694,0,-6.263432,108.8, 0, 1.5,0,0,1024,1024,1024,1024,109.9,0,37,3.663,3.674,3.676,3.657,0,0,13.212,102.11,3460.5107652639,7.874016,14,Waypoint,
509100,2021-04-16 08:39:06,40.1849108592268,33.3283020664382,8.858268,,,3461.4950172639,9.84252,0.31540854,12.6995410888,15,4,14.418,3461.4950172639,8.858268,0.447388,13.612369202,0.223694,0.223694,-6.71082,108.7, -0.3, 1.8,0,0,1024,1024,1024,1024,109.9,0,37,3.663,3.674,3.676,3.657,0,0,13.212,102.11,3461.4950172639,8.858268,14,Waypoint,
509200,2021-04-16 08:39:06,40.1849109137815,33.3283022195744,10.170604,,,3462.8073532639,10.826772,0.223694,12.6549216648,15,4,14.418,3462.8073532639,10.170604,0.447388,13.612369202,0,0.223694,-7.158208,108.7, 0.4, 2.4,0,0,1024,1024,1024,1024,109.9,0,37,3.663,3.674,3.676,3.657,0,0,13.212,102.11,3462.8073532639,10.170604,14,Waypoint,
509300,2021-04-16 08:39:06,40.184910952202,33.3283023921746,11.154856,,,3463.7916052639,11.811024,0.31540854,12.6055450228,16,4,14.418,3463.7916052639,11.154856,0.447388,13.612369202,0.223694,0.223694,-7.381902,108.8, 1.5, 2.5,0,0,1024,1024,1024,1024,109.9,0,37,3.663,3.674,3.676,3.657,0,0,13.212,102.11,3463.7916052639,11.154856,14,Waypoint,
509400,2021-04-16 08:39:06,40.1849110759272,33.3283027656853,12.467192,,,3465.1039412639,13.12336,0.223694,12.4971460692,16,4,14.418,3465.1039412639,12.467192,0.447388,13.612369202,0.223694,0,-7.381902,108.9, 2.2, 2.4,0,0,1024,1024,1024,1024,109.8,0,37,3.663,3.674,3.676,3.657,0,0,13.212,102.11,3465.1039412639,12.467192,14,Waypoint,
509500,2021-04-16 08:39:07,40.1849111637997,33.3283028257115,13.451444,,,3466.0881932639,14.107612,0.223694,12.4771329452,16,4,14.418,3466.0881932639,13.451444,0.447388,13.612369202,0.223694,0,-7.381902,108.9, 2, 2.8,0,0,1024,1024,1024,1024,109.8,0,37,3.663,3.674,3.676,3.657,0,0,13.212,102.11,3466.0881932639,13.451444,14,Waypoint,
509600,2021-04-16 08:39:07,40.1849112683184,33.3283026599618,14.76378,,,3467.4005292639,15.091864,0.223694,12.5191605056,16,4,14.418,3467.4005292639,14.76378,0.447388,13.612369202,0.223694,0,-7.381902,108.8, 1.1, 2.4,0,0,1024,1024,1024,1024,109.8,0,37,3.663,3.674,3.676,3.657,0,0,13.212,102.11,3467.4005292639,14.76378,14,Waypoint,
509700,2021-04-16 08:39:07,40.184911386293,33.3283023760854,15.748032,,,3468.3847812639,16.076116,0.223694,12.5936027652,16,4,14.418,3468.3847812639,15.748032,0.447388,13.612369202,0.223694,0,-7.381902,108.8, 0.5, 2,0,0,1024,1024,1024,1024,109.8,0,37,3.663,3.674,3.676,3.657,0,0,13.212,102.11,3468.3847812639,15.748032,14,Waypoint,
509800,2021-04-16 08:39:07,40.184911790846,33.3283014822794,17.060368,,,3469.6971172639,17.060368,0.223694,12.8283468672,16,4,14.418,3469.6971172639,17.060368,0.447388,13.612369202,0.223694,0,-7.381902,108.7, -0.1, 2,0,0,1024,1024,1024,1024,109.8,0,37,3.663,3.674,3.676,3.657,0,0,13.212,102.11,3469.6971172639,17.060368,14,Waypoint,
509900,2021-04-16 08:39:07,40.1849118760095,33.3283013042161,18.04462,,,3470.6813692639,18.372704,0.223694,12.8752300708,16,4,14.299,3470.6813692639,18.04462,0.447388,13.612369202,0.223694,0,-7.158208,108.7, -0.9, 2.3,0,0,1024,1024,1024,1024,109.8,0,37,3.652,3.666,3.671,3.664,0,0,13.212,102.11,3470.6813692639,18.04462,14,Waypoint,
510000,2021-04-16 08:39:07,40.1849118476967,33.3283012259536,19.356956,,,3471.9937052639,19.356956,0.223694,12.8978350584,16,4,14.299,3471.9937052639,19.356956,0.447388,13.612369202,0.223694,0,-6.934514,108.7, -0.5, 2.7,0,0,1024,1024,1024,1024,109.7,0,37,3.652,3.666,3.671,3.664,0,0,13.212,102.11,3471.9937052639,19.356956,14,Waypoint,
510100,2021-04-16 08:39:07,40.1849117548188,33.3283011987533,20.341208,,,3472.9779572639,20.341208,0.31540854,12.9082025128,16,4,14.299,3472.9779572639,20.341208,0.447388,13.612369202,0.223694,0.223694,-6.934514,108.8, 0, 2.9,0,0,1024,1024,1024,1024,109.7,0,37,3.652,3.666,3.671,3.664,0,0,13.212,102.11,3472.9779572639,20.341208,14,Waypoint,
510200,2021-04-16 08:39:07,40.1849115823709,33.3283015611221,21.653544,,,3474.2902932639,21.32546,0.223694,12.8130581528,16,4,14.299,3474.2902932639,21.653544,0.447388,13.612369202,0.223694,0,-6.934514,108.8, 0.5, 2.9,0,0,1024,1024,1024,1024,109.7,0,37,3.652,3.666,3.671,3.664,0,0,13.212,102.11,3474.2902932639,21.653544,14,Waypoint,
510300,2021-04-16 08:39:07,40.1849115958217,33.3283016845465,22.637796,,,3475.2745452639,22.637796,0.223694,12.778379674,16,4,14.299,3475.2745452639,22.637796,0.447388,13.612369202,0.223694,0,-6.934514,108.9, 1.1, 3,0,0,1024,1024,1024,1024,109.7,0,37,3.652,3.666,3.671,3.664,0,0,13.212,102.11,3475.2745452639,22.637796,14,Waypoint,
510400,2021-04-16 08:39:07,40.1849116396437,33.3283017536376,23.622048,,,3476.2587972639,23.622048,0.223694,12.7577431904,16,4,14.299,3476.2587972639,23.622048,0.447388,13.612369202,0.223694,0,-6.71082,108.9, 1, 2.8,0,0,1024,1024,1024,1024,109.7,0,37,3.652,3.666,3.671,3.664,0,0,13.212,102.11,3476.2587972639,23.622048,14,Waypoint,
510500,2021-04-16 08:39:08,40.1849117003568,33.3283017974961,24.6063,,,3477.2430492639,24.6063,0,12.7436355784,16,4,14.299,3477.2430492639,24.6063,0.447388,13.612369202,0,0,-6.71082,108.9, 0.5, 2.6,0,0,1024,1024,1024,1024,109.7,0,37,3.652,3.666,3.671,3.664,0,0,13.212,102.11,3477.2430492639,24.6063,14,Waypoint,
510600,2021-04-16 08:39:08,40.1849116456196,33.3283020098653,25.918636,,,3478.5553852639,25.590552,0,12.6864177288,16,4,14.299,3478.5553852639,25.918636,0.447388,13.612369202,0,0,-6.71082,108.9, 0.4, 2.7,0,0,1024,1024,1024,1024,109.7,0,37,3.652,3.666,3.671,3.664,0,0,13.212,102.11,3478.5553852639,25.918636,14,Waypoint,
510700,2021-04-16 08:39:08,40.184911568461,33.3283020611265,26.902888,,,3479.5396372639,26.574804,0,12.6747379384,15,4,14.299,3479.5396372639,26.902888,0.447388,13.612369202,0,0,-6.71082,108.9, 0.6, 2.7,0,0,1024,1024,1024,1024,109.7,0,37,3.652,3.666,3.671,3.664,0,0,13.212,102.11,3479.5396372639,26.902888,14,Waypoint,
510800,2021-04-16 08:39:08,40.1849115422084,33.3283020587411,27.88714,,,3480.5238892639,27.559056,0,12.6762799332,15,4,14.299,3480.5238892639,27.88714,0.447388,13.612369202,0,0,-6.487126,108.9, 0.6, 2.7,0,0,1024,1024,1024,1024,109.7,0,37,3.652,3.666,3.671,3.664,0,0,13.212,102.11,3480.5238892639,27.88714,14,Waypoint,
510900,2021-04-16 08:39:08,40.1849115308875,33.328302031723,28.871392,,,3481.5081412639,28.543308,0,12.6841539492,16,4,14.44,3481.5081412639,28.871392,0.447388,13.612369202,0,0,-6.487126,108.9, 0.4, 2.6,0,0,1024,1024,1024,1024,109.6,0,37,3.603,3.621,3.627,3.602,0,0,20.598,102.11,3481.5081412639,28.871392,14,Waypoint,
511000,2021-04-16 08:39:08,40.184911444974,33.3283019975209,30.183728,,,3482.8204772639,29.52756,0,12.6965883328,16,4,14.44,3482.8204772639,30.183728,0.447388,13.612369202,0,0,-6.487126,109, 0.5, 2.4,0,0,1024,1024,1024,1024,109.6,0,37,3.603,3.621,3.627,3.602,0,0,20.598,102.11,3482.8204772639,30.183728,14,Waypoint,
511100,2021-04-16 08:39:08,40.184911210218,33.3283018524461,31.16798,,,3483.8047292639,30.511812,0,12.7452103816,16,4,14.44,3483.8047292639,31.16798,0.447388,13.612369202,0,0,-6.487126,109, 0.7, 2,0,0,1024,1024,1024,1024,109.6,0,37,3.603,3.621,3.627,3.602,0,0,20.598,102.11,3483.8047292639,31.16798,14,Waypoint,
511200,2021-04-16 08:39:08,40.1849111070386,33.3283018522891,32.152232,,,3484.7889812639,31.496064,0,12.7491145812,16,4,14.44,3484.7889812639,32.152232,0.447388,13.612369202,0,0,-6.263432,108.9, 0.4, 1.5,0,0,1024,1024,1024,1024,109.6,0,37,3.603,3.621,3.627,3.602,0,0,20.598,102.11,3484.7889812639,32.152232,14,Waypoint,
511300,2021-04-16 08:39:08,40.1849110138861,33.3283018701722,33.136484,,,3485.7732332639,32.480316,0,12.7477694368,16,4,14.44,3485.7732332639,33.136484,0.447388,13.612369202,0,0,-6.263432,108.9, 0.2, 1.1,0,0,1024,1024,1024,1024,109.6,0,37,3.603,3.621,3.627,3.602,0,0,20.598,102.11,3485.7732332639,33.136484,14,Waypoint,
511400,2021-04-16 08:39:08,40.1849108827412,33.3283019503072,34.120736,,,3486.7574852639,33.464568,0,12.7307418772,16,4,14.44,3486.7574852639,34.120736,0.447388,13.612369202,0,0,-6.263432,108.9, 0.1, 1,0,0,1024,1024,1024,1024,109.6,0,37,3.603,3.621,3.627,3.602,0,0,20.598,102.11,3486.7574852639,34.120736,14,Waypoint,
511500,2021-04-16 08:39:09,40.1849105827486,33.3283023117117,35.104988,,,3487.7417372639,34.120736,0,12.6433074912,16,4,14.44,3487.7417372639,35.104988,0.447388,13.612369202,0,0,-6.263432,109, 0.3, 0.8,0,0,1024,1024,1024,1024,109.6,0,37,3.603,3.621,3.627,3.602,0,0,20.598,102.11,3487.7417372639,35.104988,14,Waypoint,
511600,2021-04-16 08:39:09,40.1849105286847,33.3283024450391,36.08924,,,3488.7259892639,35.104988,0,12.6088258628,16,4,14.44,3488.7259892639,36.08924,0.447388,13.612369202,0,0,-6.039738,109, 0.6, 1,0,0,1024,1024,1024,1024,109.6,0,37,3.603,3.621,3.627,3.602,0,0,20.598,102.11,3488.7259892639,36.08924,14,Waypoint,
511700,2021-04-16 08:39:09,40.1849105132685,33.3283025880985,37.073492,,,3489.7102412639,36.08924,0,12.5699151004,15,4,14.44,3489.7102412639,37.073492,0.447388,13.612369202,0,0,-6.039738,109, 0.5, 1.3,0,0,1024,1024,1024,1024,109.6,0,37,3.603,3.621,3.627,3.602,0,0,20.598,102.11,3489.7102412639,37.073492,14,Waypoint,
511800,2021-04-16 08:39:09,40.1849104275209,33.328302654325,37.72966,,,3490.3664092639,37.073492,0,12.5555122128,15,4,14.44,3490.3664092639,37.72966,0.447388,13.612369202,0,0,-6.039738,109, 0.4, 1.3,0,0,1024,1024,1024,1024,109.6,0,37,3.603,3.621,3.627,3.602,0,0,20.598,102.11,3490.3664092639,37.72966,14,Waypoint,
511900,2021-04-16 08:39:09,40.1849101835788,33.3283027822398,38.713912,,,3491.3506612639,37.72966,0,12.5316276976,16,4,14.494,3491.3506612639,38.713912,0.447388,13.612369202,0,0,-6.039738,108.9, 0.2, 1.4,0,0,1024,1024,1024,1024,109.6,0,37,3.637,3.65,3.654,3.634,0,0,13.17,102.11,3491.3506612639,38.713912,14,Waypoint,
512000,2021-04-16 08:39:09,40.1849101050137,33.3283028232729,39.698164,,,3492.3349132639,38.057744,0,12.5241473824,16,4,14.494,3492.3349132639,39.698164,0.447388,13.612369202,0,0,-6.039738,108.9, 0.3, 1.4,0,0,1024,1024,1024,1024,109.6,0,37,3.637,3.65,3.654,3.634,0,0,13.17,102.11,3492.3349132639,39.698164,14,Waypoint,
512100,2021-04-16 08:39:09,40.1849100449847,33.3283028746546,40.354332,,,3492.9910812639,38.057744,0,12.5129269096,15,4,14.494,3492.9910812639,40.354332,0.447388,13.612369202,0,0,-6.039738,108.8, 0.6, 1.3,0,0,1024,1024,1024,1024,109.6,0,37,3.637,3.65,3.654,3.634,0,0,13.17,102.11,3492.9910812639,40.354332,14,Waypoint,
512200,2021-04-16 08:39:09,40.1849099651447,33.3283029599751,41.338584,,,3493.9753332639,38.057744,0,12.4934059116,15,4,14.494,3493.9753332639,41.338584,0.447388,13.612369202,0,0,-6.039738,108.8, 0.7, 1.3,0,0,1024,1024,1024,1024,109.6,0,37,3.637,3.65,3.654,3.634,0,0,13.17,102.11,3493.9753332639,41.338584,14,Waypoint,
512300,2021-04-16 08:39:09,40.1849097404035,33.3283030802938,41.994752,,,3494.6315012639,38.057744,0,12.471949218,16,4,14.494,3494.6315012639,41.994752,0.447388,13.612369202,0,0,-6.039738,108.8, 0.8, 1.3,0,0,1024,1024,1024,1024,109.5,0,37,3.637,3.65,3.654,3.634,0,0,13.17,102.11,3494.6315012639,41.994752,14,Waypoint,
512400,2021-04-16 08:39:09,40.1849097093804,33.3283031253015,42.979004,,,3495.6157532639,38.057744,0.223694,12.4611880628,16,4,14.494,3495.6157532639,42.979004,0.447388,13.612369202,0.223694,0,-6.039738,108.8, 0.7, 1.2,0,0,1024,1024,1024,1024,109.5,0,37,3.637,3.65,3.654,3.634,0,0,13.17,102.11,3495.6157532639,42.979004,14,Waypoint,
512500,2021-04-16 08:39:10,40.1849097135821,33.3283031462483,43.963256,,,3496.6000052639,38.057744,0.223694,12.4551841256,15,4,14.494,3496.6000052639,43.963256,0.447388,13.612369202,0.223694,0,-6.263432,108.9, 0.6, 1.4,0,0,1024,1024,1024,1024,109.5,0,37,3.637,3.65,3.654,3.634,0,0,13.17,102.11,3496.6000052639,43.963256,14,Waypoint,
512600,2021-04-16 08:39:10,40.1849097673749,33.3283032115077,44.619424,,,3497.2561732639,38.057744,0.223694,12.4343179832,15,4,14.494,3497.2561732639,44.619424,0.447388,13.612369202,0.223694,0,-6.263432,108.9, 0.6, 1.8,0,0,1024,1024,1024,1024,109.5,0,37,3.637,3.65,3.654,3.634,0,0,13.17,102.11,3497.2561732639,44.619424,14,Waypoint,
512700,2021-04-16 08:39:10,40.184909846217,33.3283033035946,45.603676,,,3498.2404252639,38.057744,0.223694,12.4047576148,16,4,14.494,3498.2404252639,45.603676,0.447388,13.612369202,0.223694,0,-6.263432,108.9, 0.7, 2,0,0,1024,1024,1024,1024,109.5,0,37,3.637,3.65,3.654,3.634,0,0,13.17,102.11,3498.2404252639,45.603676,14,Waypoint,
512800,2021-04-16 08:39:10,40.1849100921462,33.3283033151458,46.587928,,,3499.2246772639,38.057744,0.223694,12.388943966,16,4,14.494,3499.2246772639,46.587928,0.447388,13.612369202,0.223694,0,-6.263432,109, 0.6, 2.3,0,0,1024,1024,1024,1024,109.5,0,37,3.637,3.65,3.654,3.634,0,0,13.17,102.11,3499.2246772639,46.587928,14,Waypoint,
512900,2021-04-16 08:39:10,40.1849102081163,33.3283033210461,47.244096,,,3499.8808452639,38.057744,0.223694,12.3815948844,15,4,14.529,3499.8808452639,47.244096,0.447388,13.612369202,0.223694,0,-6.263432,109, 0.6, 2.4,0,0,1024,1024,1024,1024,109.5,0,37,3.634,3.647,3.651,3.629,0,0,13.188,102.11,3499.8808452639,47.244096,14,Waypoint,
513000,2021-04-16 08:39:10,40.1849103336882,33.3283033705134,48.228348,,,3500.8650972639,38.057744,0.223694,12.361877036,15,4,14.529,3500.8650972639,48.228348,0.447388,13.612369202,0.223694,0,-6.487126,108.9, 0.5, 2.4,0,0,1024,1024,1024,1024,109.5,0,37,3.634,3.647,3.651,3.629,0,0,13.188,102.11,3500.8650972639,48.228348,14,Waypoint,
513100,2021-04-16 08:39:10,40.1849104650997,33.3283034496196,49.2126,,,3501.8493492639,38.057744,0.223694,12.3338586624,16,4,14.529,3501.8493492639,49.2126,0.447388,13.612369202,0.223694,0,-6.487126,108.9, 0.5, 2.4,0,0,1024,1024,1024,1024,109.5,0,37,3.634,3.647,3.651,3.629,0,0,13.188,102.11,3501.8493492639,49.2126,14,Waypoint,
513200,2021-04-16 08:39:10,40.1849105889942,33.3283035099654,49.868768,,,3502.5055172639,38.057744,0.223694,12.311516142,16,4,14.529,3502.5055172639,49.868768,0.447388,13.612369202,0.223694,0,-6.487126,109, 0.8, 2.7,0,0,1024,1024,1024,1024,109.5,0,37,3.634,3.647,3.651,3.629,0,0,13.188,102.11,3502.5055172639,49.868768,14,Waypoint,
513300,2021-04-16 08:39:10,40.1849107080022,33.3283035551889,50.85302,,,3503.4897692639,38.057744,0.447388,12.2937339892,16,4,14.529,3503.4897692639,50.85302,0.447388,13.612369202,0.447388,0,-6.487126,109, 1.2, 3.1,0,0,1024,1024,1024,1024,109.5,0,37,3.634,3.647,3.651,3.629,0,0,13.188,102.11,3503.4897692639,50.85302,14,Waypoint,
513400,2021-04-16 08:39:10,40.1849109161852,33.3283035425838,51.837272,,,3504.4740212639,38.057744,0.447388,12.2883534116,16,4,14.529,3504.4740212639,51.837272,0.447388,13.612369202,0.447388,0,-6.487126,109.1, 0.8, 3.3,0,0,1024,1024,1024,1024,109.5,0,37,3.634,3.647,3.651,3.629,0,0,13.188,102.11,3504.4740212639,51.837272,14,Waypoint,
513500,2021-04-16 08:39:11,40.1849111459618,33.3283035005585,52.49344,,,3505.1301892639,38.057744,0.223694,12.2907812332,16,4,14.529,3505.1301892639,52.49344,0.447388,13.612369202,0.223694,0,-6.487126,109, 0.5, 3.3,0,0,1024,1024,1024,1024,109.5,0,37,3.634,3.647,3.651,3.629,0,0,13.188,102.11,3505.1301892639,52.49344,14,Waypoint,
513600,2021-04-16 08:39:11,40.1849116816253,33.328303622416,53.149608,,,3505.7863572639,38.057744,0.223694,12.2375988168,16,4,14.529,3505.7863572639,53.149608,0.447388,13.612369202,0.223694,0,-6.71082,109, 0.2, 3.3,0,0,1024,1024,1024,1024,109.5,0,37,3.634,3.647,3.651,3.629,0,0,13.188,102.11,3505.7863572639,53.149608,14,Waypoint,
513700,2021-04-16 08:39:11,40.1849117882049,33.3283037028901,54.13386,,,3506.7706092639,38.057744,0,12.211778606,16,4,14.529,3506.7706092639,54.13386,0.447388,13.612369202,0,0,-6.71082,109, 0.3, 3.4,0,0,1024,1024,1024,1024,109.5,0,37,3.634,3.647,3.651,3.629,0,0,13.188,102.11,3506.7706092639,54.13386,14,Waypoint,
513800,2021-04-16 08:39:11,40.1849118111476,33.3283037077113,55.118112,,,3507.7548612639,38.057744,0,12.2097116768,16,4,14.529,3507.7548612639,55.118112,0.447388,13.612369202,0,0,-6.934514,108.9, 0.3, 3.5,0,0,1024,1024,1024,1024,109.5,0,37,3.634,3.647,3.651,3.629,0,0,13.188,102.11,3507.7548612639,55.118112,14,Waypoint,
513900,2021-04-16 08:39:11,40.1849117847667,33.3283036767101,56.102364,,,3508.7391132639,38.057744,0,12.219160496,16,5,14.479,3508.7391132639,56.102364,0.447388,13.612369202,0,0,-6.934514,109, 0.6, 3.2,0,0,1024,1024,1024,1024,109.5,0,37,3.634,3.647,3.651,3.629,0,0,13.188,102.11,3508.7391132639,56.102364,14,Waypoint,
514000,2021-04-16 08:39:11,40.1849115466759,33.3283036362348,57.086616,,,3509.7233652639,38.057744,0,12.23835341,16,5,14.479,3509.7233652639,57.086616,0.447388,13.612369202,0,0,-6.934514,109, 1.2, 2.6,0,0,1024,1024,1024,1024,109.5,0,37,3.634,3.647,3.651,3.629,0,0,13.188,102.11,3509.7233652639,57.086616,14,Waypoint,
514100,2021-04-16 08:39:11,40.1849114309152,33.3283036189487,57.742784,,,3510.3795332639,38.057744,0,12.2472444864,16,5,14.479,3510.3795332639,57.742784,0.447388,13.612369202,0,0,-6.934514,109, 1.2, 1.9,0,0,1024,1024,1024,1024,109.5,0,37,3.634,3.647,3.651,3.629,0,0,13.188,102.11,3510.3795332639,57.742784,14,Waypoint,
514200,2021-04-16 08:39:11,40.1849112396253,33.3283036111368,58.727036,,,3511.3637852639,38.057744,0,12.2564964552,16,5,14.479,3511.3637852639,58.727036,0.447388,13.612369202,0,0,-6.934514,109, 1.2, 1.4,0,0,1024,1024,1024,1024,109.5,0,37,3.634,3.647,3.651,3.629,0,0,13.188,102.11,3511.3637852639,58.727036,14,Waypoint,
514300,2021-04-16 08:39:11,40.1849110185218,33.3283036019009,59.383204,,,3512.0199532639,38.057744,0,12.2677497364,15,5,14.479,3512.0199532639,59.383204,0.447388,13.612369202,0,0,-6.934514,109, 1, 1.1,0,0,1024,1024,1024,1024,109.5,0,37,3.634,3.647,3.651,3.629,0,0,13.188,102.11,3512.0199532639,59.383204,14,Waypoint,
514400,2021-04-16 08:39:11,40.1849108327269,33.3283036018644,60.367456,,,3513.0042052639,38.057744,0,12.2754597104,15,5,14.479,3513.0042052639,60.367456,0.447388,13.612369202,0,0,-7.158208,109, 0.7, 1,0,0,1024,1024,1024,1024,109.4,0,37,3.634,3.647,3.651,3.629,0,0,13.188,102.11,3513.0042052639,60.367456,14,Waypoint,
514500,2021-04-16 08:39:12,40.1849103368055,33.328303739999,61.023624,,,3513.6603732639,38.057744,0,12.2596460616,15,5,14.479,3513.6603732639,61.023624,0.447388,13.612369202,0,0,-6.934514,108.9, 0.9, 1,0,0,1024,1024,1024,1024,109.4,0,37,3.634,3.647,3.651,3.629,0,0,13.188,102.11,3513.6603732639,61.023624,14,Waypoint,
514600,2021-04-16 08:39:12,40.1849101606535,33.3283037284226,62.007876,,,3514.6446252639,38.057744,0,12.2714242772,15,5,14.479,3514.6446252639,62.007876,0.447388,13.612369202,0,0,-7.158208,108.9, 1.2, 0.8,0,0,1024,1024,1024,1024,109.4,0,37,3.634,3.647,3.651,3.629,0,0,13.188,102.11,3514.6446252639,62.007876,14,Waypoint,
514700,2021-04-16 08:39:12,40.1849099879449,33.3283037034423,62.992128,,,3515.6288772639,38.057744,0,12.287073884,15,5,14.479,3515.6288772639,62.992128,0.447388,13.612369202,0,0,-7.158208,108.9, 1, 0.8,0,0,1024,1024,1024,1024,109.4,0,37,3.634,3.647,3.651,3.629,0,0,13.188,102.11,3515.6288772639,62.992128,14,Waypoint,
514800,2021-04-16 08:39:12,40.1849099119536,33.3283036876446,63.97638,,,3516.6131292639,38.057744,0,12.2953744092,15,5,14.479,3516.6131292639,63.97638,0.447388,13.612369202,0,0,-7.158208,108.9, 1, 0.9,0,0,1024,1024,1024,1024,109.4,0,37,3.634,3.647,3.651,3.629,0,0,13.188,102.11,3516.6131292639,63.97638,14,Waypoint,
514900,2021-04-16 08:39:12,40.1849098706004,33.3283036676228,64.304464,,,3516.9412132639,38.057744,0,12.3030515748,15,5,14.433,3516.9412132639,64.304464,0.447388,13.612369202,0,0,-7.158208,109, 1.2, 1.3,0,0,1024,1024,1024,1024,109.4,0,36,3.624,3.636,3.641,3.619,0,0,14.452,102.11,3516.9412132639,64.304464,14,Waypoint,
515000,2021-04-16 08:39:12,40.1849098326407,33.3283036218975,65.6168,,,3518.2535492639,38.057744,0,12.3176841212,15,5,14.433,3518.2535492639,65.6168,0.447388,13.612369202,0,0,-7.158208,109, 1.1, 1.5,0,0,1024,1024,1024,1024,109.4,0,36,3.624,3.636,3.641,3.619,0,0,14.452,102.11,3518.2535492639,65.6168,14,Waypoint,
515100,2021-04-16 08:39:12,40.1849097871233,33.3283035567922,66.272968,,,3518.9097172639,38.057744,0,12.3380581376,15,5,14.433,3518.9097172639,66.272968,0.447388,13.612369202,0,0,-7.158208,109, 1, 1.5,0,0,1024,1024,1024,1024,109.4,0,36,3.624,3.636,3.641,3.619,0,0,14.452,102.11,3518.9097172639,66.272968,14,Waypoint,
515200,2021-04-16 08:39:12,40.1849097511666,33.3283034805507,67.25722,,,3519.8939692639,38.057744,0,12.3609912092,15,5,14.433,3519.8939692639,67.25722,0.447388,13.612369202,0,0,-7.158208,109, 1.2, 1.5,0,0,1024,1024,1024,1024,109.4,0,36,3.624,3.636,3.641,3.619,0,0,14.452,102.11,3519.8939692639,67.25722,14,Waypoint,
515300,2021-04-16 08:39:12,40.1849097099482,33.328303333654,68.241472,,,3520.8782212639,38.057744,0,12.403707746,15,5,14.433,3520.8782212639,68.241472,0.447388,13.612369202,0,0,-7.158208,109, 1.2, 1.8,0,0,1024,1024,1024,1024,109.4,0,36,3.624,3.636,3.641,3.619,0,0,14.452,102.11,3520.8782212639,68.241472,14,Waypoint,
515400,2021-04-16 08:39:12,40.184909700168,33.3283033130547,68.89764,,,3521.5343892639,38.057744,0,12.409941342,15,5,14.433,3521.5343892639,68.89764,0.447388,13.612369202,0,0,-7.158208,109, 0.9, 2.1,0,0,1024,1024,1024,1024,109.4,0,36,3.624,3.636,3.641,3.619,0,0,14.452,102.11,3521.5343892639,68.89764,14,Waypoint,
515500,2021-04-16 08:39:13,40.184909691479,33.3283033072862,69.881892,,,3522.5186412639,38.057744,0.223694,12.4119754628,15,5,14.433,3522.5186412639,69.881892,0.447388,13.612369202,0.223694,0,-7.158208,108.9, 0.5, 1.5,0,0,1024,1024,1024,1024,109.4,0,36,3.624,3.636,3.641,3.619,0,0,14.452,102.11,3522.5186412639,69.881892,14,Waypoint,
515600,2021-04-16 08:39:13,40.1849097074357,33.3283032607116,70.866144,,,3523.5028932639,38.057744,0.223694,12.4239505288,15,5,14.433,3523.5028932639,70.866144,0.447388,13.612369202,0.223694,0,-7.158208,108.9, 0.4, 1,0,0,1024,1024,1024,1024,109.4,0,36,3.624,3.636,3.641,3.619,0,0,14.452,102.11,3523.5028932639,70.866144,14,Waypoint,
515700,2021-04-16 08:39:13,40.1849098515319,33.328303309209,71.522312,,,3524.1590612639,38.057744,0.223694,12.4029203444,16,5,14.433,3524.1590612639,71.522312,0.447388,13.612369202,0.223694,0,-7.158208,108.9, 0, 1.6,0,0,1024,1024,1024,1024,109.4,0,36,3.624,3.636,3.641,3.619,0,0,14.452,102.11,3524.1590612639,71.522312,14,Waypoint,
515800,2021-04-16 08:39:13,40.1849098740391,33.3283032553102,72.17848,,,3524.8152292639,38.057744,0,12.4166014472,16,5,14.433,3524.8152292639,72.17848,0.447388,13.612369202,0,0,-7.158208,108.9, 0, 2.2,0,0,1024,1024,1024,1024,109.4,0,36,3.624,3.636,3.641,3.619,0,0,14.452,102.11,3524.8152292639,72.17848,14,Waypoint,
515900,2021-04-16 08:39:13,40.184909874184,33.3283032115442,73.162732,,,3525.7994812639,38.057744,0,12.4286749384,15,5,14.347,3525.7994812639,73.162732,0.447388,13.612369202,0,0,-7.158208,108.9, 0.5, 1.8,0,0,1024,1024,1024,1024,109.4,0,36,3.614,3.63,3.635,3.611,0,0,14.99,102.11,3525.7994812639,73.162732,14,Waypoint,
516000,2021-04-16 08:39:13,40.1849098456005,33.3283031224929,74.146984,,,3526.7837332639,38.057744,0,12.454724808,15,5,14.347,3526.7837332639,74.146984,0.447388,13.612369202,0,0,-7.158208,108.9, 1, 1.3,0,0,1024,1024,1024,1024,109.4,0,36,3.614,3.63,3.635,3.611,0,0,14.99,102.11,3526.7837332639,74.146984,14,Waypoint,
516100,2021-04-16 08:39:13,40.184909803605,33.3283030062274,74.803152,,,3527.4399012639,38.057744,0,12.489009586,15,5,14.347,3527.4399012639,74.803152,0.447388,13.612369202,0,0,-7.158208,108.9, 0.9, 0.8,0,0,1024,1024,1024,1024,109.4,0,36,3.614,3.63,3.635,3.611,0,0,14.99,102.11,3527.4399012639,74.803152,14,Waypoint,
516200,2021-04-16 08:39:13,40.1849098017526,33.3283027863742,75.787404,,,3528.4241532639,38.057744,0,12.5497379344,15,5,14.347,3528.4241532639,75.787404,0.447388,13.612369202,0,0,-7.158208,109, 0.9, 0.8,0,0,1024,1024,1024,1024,109.4,0,36,3.614,3.63,3.635,3.611,0,0,14.99,102.11,3528.4241532639,75.787404,14,Waypoint,
516300,2021-04-16 08:39:13,40.1849097623745,33.3283027638633,76.771656,,,3529.4084052639,38.057744,0,12.5580384596,16,5,14.347,3529.4084052639,76.771656,0.447388,13.612369202,0,0,-7.158208,109, 0.9, 1.1,0,0,1024,1024,1024,1024,109.4,0,36,3.614,3.63,3.635,3.611,0,0,14.99,102.11,3529.4084052639,76.771656,14,Waypoint,
516400,2021-04-16 08:39:13,40.1849096989857,33.3283027534446,77.427824,,,3530.0645732639,38.057744,0,12.5642720556,16,5,14.347,3530.0645732639,77.427824,0.447388,13.612369202,0,0,-7.158208,109, 1.1, 0.9,0,0,1024,1024,1024,1024,109.4,0,36,3.614,3.63,3.635,3.611,0,0,14.99,102.11,3530.0645732639,77.427824,14,Waypoint,
516500,2021-04-16 08:39:14,40.1849096291015,33.3283027428829,78.412076,,,3531.0488252639,38.057744,0.223694,12.5709321608,15,5,14.347,3531.0488252639,78.412076,0.447388,13.612369202,0.223694,0,-7.381902,109, 1.1, 0.9,0,0,1024,1024,1024,1024,109.4,0,36,3.614,3.63,3.635,3.611,0,0,14.99,102.11,3531.0488252639,78.412076,14,Waypoint,
516600,2021-04-16 08:39:14,40.1849096098905,33.3283027394632,79.396328,,,3532.0330772639,38.057744,0.223694,12.5729334732,15,5,14.347,3532.0330772639,79.396328,0.447388,13.612369202,0.223694,0,-7.158208,108.9, 1, 1.2,0,0,1024,1024,1024,1024,109.4,0,36,3.614,3.63,3.635,3.611,0,0,14.99,102.11,3532.0330772639,79.396328,14,Waypoint,
516700,2021-04-16 08:39:14,40.1849096180585,33.3283027368957,80.052496,,,3532.6892452639,38.057744,0,12.5731959404,16,5,14.347,3532.6892452639,80.052496,0.447388,13.612369202,0,0,-7.381902,108.9, 0.9, 1.3,0,0,1024,1024,1024,1024,109.4,0,36,3.614,3.63,3.635,3.611,0,0,14.99,102.11,3532.6892452639,80.052496,14,Waypoint,
516800,2021-04-16 08:39:14,40.1849096241433,33.3283027328229,81.036748,,,3533.6734972639,38.057744,0,12.573983342,16,5,14.347,3533.6734972639,81.036748,0.447388,13.612369202,0,0,-7.381902,109, 0.6, 1.6,0,0,1024,1024,1024,1024,109.4,0,36,3.614,3.63,3.635,3.611,0,0,14.99,102.11,3533.6734972639,81.036748,14,Waypoint,
516900,2021-04-16 08:39:14,40.1849096270548,33.3283027240243,82.021,,,3534.6577492639,38.057744,0.223694,12.5762471216,16,5,14.312,3534.6577492639,82.021,0.447388,13.612369202,0.223694,0,-7.381902,109, 0.6, 1.7,0,0,1024,1024,1024,1024,109.4,0,36,3.605,3.618,3.621,3.598,0,0,15.836,102.11,3534.6577492639,82.021,14,Waypoint,
517000,2021-04-16 08:39:14,40.184909848109,33.3283026875657,82.677168,,,3535.3139172639,38.057744,0.223694,12.5746067016,16,5,14.312,3535.3139172639,82.677168,0.447388,13.612369202,0.223694,0,-7.158208,109, 0.6, 1.6,0,0,1024,1024,1024,1024,109.4,0,36,3.605,3.618,3.621,3.598,0,0,15.836,102.11,3535.3139172639,82.677168,14,Waypoint,
517100,2021-04-16 08:39:14,40.1849099331744,33.3283026372884,83.66142,,,3536.2981692639,38.057744,0.223694,12.5840883292,16,5,14.312,3536.2981692639,83.66142,0.447388,13.612369202,0.223694,0,-7.158208,109, 0.5, 1.9,0,0,1024,1024,1024,1024,109.4,0,36,3.605,3.618,3.621,3.598,0,0,15.836,102.11,3536.2981692639,83.66142,14,Waypoint,
517200,2021-04-16 08:39:14,40.1849099772476,33.3283026144579,84.645672,,,3537.2824212639,38.057744,0.223694,12.5881565708,16,5,14.312,3537.2824212639,84.645672,0.447388,13.612369202,0.223694,0,-7.381902,109, 0.5, 2.3,0,0,1024,1024,1024,1024,109.4,0,36,3.605,3.618,3.621,3.598,0,0,15.836,102.11,3537.2824212639,84.645672,14,Waypoint,
517300,2021-04-16 08:39:14,40.1849099979524,33.3283025994254,85.629924,,,3538.2666732639,38.057744,0,12.5912733688,16,5,14.312,3538.2666732639,85.629924,0.447388,13.612369202,0,0,-7.381902,109, 0.4, 2.1,0,0,1024,1024,1024,1024,109.4,0,36,3.605,3.618,3.621,3.598,0,0,15.836,102.11,3538.2666732639,85.629924,14,Waypoint,
517400,2021-04-16 08:39:14,40.1849099106227,33.3283025565508,86.286092,,,3538.9228412639,38.057744,0,12.6075463352,16,5,14.312,3538.9228412639,86.286092,0.447388,13.612369202,0,0,-7.158208,109, 0.3, 1.8,0,0,1024,1024,1024,1024,109.4,0,36,3.605,3.618,3.621,3.598,0,0,15.836,102.11,3538.9228412639,86.286092,14,Waypoint,
517500,2021-04-16 08:39:15,40.1849098818087,33.3283024961574,86.94226,,,3539.5790092639,38.057744,0.223694,12.625656572,16,5,14.312,3539.5790092639,86.94226,0.447388,13.612369202,0.223694,0,-7.381902,109, 0.4, 1.5,0,0,1024,1024,1024,1024,109.4,0,36,3.605,3.618,3.621,3.598,0,0,15.836,102.11,3539.5790092639,86.94226,14,Waypoint,
517600,2021-04-16 08:39:15,40.1849098861136,33.3283024275652,87.926512,,,3540.5632612639,38.057744,0.223694,12.6443901684,16,5,14.312,3540.5632612639,87.926512,0.447388,13.612369202,0.223694,0,-7.381902,109, 0.1, 1.4,0,0,1024,1024,1024,1024,109.4,0,36,3.605,3.618,3.621,3.598,0,0,15.836,102.11,3540.5632612639,87.926512,14,Waypoint,
517700,2021-04-16 08:39:15,40.1849099085158,33.3283023578603,88.58268,,,3541.2194292639,38.057744,0,12.6624675968,16,5,14.312,3541.2194292639,88.58268,0.447388,13.612369202,0,0,-7.381902,108.9, 0, 1.5,0,0,1024,1024,1024,1024,109.3,0,36,3.605,3.618,3.621,3.598,0,0,15.836,102.11,3541.2194292639,88.58268,14,Waypoint,
517800,2021-04-16 08:39:15,40.1849099181312,33.3283022720969,89.895016,,,3542.5317652639,38.057744,0,12.6856631356,16,5,14.312,3542.5317652639,89.895016,0.447388,13.612369202,0,0,-7.381902,108.9, 0, 1.6,0,0,1024,1024,1024,1024,109.3,0,36,3.605,3.618,3.621,3.598,0,0,15.836,102.11,3542.5317652639,89.895016,14,Waypoint,
517900,2021-04-16 08:39:15,40.184909914728,33.3283020288528,90.551184,,,3543.1879332639,38.057744,0,12.7529859724,16,5,14.351,3543.1879332639,90.551184,0.447388,13.612369202,0,0,-7.381902,108.9, 0, 1.7,0,0,1024,1024,1024,1024,109.3,0,36,3.602,3.614,3.621,3.595,0,0,15.796,102.11,3543.1879332639,90.551184,14,Waypoint,
518000,2021-04-16 08:39:15,40.1849099148487,33.3283019452674,91.535436,,,3544.1721852639,38.057744,0,12.7760502776,16,5,14.351,3544.1721852639,91.535436,0.447388,13.612369202,0,0,-7.381902,108.9, 0, 1.5,0,0,1024,1024,1024,1024,109.3,0,36,3.602,3.614,3.621,3.595,0,0,15.796,102.11,3544.1721852639,91.535436,14,Waypoint,
518100,2021-04-16 08:39:15,40.1849099173956,33.3283018692417,92.519688,,,3545.1564372639,38.057744,0,12.79691642,16,5,14.351,3545.1564372639,92.519688,0.447388,13.612369202,0,0,-7.381902,108.9, 0, 1.5,0,0,1024,1024,1024,1024,109.3,0,36,3.602,3.614,3.621,3.595,0,0,15.796,102.11,3545.1564372639,92.519688,14,Waypoint,
518200,2021-04-16 08:39:15,40.1849099597589,33.3283018766388,93.175856,,,3545.8126052639,38.057744,0,12.7927497532,16,5,14.351,3545.8126052639,93.175856,0.447388,13.612369202,0,0,-7.381902,108.9, 0, 1.7,0,0,1024,1024,1024,1024,109.3,0,36,3.602,3.614,3.621,3.595,0,0,15.796,102.11,3545.8126052639,93.175856,14,Waypoint,
518300,2021-04-16 08:39:15,40.1849101071977,33.3283019938153,94.160108,,,3546.7968572639,38.057744,0.223694,12.7531500144,16,5,14.351,3546.7968572639,94.160108,0.447388,13.612369202,0.223694,0,-7.381902,108.9, 0.1, 1.9,0,0,1024,1024,1024,1024,109.3,0,36,3.602,3.614,3.621,3.595,0,0,15.796,102.11,3546.7968572639,94.160108,14,Waypoint,
518400,2021-04-16 08:39:15,40.1849101379228,33.3283020053945,94.816276,,,3547.4530252639,38.057744,0,12.7484584132,16,5,14.351,3547.4530252639,94.816276,0.447388,13.612369202,0,0,-7.381902,108.9, 0.3, 2,0,0,1024,1024,1024,1024,109.3,0,36,3.602,3.614,3.621,3.595,0,0,15.796,102.11,3547.4530252639,94.816276,14,Waypoint,
518500,2021-04-16 08:39:16,40.1849101527366,33.3283020021374,96.128612,,,3548.7653612639,38.057744,0,12.7486552636,16,5,14.351,3548.7653612639,96.128612,0.447388,13.612369202,0,0,-7.381902,109, 0.6, 2.1,0,0,1024,1024,1024,1024,109.3,0,36,3.602,3.614,3.621,3.595,0,0,15.796,102.11,3548.7653612639,96.128612,14,Waypoint,
518600,2021-04-16 08:39:16,40.1849101461009,33.3283020321407,97.112864,,,3549.7496132639,38.057744,0,12.7406828224,16,5,14.351,3549.7496132639,97.112864,0.447388,13.612369202,0,0,-7.381902,109, 0.5, 2.1,0,0,1024,1024,1024,1024,109.3,0,36,3.602,3.614,3.621,3.595,0,0,15.796,102.11,3549.7496132639,97.112864,14,Waypoint,
518700,2021-04-16 08:39:16,40.1849100819692,33.3283020889519,98.097116,,,3550.7338652639,38.057744,0,12.7280843968,16,5,14.351,3550.7338652639,98.097116,0.447388,13.612369202,0,0,-7.381902,108.9, 0.5, 2,0,0,1024,1024,1024,1024,109.3,0,36,3.602,3.614,3.621,3.595,0,0,15.796,102.11,3550.7338652639,98.097116,14,Waypoint,
518800,2021-04-16 08:39:16,40.1849100509444,33.3283021361908,99.081368,,,3551.7181172639,38.057744,0,12.7165686484,16,5,14.351,3551.7181172639,99.081368,0.447388,13.612369202,0,0,-7.381902,108.9, 0.7, 1.7,0,0,1024,1024,1024,1024,109.3,0,36,3.602,3.614,3.621,3.595,0,0,15.796,102.11,3551.7181172639,99.081368,14,Waypoint,
518900,2021-04-16 08:39:16,40.1849100164111,33.3283021899383,100.06562,,,3552.7023692639,38.057744,0,12.70341248,15,5,14.352,3552.7023692639,100.06562,0.447388,13.612369202,0,0,-7.381902,108.9, 0.8, 1.6,0,0,1024,1024,1024,1024,109.3,0,36,3.602,3.614,3.621,3.595,0,0,15.796,102.11,3552.7023692639,100.06562,14,Waypoint,
519000,2021-04-16 08:39:16,40.1849100247905,33.3283022653445,100.721788,,,3553.3585372639,38.057744,0,12.6821854452,15,5,14.352,3553.3585372639,100.721788,0.447388,13.612369202,0,0,-7.381902,108.9, 1, 1.8,0,0,1024,1024,1024,1024,109.3,0,36,3.602,3.614,3.621,3.595,0,0,15.796,102.11,3553.3585372639,100.721788,14,Waypoint,
519100,2021-04-16 08:39:16,40.1849100826692,33.3283024098279,101.70604,,,3554.3427892639,38.057744,0,12.6394361,16,5,14.352,3554.3427892639,101.70604,0.447388,13.612369202,0,0,-7.381902,108.9, 1.3, 2.1,0,0,1024,1024,1024,1024,109.3,0,36,3.602,3.614,3.621,3.595,0,0,15.796,102.11,3554.3427892639,101.70604,14,Waypoint,
519200,2021-04-16 08:39:16,40.1849101278961,33.3283024877736,102.690292,,,3555.3270412639,38.057744,0,12.6156828184,16,5,14.352,3555.3270412639,102.690292,0.447388,13.612369202,0,0,-7.381902,109, 1.6, 2.4,0,0,1024,1024,1024,1024,109.3,0,36,3.602,3.614,3.621,3.595,0,0,15.796,102.11,3555.3270412639,102.690292,14,Waypoint,
519300,2021-04-16 08:39:16,40.1849101773049,33.3283025536132,104.002628,,,3556.6393772639,38.057744,0,12.5951119516,16,5,14.352,3556.6393772639,104.002628,0.447388,13.612369202,0,0,-7.381902,109, 1.5, 2.1,0,0,1024,1024,1024,1024,109.3,0,36,3.602,3.614,3.621,3.595,0,0,15.796,102.11,3556.6393772639,104.002628,14,Waypoint,
519400,2021-04-16 08:39:16,40.1849101617427,33.3283025223066,104.98688,,,3557.6236292639,38.057744,0,12.604495154,16,5,14.352,3557.6236292639,104.98688,0.447388,13.612369202,0,0,-7.381902,109, 1.3, 1.9,0,0,1024,1024,1024,1024,109.3,0,36,3.602,3.614,3.621,3.595,0,0,15.796,102.11,3557.6236292639,104.98688,14,Waypoint,
519500,2021-04-16 08:39:17,40.1849101114545,33.3283024383764,106.299216,,,3558.9359652639,38.057744,0,12.6301185144,16,5,14.352,3558.9359652639,106.299216,0.447388,13.612369202,0,0,-7.381902,109, 0.8, 1.9,0,0,1024,1024,1024,1024,109.3,0,36,3.602,3.614,3.621,3.595,0,0,15.796,102.11,3558.9359652639,106.299216,14,Waypoint,
519600,2021-04-16 08:39:17,40.1849100744758,33.3283021712927,107.283468,,,3559.9202172639,38.057744,0,12.705709068,16,5,14.352,3559.9202172639,107.283468,0.447388,13.612369202,0,0,-7.381902,108.9, 0.6, 1.5,0,0,1024,1024,1024,1024,109.3,0,36,3.602,3.614,3.621,3.595,0,0,15.796,102.11,3559.9202172639,107.283468,14,Waypoint,
519700,2021-04-16 08:39:17,40.1849100324647,33.3283020856639,108.26772,,,3560.9044692639,38.057744,0,12.7314308536,16,5,14.352,3560.9044692639,108.26772,0.447388,13.612369202,0,0,-7.381902,108.9, 0.4, 1.2,0,0,1024,1024,1024,1024,109.3,0,36,3.602,3.614,3.621,3.595,0,0,15.796,102.11,3560.9044692639,108.26772,14,Waypoint,
519800,2021-04-16 08:39:17,40.1849100089401,33.3283020353277,109.251972,,,3561.8887212639,38.057744,0,12.7464899092,16,5,14.352,3561.8887212639,109.251972,0.447388,13.612369202,0,0,-7.158208,108.9, 0.3, 1.2,0,0,1024,1024,1024,1024,109.3,0,36,3.602,3.614,3.621,3.595,0,0,15.796,102.11,3561.8887212639,109.251972,14,Waypoint,
519900,2021-04-16 08:39:17,40.1849099966378,33.32830201014,110.236224,,,3562.8729732639,38.057744,0,12.7540686496,16,5,14.299,3562.8729732639,110.236224,0.447388,13.612369202,0,0,-7.158208,108.9, 0.5, 1.4,0,0,1024,1024,1024,1024,109.3,0,36,3.602,3.614,3.621,3.595,0,0,15.796,102.11,3562.8729732639,110.236224,14,Waypoint,
520000,2021-04-16 08:39:17,40.1849099429949,33.3283020833346,110.892392,,,3563.5291412639,38.057744,0,12.7365161556,16,5,14.299,3563.5291412639,110.892392,0.447388,13.612369202,0,0,-7.158208,108.9, 0.7, 1.7,0,0,1024,1024,1024,1024,109.3,0,36,3.602,3.614,3.621,3.595,0,0,15.796,102.11,3563.5291412639,110.892392,14,Waypoint,
520100,2021-04-16 08:39:17,40.1849098657255,33.3283022128612,112.204728,,,3564.8414772639,38.057744,0,12.7046920076,16,5,14.299,3564.8414772639,112.204728,0.447388,13.612369202,0,0,-7.381902,108.9, 1, 1.8,0,0,1024,1024,1024,1024,109.3,0,36,3.602,3.614,3.621,3.595,0,0,15.796,102.11,3564.8414772639,112.204728,14,Waypoint,
520200,2021-04-16 08:39:17,40.1849098143428,33.3283023256622,113.18898,,,3565.8257292639,38.057744,0,12.676181508,16,5,14.299,3565.8257292639,113.18898,0.447388,13.612369202,0,0,-7.158208,108.9, 1.2, 1.9,0,0,1024,1024,1024,1024,109.3,0,36,3.602,3.614,3.621,3.595,0,0,15.796,102.11,3565.8257292639,113.18898,14,Waypoint,
520300,2021-04-16 08:39:17,40.1849097783447,33.3283024314866,114.501316,,,3567.1380652639,38.057744,0,12.6488849192,16,5,14.299,3567.1380652639,114.501316,0.447388,13.612369202,0,0,-7.158208,108.9, 1.4, 1.9,0,0,1024,1024,1024,1024,109.3,0,36,3.602,3.614,3.621,3.595,0,0,15.796,102.11,3567.1380652639,114.501316,14,Waypoint,
520400,2021-04-16 08:39:17,40.1849096746578,33.3283025225532,115.485568,,,3568.1223172639,38.057744,0,12.6292326876,16,5,14.299,3568.1223172639,115.485568,0.447388,13.612369202,0,0,-7.158208,108.9, 1.5, 1.9,0,0,1024,1024,1024,1024,109.3,0,36,3.602,3.614,3.621,3.595,0,0,15.796,102.11,3568.1223172639,115.485568,14,Waypoint,
520500,2021-04-16 08:39:18,40.1849096412225,33.328302587011,116.46982,,,3569.1065692639,38.057744,0,12.6132549968,16,5,14.299,3569.1065692639,116.46982,0.447388,13.612369202,0,0,-7.158208,108.9, 1.6, 1.9,0,0,1024,1024,1024,1024,109.3,0,36,3.602,3.614,3.621,3.595,0,0,15.796,102.11,3569.1065692639,116.46982,14,Waypoint,
520600,2021-04-16 08:39:18,40.1849096421857,33.3283025822711,117.454072,,,3570.0908212639,38.057744,0,12.614501716,16,5,14.299,3570.0908212639,117.454072,0.447388,13.612369202,0,0,-7.158208,108.9, 1.4, 1.8,0,0,1024,1024,1024,1024,109.3,0,36,3.602,3.614,3.621,3.595,0,0,15.796,102.11,3570.0908212639,117.454072,14,Waypoint,
520700,2021-04-16 08:39:18,40.1849096595436,33.3283025589614,118.766408,,,3571.4031572639,38.057744,0.223694,12.6200135272,16,5,14.299,3571.4031572639,118.766408,0.447388,13.612369202,0.223694,0,-7.158208,108.9, 1.4, 1.8,0,0,1024,1024,1024,1024,109.3,0,36,3.602,3.614,3.621,3.595,0,0,15.796,102.11,3571.4031572639,118.766408,14,Waypoint,
520800,2021-04-16 08:39:18,40.1849097929032,33.328302426032,119.75066,,,3572.3874092639,38.057744,0.223694,12.649606704,16,5,14.299,3572.3874092639,119.75066,0.447388,13.612369202,0.223694,0,-7.158208,108.9, 1.8, 1.8,0,0,1024,1024,1024,1024,109.3,0,36,3.602,3.614,3.621,3.595,0,0,15.796,102.11,3572.3874092639,119.75066,14,Waypoint,
520900,2021-04-16 08:39:18,40.1849098386574,33.3283024684217,120.734912,,,3573.3716612639,38.057744,0.223694,12.6355319004,16,5,14.322,3573.3716612639,120.734912,0.447388,13.612369202,0.223694,0,-6.934514,108.9, 1.7, 2.1,0,0,1024,1024,1024,1024,109.3,0,36,3.597,3.61,3.616,3.593,0,0,16.084,102.11,3573.3716612639,120.734912,14,Waypoint,
521000,2021-04-16 08:39:18,40.1849099535356,33.3283025577084,122.047248,,,3574.6839972639,38.057744,0.223694,12.6050200884,16,5,14.322,3574.6839972639,122.047248,0.447388,13.612369202,0.223694,0,-6.934514,108.9, 1.7, 2.6,0,0,1024,1024,1024,1024,109.3,0,36,3.597,3.61,3.616,3.593,0,0,16.084,102.11,3574.6839972639,122.047248,14,Waypoint,
521100,2021-04-16 08:39:18,40.1849100967751,33.3283026644718,122.703416,,,3575.3401652639,38.057744,0.223694,12.568405914,16,5,14.322,3575.3401652639,122.703416,0.447388,13.612369202,0.223694,0,-6.934514,108.9, 1.8, 2.8,0,0,1024,1024,1024,1024,109.3,0,36,3.597,3.61,3.616,3.593,0,0,16.084,102.11,3575.3401652639,122.703416,14,Waypoint,
521200,2021-04-16 08:39:18,40.1849102098572,33.328302767098,123.687668,,,3576.3244172639,38.057744,0.223694,12.5345476452,16,5,14.322,3576.3244172639,123.687668,0.447388,13.612369202,0.223694,0,-6.934514,109, 1.7, 2.9,0,0,1024,1024,1024,1024,109.3,0,36,3.597,3.61,3.616,3.593,0,0,16.084,102.11,3576.3244172639,123.687668,14,Waypoint,
521300,2021-04-16 08:39:18,40.1849105181246,33.3283030471652,124.67192,,,3577.3086692639,38.057744,0.223694,12.4427169336,16,5,14.322,3577.3086692639,124.67192,0.447388,13.612369202,0.223694,0,-6.71082,109, 1.5, 3,0,0,1024,1024,1024,1024,109.3,0,36,3.597,3.61,3.616,3.593,0,0,16.084,102.11,3577.3086692639,124.67192,14,Waypoint,
521400,2021-04-16 08:39:18,40.1849106020315,33.3283031136495,125.656172,,,3578.2929212639,38.057744,0,12.4205712636,16,5,14.322,3578.2929212639,125.656172,0.447388,13.612369202,0,0,-6.71082,109, 1.4, 3.2,0,0,1024,1024,1024,1024,109.3,0,36,3.597,3.61,3.616,3.593,0,0,16.084,102.11,3578.2929212639,125.656172,14,Waypoint,
521500,2021-04-16 08:39:19,40.1849106777721,33.3283031650032,126.640424,,,3579.2771732639,38.057744,0,12.403051578,16,5,14.322,3579.2771732639,126.640424,0.447388,13.612369202,0,0,-6.71082,109, 1.4, 3.1,0,0,1024,1024,1024,1024,109.3,0,36,3.597,3.61,3.616,3.593,0,0,16.084,102.11,3579.2771732639,126.640424,14,Waypoint,
521600,2021-04-16 08:39:19,40.184910731046,33.3283032012347,127.624676,,,3580.2614252639,38.057744,0,12.3907156196,16,5,14.322,3580.2614252639,127.624676,0.447388,13.612369202,0,0,-6.934514,109, 1.4, 2.7,0,0,1024,1024,1024,1024,109.2,0,36,3.597,3.61,3.616,3.593,0,0,16.084,102.11,3580.2614252639,127.624676,14,Waypoint,
