time(millisecond),datetime(utc),latitude,longitude,height_above_takeoff(feet),height_above_ground_at_drone_location(feet),ground_elevation_at_drone_location(feet),altitude_above_seaLevel(feet),height_sonar(feet),speed(mph),distance(feet),satellites,gpslevel,voltage(v),max_altitude(feet),max_ascent(feet),max_speed(mph),max_distance(feet), xSpeed(mph), ySpeed(mph), zSpeed(mph), compass_heading(degrees), pitch(degrees), roll(degrees),isPhoto,isVideo,rc_elevator,rc_aileron,rc_throttle,rc_rudder,gimbal_heading(degrees),gimbal_pitch(degrees),battery_percent,voltageCell1,voltageCell2,voltageCell3,voltageCell4,voltageCell5,voltageCell6,current(A),battery_temperature(f),altitude(feet),ascent(feet),flycStateRaw,flycState,message
398000,,40.1849220328017,33.3282001902774,0,Available with any HD 360 subscription,Available with any HD 360 subscription,3451.4308643828,0.656168,0,0,14,5,0,3451.4308643828,0,0,0,0,0,0,131.6, 1.4, 0.1,0,0,1024,1024,1024,1024,131,-14.9,75,4.033,4.037,4.038,4.035,0,0,0,89.51,3451.4308643828,0,41,Motors_Started,
398100,,40.1849220680526,33.3282001771468,0,,,3451.4308643828,0.984252,0,0.01337188363,14,5,0,3451.4308643828,0,0,0.01337188363,0,0,0,131.6, 1.4, 0,0,0,1024,1024,1024,1024,131,-14.9,75,4.033,4.037,4.038,4.035,0,0,0,89.51,3451.4308643828,0,41,Motors_Started,
398200,,40.1849220924956,33.3282001869713,0,,,3451.4308643828,0.984252,0,0.0217987539784,14,5,0,3451.4308643828,0,0,0.0217987539784,0,0,0,131.6, 1.4, 0,0,0,1024,1024,1024,1024,131,-14.9,75,4.033,4.037,4.038,4.035,0,0,0,89.51,3451.4308643828,0,41,Motors_Started,
398300,,40.1849221515983,33.3282001796134,0,,,3451.4308643828,0.656168,0,0.043444555196,14,5,16.132,3451.4308643828,0,0,0.043444555196,0,0,0,131.7, 1.4, 0,0,0,1024,1024,1024,1024,131,-14.9,75,4.033,4.037,4.038,4.035,0,0,1.36,89.51,3451.4308643828,0,41,Motors_Started,Setting new Return-To-Home altitude to 351m (1152 ft). Data Recorder File Index is 555. Setting new Maximum Flight Altitude to 500m (1640 ft)
398400,,40.1849221933402,33.3282001942521,0,,,3451.4308643828,0.656168,0,11.9315620616,14,5,16.132,3451.4308643828,0,0,11.9315620616,0,0,0,131.7, 1.4, 0,0,0,1024,1024,1024,1024,131.1,-14.9,75,4.033,4.037,4.038,4.035,0,0,1.36,89.51,3451.4308643828,0,41,Motors_Started,
398500,2021-03-21 11:21:26,40.1849222271272,33.3282001882424,0,,,3451.4308643828,0.656168,0,11.919127678,14,5,16.132,3451.4308643828,0,0,11.9315620616,0,0,0,131.7, 1.4, 0,0,0,1024,1024,1024,1024,131.1,-14.9,75,4.033,4.037,4.038,4.035,0,0,1.36,89.51,3451.4308643828,0,41,Motors_Started,
398600,2021-03-21 11:21:27,40.184922249546,33.3282002037164,0,,,3451.4308643828,0.656168,0,11.911581746,14,5,16.132,3451.4308643828,0,0,11.9315620616,0,0,0,131.7, 1.4, 0.1,0,0,1024,1024,1024,1024,131.1,-14.9,75,4.033,4.037,4.038,4.035,0,0,1.36,89.51,3451.4308643828,0,41,Motors_Started,
398700,2021-03-21 11:21:27,40.1849223003404,33.3282001976017,0,,,3451.4308643828,0.656168,0,11.8929793832,14,5,16.132,3451.4308643828,0,0,11.9315620616,0,0,0,131.7, 1.4, 0.1,0,0,1024,1024,1024,1024,131.1,-14.9,75,4.033,4.037,4.038,4.035,0,0,1.36,89.51,3451.4308643828,0,41,Motors_Started,
398800,2021-03-21 11:21:27,40.1849223388873,33.3282002125949,0,,,3451.4308643828,0.656168,0,11.8795607476,14,5,16.132,3451.4308643828,0,0,11.9315620616,0,0,0,131.7, 1.4, 0.1,0,0,1024,1024,1024,1024,131.1,-14.9,75,4.033,4.037,4.038,4.035,0,0,1.36,89.51,3451.4308643828,0,41,Motors_Started,
398900,2021-03-21 11:21:27,40.1849223279898,33.3282001667238,0,,,3451.4308643828,0.328084,0,11.881890144,14,5,16.132,3451.4308643828,0,0,11.9315620616,0,0,0,131.8, 1.4, 0,0,0,1024,1024,1024,1024,131.1,-14.9,75,4.033,4.037,4.038,4.035,0,0,1.36,89.51,3451.4308643828,0,41,Motors_Started,
399000,2021-03-21 11:21:27,40.1849223165483,33.3282001512975,0,,,3451.4308643828,0.328084,0,11.8854662596,14,5,16.132,3451.4308643828,0,0,11.9315620616,0,0,0,131.7, 1.4, 0.1,0,0,1024,1024,1024,1024,131.1,-14.9,75,4.033,4.037,4.038,4.035,0,0,1.36,89.51,3451.4308643828,0,41,Motors_Started,
399100,2021-03-21 11:21:27,40.1849222963247,33.3282001153182,0,,,3451.4308643828,0.328084,0,11.8915358136,14,5,16.132,3451.4308643828,0,0,11.9315620616,0,0,0,131.8, 1.4, 0.1,0,0,1024,1024,1024,1024,131.1,-14.9,75,4.033,4.037,4.038,4.035,0,0,1.36,89.51,3451.4308643828,0,41,Motors_Started,
399200,2021-03-21 11:21:27,40.1849222814505,33.3282001122756,0,,,3451.4308643828,0.328084,0,11.896817966,14,5,16.132,3451.4308643828,0,0,11.9315620616,0,0,0,131.8, 1.4, 0,0,0,1024,1024,1024,1024,131.1,-14.9,75,4.033,4.037,4.038,4.035,0,0,1.36,89.51,3451.4308643828,0,41,Motors_Started,
399300,2021-03-21 11:21:27,40.1849223019949,33.3282000920575,0,,,3451.4308643828,0.328084,0,11.8886486744,14,5,16.105,3451.4308643828,0,0,11.9315620616,0,0,0,131.8, 1.4, 0.1,0,0,1024,1024,1024,1024,131.1,-14.9,75,4.033,4.037,4.039,4.036,0,0,1.36,89.51,3451.4308643828,0,41,Motors_Started,
399400,2021-03-21 11:21:27,40.184922316304,33.3282000961191,0,,,3451.4308643828,0.328084,0,11.8836289892,14,5,16.105,3451.4308643828,0,0,11.9315620616,0,0,0,131.8, 1.5, 0,0,0,1024,1024,1024,1024,131.2,-14.9,75,4.033,4.037,4.039,4.036,0,0,1.36,89.51,3451.4308643828,0,41,Motors_Started,
399500,2021-03-21 11:21:27,40.1849222896513,33.32820008106,0,,,3451.4308643828,0.328084,0,11.8927497244,14,5,16.105,3451.4308643828,0,0,11.9315620616,0,0,0,131.8, 1.4, 0.1,0,0,1024,1024,1024,1024,131.2,-14.9,75,4.033,4.037,4.039,4.036,0,0,1.36,89.51,3451.4308643828,0,11,AutoTakeoff,
399600,2021-03-21 11:21:28,40.1849222627624,33.3282000925915,0,,,3451.4308643828,0.328084,0,11.90288752,14,5,16.105,3451.4308643828,0,0,11.9315620616,0,0,0,131.9, 1.4, 0.1,0,0,1024,1024,1024,1024,131.2,-14.9,75,4.033,4.037,4.039,4.036,0,0,1.36,89.51,3451.4308643828,0,11,AutoTakeoff,
399700,2021-03-21 11:21:28,40.1849222794377,33.3282000824993,0,,,3451.4308643828,0.328084,0,11.896489882,14,5,16.105,3451.4308643828,0,0,11.9315620616,0,0,0,131.9, 1.3, 0.2,0,0,1024,1024,1024,1024,131.2,-14.9,75,4.033,4.037,4.039,4.036,0,0,1.36,89.51,3451.4308643828,0,11,AutoTakeoff,
399800,2021-03-21 11:21:28,40.1849222883241,33.3282000943448,0,,,3451.4308643828,0.328084,0,11.893701168,14,5,16.105,3451.4308643828,0,0,11.9315620616,0,0,0,132, 1.5, 0.1,0,0,1024,1024,1024,1024,131.2,-14.9,75,4.033,4.037,4.039,4.036,0,0,1.36,89.51,3451.4308643828,0,11,AutoTakeoff,
399900,2021-03-21 11:21:28,40.184922298865,33.3282000863492,0,,,3451.4308643828,0.328084,0,11.889600118,14,5,16.105,3451.4308643828,0,0,11.9315620616,0,0,0,131.8, 1.4, 0.1,0,0,1024,1024,1024,1024,131.2,-14.9,75,4.033,4.037,4.039,4.036,0,0,1.36,89.51,3451.4308643828,0,11,AutoTakeoff,
400000,2021-03-21 11:21:28,40.1849223012751,33.3282000996691,0,,,3451.4308643828,0.328084,0,11.8891736088,14,5,16.105,3451.4308643828,0,0,11.9315620616,0,0,0,131.9, 1.4, 0,0,0,1024,1024,1024,1024,131.2,-14.9,75,4.033,4.037,4.039,4.036,0,0,1.36,89.51,3451.4308643828,0,11,AutoTakeoff,
400100,2021-03-21 11:21:28,40.1849223071766,33.3282000888383,0,,,3451.4308643828,0.328084,0,11.8866801704,14,5,16.105,3451.4308643828,0,0,11.9315620616,0,0,0,132.1, 1.7, 0.1,0,0,1024,1024,1024,1024,131.2,-14.9,75,4.033,4.037,4.039,4.036,0,0,1.36,89.51,3451.4308643828,0,11,AutoTakeoff,
400200,2021-03-21 11:21:28,40.1849223060139,33.3282000958864,0,,,3451.4308643828,0.328084,0,11.8873363384,14,5,16.105,3451.4308643828,0,0,11.9315620616,0,0,0,131.8, 2.1, 0.7,0,0,1024,1024,1024,1024,131.2,-14.9,75,4.033,4.037,4.039,4.036,0,0,1.36,89.51,3451.4308643828,0,11,AutoTakeoff,
400300,2021-03-21 11:21:28,40.1849223131237,33.3282000073439,0,,,3451.4308643828,0.328084,0,11.8816932936,14,5,15.969,3451.4308643828,0,0,11.9315620616,0,0,0,131.7, 2.4, 1.7,0,0,1024,1024,1024,1024,131.3,-14.9,75,4.019,4.02,4.018,4.011,0,0,3.56,89.51,3451.4308643828,0,11,AutoTakeoff,
400400,2021-03-21 11:21:28,40.1849223115653,33.3281998733745,0,,,3451.4308643828,0.328084,0.223694,11.8777234772,14,5,15.969,3451.4308643828,0,0.223694,11.9315620616,0,-0.223694,-0.447388,131.6, 1.8, 1.4,0,0,1024,1024,1024,1024,131.3,-14.9,75,4.019,4.02,4.018,4.011,0,0,3.56,89.51,3451.4308643828,0,11,AutoTakeoff,
400500,2021-03-21 11:21:28,40.1849223061279,33.3281996586143,0,,,3451.4308643828,0.656168,0.223694,11.8726709836,14,5,15.969,3451.4308643828,0,0.223694,11.9315620616,0,-0.223694,-0.894776,131.6, 0.4, 0.8,0,0,1024,1024,1024,1024,131.3,-14.9,75,4.019,4.02,4.018,4.011,0,0,3.56,89.51,3451.4308643828,0,11,AutoTakeoff,
400600,2021-03-21 11:21:29,40.1849222841716,33.3281994447945,0,,,3451.4308643828,0.656168,0.223694,11.8739177028,14,5,15.969,3451.4308643828,0,0.223694,11.9315620616,0,-0.223694,-1.11847,131.5, -0.2, 0.1,0,0,1024,1024,1024,1024,131.3,-14.9,75,4.019,4.02,4.018,4.011,0,0,3.56,89.51,3451.4308643828,0,11,AutoTakeoff,
400700,2021-03-21 11:21:29,40.1849222424281,33.3281991843398,0.328084,,,3451.7589483828,0.984252,0.223694,11.8813324012,14,5,15.969,3451.7589483828,0.328084,0.223694,11.9315620616,0,-0.223694,-1.342164,131.5, -0.7, -0.6,0,0,1024,1024,1024,1024,131.3,-14.9,75,4.019,4.02,4.018,4.011,0,0,3.56,89.51,3451.7589483828,0.328084,11,AutoTakeoff,
400800,2021-03-21 11:21:29,40.1849221756749,33.3281989735262,0.656168,,,3452.0870323828,0.984252,0.223694,11.89960668,14,5,15.969,3452.0870323828,0.656168,0.223694,11.9315620616,0,-0.223694,-1.342164,131.6, -0.4, -1.3,0,0,1024,1024,1024,1024,131.3,-14.9,75,4.019,4.02,4.018,4.011,0,0,3.56,89.51,3452.0870323828,0.656168,11,AutoTakeoff,
400900,2021-03-21 11:21:29,40.1849220796065,33.3281987351914,0.656168,,,3452.0870323828,1.312336,0.223694,11.9281171796,13,4,15.969,3452.0870323828,0.656168,0.223694,11.9315620616,0,-0.223694,-1.11847,131.8, -0.1, -2.3,0,0,1024,1024,1024,1024,131.3,-14.9,75,4.019,4.02,4.018,4.011,0,0,3.56,89.51,3452.0870323828,0.656168,11,AutoTakeoff,
401100,2021-03-21 11:21:29,40.1849219497608,33.3281984407839,0.984252,,,3452.4151163828,1.64042,0,11.9679793856,15,4,15.969,3452.4151163828,0.984252,0.223694,11.9679793856,0,0,-0.894776,131.8, -1, -1.8,0,0,1024,1024,1024,1024,131.3,-14.9,75,4.019,4.02,4.018,4.011,0,0,3.56,89.51,3452.4151163828,0.984252,11,AutoTakeoff,
401200,2021-03-21 11:21:29,40.1849219082371,33.3281984051382,0.984252,,,3452.4151163828,1.64042,0,11.9822510396,15,4,15.969,3452.4151163828,0.984252,0.223694,11.9822510396,0,0,-0.894776,131.7, -0.9, -0.5,0,0,1024,1024,1024,1024,131.3,-14.9,75,4.019,4.02,4.018,4.011,0,0,3.56,89.51,3452.4151163828,0.984252,11,AutoTakeoff,
401300,2021-03-21 11:21:29,40.1849219434522,33.3281983830407,1.312336,,,3452.7432003828,1.968504,0,11.9689308292,15,4,15.724,3452.7432003828,1.312336,0.223694,11.9822510396,0,0,-0.894776,131.7, -0.2, 0,0,0,1024,1024,1024,1024,131.3,-14.9,75,3.961,3.968,3.968,3.956,0,0,10.644,89.51,3452.7432003828,1.312336,11,AutoTakeoff,
401400,2021-03-21 11:21:29,40.1849219354028,33.3281983804493,1.312336,,,3452.7432003828,1.968504,0,11.97178516,15,4,15.724,3452.7432003828,1.312336,0.223694,11.9822510396,0,0,-0.894776,131.6, 0.1, 0,0,0,1024,1024,1024,1024,131.3,-14.9,75,3.961,3.968,3.968,3.956,0,0,10.644,89.51,3452.7432003828,1.312336,11,AutoTakeoff,
401500,2021-03-21 11:21:29,40.1849218740187,33.3281983201975,1.64042,,,3453.0712843828,2.296588,0,11.9927169192,14,4,15.724,3453.0712843828,1.64042,0.223694,11.9927169192,0,0,-0.894776,131.5, 0, -0.4,0,0,1024,1024,1024,1024,131.3,-14.9,75,3.961,3.968,3.968,3.956,0,0,10.644,89.51,3453.0712843828,1.64042,11,AutoTakeoff,
401600,2021-03-21 11:21:30,40.1849218064806,33.328198273976,1.64042,,,3453.0712843828,2.296588,0,12.0162077336,14,4,15.724,3453.0712843828,1.64042,0.223694,12.0162077336,0,0,-1.11847,131.5, 0.1, -0.9,0,0,1024,1024,1024,1024,131.3,-14.9,75,3.961,3.968,3.968,3.956,0,0,10.644,89.51,3453.0712843828,1.64042,11,AutoTakeoff,
401700,2021-03-21 11:21:30,40.1849217218096,33.3281981445377,1.968504,,,3453.3993683828,2.624672,0,12.044127682,15,4,15.724,3453.3993683828,1.968504,0.223694,12.044127682,0,0,-1.11847,131.6, 0, -1.3,0,0,1024,1024,1024,1024,131.3,-14.9,75,3.961,3.968,3.968,3.956,0,0,10.644,89.51,3453.3993683828,1.968504,11,AutoTakeoff,
401800,2021-03-21 11:21:30,40.1849216589729,33.3281980425632,1.968504,,,3453.3993683828,2.624672,0,12.064796974,15,4,15.724,3453.3993683828,1.968504,0.223694,12.064796974,0,0,-1.11847,131.5, -0.4, -1,0,0,1024,1024,1024,1024,131.3,-14.9,75,3.961,3.968,3.968,3.956,0,0,10.644,89.51,3453.3993683828,1.968504,11,AutoTakeoff,
401900,2021-03-21 11:21:30,40.1849217015322,33.3281979181969,2.296588,,,3453.7274523828,2.952756,0,12.0467195456,14,4,15.724,3453.7274523828,2.296588,0.223694,12.064796974,0,0,-1.11847,131.4, -0.4, -0.8,0,0,1024,1024,1024,1024,131.3,-14.9,75,3.961,3.968,3.968,3.956,0,0,10.644,89.51,3453.7274523828,2.296588,11,AutoTakeoff,
402000,2021-03-21 11:21:30,40.1849217326502,33.3281978174851,2.296588,,,3453.7274523828,3.28084,0,12.0333665268,14,4,15.724,3453.7274523828,2.296588,0.223694,12.064796974,0,0,-1.11847,131.3, -0.3, -1.4,0,0,1024,1024,1024,1024,131.3,-14.9,75,3.961,3.968,3.968,3.956,0,0,10.644,89.51,3453.7274523828,2.296588,11,AutoTakeoff,
402100,2021-03-21 11:21:30,40.1849217661961,33.3281976709513,2.624672,,,3454.0555363828,3.28084,0,12.0183402796,14,4,15.724,3454.0555363828,2.624672,0.223694,12.064796974,0,0,-0.894776,131.4, -0.8, -1.6,0,0,1024,1024,1024,1024,131.3,-14.9,75,3.961,3.968,3.968,3.956,0,0,10.644,89.51,3454.0555363828,2.624672,11,AutoTakeoff,
402200,2021-03-21 11:21:30,40.1849218033458,33.3281975648788,2.624672,,,3454.0555363828,3.608924,0,12.0028547148,14,4,15.724,3454.0555363828,2.624672,0.223694,12.064796974,0,0,-0.894776,131.3, -1, -1.7,0,0,1024,1024,1024,1024,131.3,-14.9,75,3.961,3.968,3.968,3.956,0,0,10.644,89.51,3454.0555363828,2.624672,11,AutoTakeoff,
402300,2021-03-21 11:21:30,40.1849218664952,33.3281973797183,2.952756,,,3454.3836203828,3.608924,0,11.9766079948,15,4,15.724,3454.3836203828,2.952756,0.223694,12.064796974,0,0,-0.894776,131.4, -1.3, -1.2,0,0,1024,1024,1024,1024,131.3,-14.9,75,3.961,3.968,3.968,3.956,0,0,10.644,89.51,3454.3836203828,2.952756,14,Waypoint,
402400,2021-03-21 11:21:30,40.1849219324081,33.3281972541607,2.952756,,,3454.3836203828,3.937008,0,11.9505253168,15,4,15.724,3454.3836203828,2.952756,0.223694,12.064796974,0,0,-0.894776,131.4, -1.5, -0.5,0,0,1024,1024,1024,1024,131.3,-14.9,75,3.961,3.968,3.968,3.956,0,0,10.644,89.51,3454.3836203828,2.952756,14,Waypoint,
402500,2021-03-21 11:21:30,40.1849220508286,33.3281971813023,3.28084,,,3454.7117043828,3.937008,0,11.9062339768,15,4,15.724,3454.7117043828,3.28084,0.223694,12.064796974,0,0,-0.894776,131.3, -0.6, 0.1,0,0,1024,1024,1024,1024,131.3,-14.9,75,3.961,3.968,3.968,3.956,0,0,10.644,89.51,3454.7117043828,3.28084,14,Waypoint,
402600,2021-03-21 11:21:31,40.1849221462815,33.3281971289956,3.28084,,,3454.7117043828,3.937008,0,11.8706368628,15,4,15.724,3454.7117043828,3.28084,0.223694,12.064796974,0,0,-0.894776,131.4, -1.3, 0.4,0,0,1024,1024,1024,1024,131.3,-14.9,75,3.961,3.968,3.968,3.956,0,0,10.644,89.51,3454.7117043828,3.28084,14,Waypoint,
402700,2021-03-21 11:21:31,40.1849221804755,33.3281971122869,3.608924,,,3455.0397883828,4.265092,0,11.8579072036,14,4,15.724,3455.0397883828,3.608924,0.223694,12.064796974,0,0,-0.894776,131.4, -0.9, 0,0,0,1024,1024,1024,1024,131.3,-14.9,75,3.961,3.968,3.968,3.956,0,0,10.644,89.51,3455.0397883828,3.608924,14,Waypoint,
402800,2021-03-21 11:21:31,40.1849221985757,33.3281971163316,3.608924,,,3455.0397883828,4.593176,0,11.851378332,14,4,15.724,3455.0397883828,3.608924,0.223694,12.064796974,0,0,-1.11847,131.2, -0.6, -0.1,0,0,1024,1024,1024,1024,131.3,-14.9,75,3.961,3.968,3.968,3.956,0,0,10.644,89.51,3455.0397883828,3.608924,14,Waypoint,
402900,2021-03-21 11:21:31,40.1849222565776,33.3281971110788,3.937008,,,3455.3678723828,4.593176,0,11.8301841056,14,4,15.724,3455.3678723828,3.937008,0.223694,12.064796974,0,0,-1.565858,130.8, -1, 0,0,0,1024,1024,1024,1024,131.3,-14.9,75,3.961,3.968,3.968,3.956,0,0,10.644,89.51,3455.3678723828,3.937008,14,Waypoint,
403000,2021-03-21 11:21:31,40.1849222938006,33.3281971394003,4.265092,,,3455.6959563828,4.92126,0,11.8170607456,14,4,15.724,3455.6959563828,4.265092,0.223694,12.064796974,0,0,-2.013246,131, -1.1, 0.4,0,0,1024,1024,1024,1024,131.3,-14.9,75,3.961,3.968,3.968,3.956,0,0,10.644,89.51,3455.6959563828,4.265092,14,Waypoint,
403100,2021-03-21 11:21:31,40.1849222399886,33.3281971702249,4.593176,,,3456.0240403828,5.249344,0,11.8371394864,15,4,15.724,3456.0240403828,4.593176,0.223694,12.064796974,0,0,-2.460634,131, 0, 0.5,0,0,1024,1024,1024,1024,131.3,-14.9,75,3.961,3.968,3.968,3.956,0,0,10.644,89.51,3456.0240403828,4.593176,14,Waypoint,
403200,2021-03-21 11:21:31,40.1849221683143,33.3281972359833,4.92126,,,3456.3521243828,5.577428,0,11.8643048416,15,4,15.724,3456.3521243828,4.92126,0.223694,12.064796974,0,0,-2.908022,130.8, 0.4, 0.6,0,0,1024,1024,1024,1024,131.3,-14.9,75,3.961,3.968,3.968,3.956,0,0,10.644,89.51,3456.3521243828,4.92126,14,Waypoint,
403300,2021-03-21 11:21:31,40.184922148817,33.3281972760185,5.249344,,,3456.6802083828,5.905512,0,11.872047624,15,4,15.615,3456.6802083828,5.249344,0.223694,12.064796974,0,0,-3.579104,131, -1, -0.3,0,0,1024,1024,1024,1024,131.3,-14.9,75,3.947,3.953,3.952,3.944,0,0,12.376,89.51,3456.6802083828,5.249344,14,Waypoint,
403400,2021-03-21 11:21:31,40.1849220915771,33.328197385484,5.905512,,,3457.3363763828,6.56168,0.223694,11.8947510368,15,4,15.615,3457.3363763828,5.905512,0.223694,12.064796974,0,0.223694,-4.026492,131, -0.5, -0.3,0,0,1024,1024,1024,1024,131.3,-14.9,75,3.947,3.953,3.952,3.944,0,0,12.376,89.51,3457.3363763828,5.905512,14,Waypoint,
403500,2021-03-21 11:21:31,40.184922024526,33.3281975789555,6.56168,,,3457.9925443828,7.217848,0.31540854,11.9226053684,15,4,15.615,3457.9925443828,6.56168,0.31540854,12.064796974,-0.223694,0.223694,-4.47388,131.1, 0.1, -0.6,0,0,1024,1024,1024,1024,131.3,-14.9,75,3.947,3.953,3.952,3.944,0,0,12.376,89.51,3457.9925443828,6.56168,14,Waypoint,
403600,2021-03-21 11:21:32,40.1849219356455,33.3281978302065,7.217848,,,3458.6487123828,7.874016,0.31540854,11.9597444772,15,4,15.615,3458.6487123828,7.217848,0.31540854,12.064796974,-0.223694,0.223694,-5.144962,131.1, 0.4, 0.5,0,0,1024,1024,1024,1024,131.3,-14.9,75,3.947,3.953,3.952,3.944,0,0,12.376,89.51,3458.6487123828,7.217848,14,Waypoint,
403700,2021-03-21 11:21:32,40.1849219132104,33.3281981705832,8.2021,,,3459.6329643828,8.530184,0.31540854,11.975066,15,4,15.615,3459.6329643828,8.2021,0.31540854,12.064796974,-0.223694,0.223694,-5.59235,131.1, 2.6, 0.4,0,0,1024,1024,1024,1024,131.3,-14.9,75,3.947,3.953,3.952,3.944,0,0,12.376,89.51,3459.6329643828,8.2021,14,Waypoint,
403800,2021-03-21 11:21:32,40.1849218426483,33.3281984897593,8.858268,,,3460.2891323828,9.514436,0.223694,12.0081040588,15,4,15.615,3460.2891323828,8.858268,0.31540854,12.064796974,-0.223694,0,-6.039738,131.1, 3.2, 0.5,0,0,1024,1024,1024,1024,131.3,-14.9,75,3.947,3.953,3.952,3.944,0,0,12.376,89.51,3460.2891323828,8.858268,14,Waypoint,
403900,2021-03-21 11:21:32,40.1849218218629,33.3281987281194,9.84252,,,3461.2733843828,10.498688,0.223694,12.0215883112,15,4,15.615,3461.2733843828,9.84252,0.31540854,12.064796974,-0.223694,0,-6.487126,131.2, 2.8, 1.6,0,0,1024,1024,1024,1024,131.3,-14.9,75,3.947,3.953,3.952,3.944,0,0,12.376,89.51,3461.2733843828,9.84252,14,Waypoint,
404000,2021-03-21 11:21:32,40.1849217574123,33.3281989237379,10.826772,,,3462.2576363828,11.48294,0.447388,12.0501316192,15,4,15.615,3462.2576363828,10.826772,0.447388,12.064796974,-0.447388,0,-6.934514,131.2, 2.2, 1.9,0,0,1024,1024,1024,1024,131.3,-14.9,75,3.947,3.953,3.952,3.944,0,0,12.376,89.51,3462.2576363828,10.826772,14,Waypoint,
404100,2021-03-21 11:21:32,40.1849216527522,33.3281989701682,11.811024,,,3463.2418883828,12.467192,0.447388,12.0893704656,15,4,15.615,3463.2418883828,11.811024,0.447388,12.0893704656,-0.447388,0,-7.158208,131.3, 3.1, -0.9,0,0,1024,1024,1024,1024,131.3,-14.9,75,3.947,3.953,3.952,3.944,0,0,12.376,89.51,3463.2418883828,11.811024,14,Waypoint,
404200,2021-03-21 11:21:32,40.1849215236019,33.3281990348068,13.12336,,,3464.5542243828,13.451444,0.447388,12.1380253228,15,4,15.615,3464.5542243828,13.12336,0.447388,12.1380253228,-0.447388,0,-7.158208,131.4, 4.5, -1.6,0,0,1024,1024,1024,1024,131.3,-14.9,75,3.947,3.953,3.952,3.944,0,0,12.376,89.51,3464.5542243828,13.12336,14,Waypoint,
404300,2021-03-21 11:21:32,40.1849214479347,33.3281990526941,14.107612,,,3465.5384763828,14.435696,0.223694,12.166010888,15,4,15.479,3465.5384763828,14.107612,0.447388,12.166010888,-0.223694,0,-7.158208,131.5, 4, -2,0,0,1024,1024,1024,1024,131.3,-14.9,75,3.915,3.916,3.909,3.897,0,0,16.744,89.51,3465.5384763828,14.107612,14,Waypoint,
404400,2021-03-21 11:21:32,40.1849213882701,33.3281990755498,15.091864,,,3466.5227283828,15.748032,0.223694,12.1882877916,15,4,15.479,3466.5227283828,15.091864,0.447388,12.1882877916,-0.223694,0,-7.158208,131.5, 3, -1.4,0,0,1024,1024,1024,1024,131.3,-14.9,75,3.915,3.916,3.909,3.897,0,0,16.744,89.51,3466.5227283828,15.091864,14,Waypoint,
404500,2021-03-21 11:21:32,40.1849213374708,33.3281990006901,16.076116,,,3467.5069803828,16.732284,0.223694,12.2046919916,15,4,15.479,3467.5069803828,16.076116,0.447388,12.2046919916,-0.223694,0,-7.158208,131.5, 2.3, -1,0,0,1024,1024,1024,1024,131.3,-14.9,75,3.915,3.916,3.909,3.897,0,0,16.744,89.51,3467.5069803828,16.076116,14,Waypoint,
404600,2021-03-21 11:21:33,40.1849212561984,33.3281989507953,17.388452,,,3468.8193163828,17.716536,0.447388,12.2328744072,15,4,15.479,3468.8193163828,17.388452,0.447388,12.2328744072,-0.447388,0,-6.934514,131.5, 2.5, -1.2,0,0,1024,1024,1024,1024,131.3,-14.9,75,3.915,3.916,3.909,3.897,0,0,16.744,89.51,3468.8193163828,17.388452,14,Waypoint,
404700,2021-03-21 11:21:33,40.1849211561647,33.3281988512439,18.372704,,,3469.8035683828,18.700788,0.447388,12.2666014424,15,4,15.479,3469.8035683828,18.372704,0.447388,12.2666014424,-0.447388,0,-6.934514,131.5, 2.2, -1.4,0,0,1024,1024,1024,1024,131.3,-14.9,75,3.915,3.916,3.909,3.897,0,0,16.744,89.51,3469.8035683828,18.372704,14,Waypoint,
404800,2021-03-21 11:21:33,40.1849210311116,33.3281987870412,19.356956,,,3470.7878203828,19.68504,0.447388,12.310367848,15,4,15.479,3470.7878203828,19.356956,0.447388,12.310367848,-0.447388,0,-6.71082,131.5, 2.8, -1.8,0,0,1024,1024,1024,1024,131.3,-14.9,75,3.915,3.916,3.909,3.897,0,0,16.744,89.51,3470.7878203828,19.356956,14,Waypoint,
404900,2021-03-21 11:21:33,40.1849208524127,33.3281986443882,20.341208,,,3471.7720723828,20.669292,0.223694,12.3717851728,15,4,15.479,3471.7720723828,20.341208,0.447388,12.3717851728,-0.223694,0,-6.71082,131.4, 3.3, -2,0,0,1024,1024,1024,1024,131.3,-14.9,75,3.915,3.916,3.909,3.897,0,0,16.744,89.51,3471.7720723828,20.341208,14,Waypoint,
405000,2021-03-21 11:21:33,40.1849206776481,33.3281985371636,21.32546,,,3472.7563243828,21.653544,0.223694,12.4327103716,15,4,15.479,3472.7563243828,21.32546,0.447388,12.4327103716,-0.223694,0,-6.71082,131.5, 3.1, -2.4,0,0,1024,1024,1024,1024,131.3,-14.9,75,3.915,3.916,3.909,3.897,0,0,16.744,89.51,3472.7563243828,21.32546,14,Waypoint,
405100,2021-03-21 11:21:33,40.1849204120765,33.3281983639341,22.309712,,,3473.7405763828,22.637796,0.223694,12.5253284848,15,4,15.479,3473.7405763828,22.309712,0.447388,12.5253284848,-0.223694,0,-6.71082,131.3, 3.4, -3.1,0,0,1024,1024,1024,1024,131.3,-14.9,75,3.915,3.916,3.909,3.897,0,0,16.744,89.51,3473.7405763828,22.309712,14,Waypoint,
405200,2021-03-21 11:21:33,40.1849201822103,33.328198251943,23.293964,,,3474.7248283828,23.950132,0.223694,12.606463658,15,4,15.479,3474.7248283828,23.293964,0.447388,12.606463658,-0.223694,0,-6.71082,131.4, 3.1, -3.5,0,0,1024,1024,1024,1024,131.3,-14.9,75,3.915,3.916,3.909,3.897,0,0,16.744,89.51,3474.7248283828,23.293964,14,Waypoint,
405300,2021-03-21 11:21:33,40.1849199902607,33.3281981594693,24.278216,,,3475.7090803828,24.934384,0.223694,12.6743442376,15,4,15.615,3475.7090803828,24.278216,0.447388,12.6743442376,-0.223694,0,-6.71082,131.3, 3.2, -4.3,0,0,1024,1024,1024,1024,131.3,-14.9,75,3.919,3.928,3.927,3.912,0,0,13.778,89.51,3475.7090803828,24.278216,14,Waypoint,
405400,2021-03-21 11:21:33,40.1849198459447,33.3281981490631,25.262468,,,3476.6933323828,25.918636,0,12.7266408272,15,4,15.615,3476.6933323828,25.262468,0.447388,12.7266408272,0,0,-6.71082,131.3, 4.1, -3.4,0,0,1024,1024,1024,1024,131.3,-14.9,75,3.919,3.928,3.927,3.912,0,0,13.778,89.51,3476.6933323828,25.262468,14,Waypoint,
405500,2021-03-21 11:21:33,40.184919802848,33.3281981304078,26.24672,,,3477.6775843828,26.902888,0,12.7419295416,15,4,15.615,3477.6775843828,26.24672,0.447388,12.7419295416,0,0,-6.71082,131.3, 3.8, -1.6,0,0,1024,1024,1024,1024,131.3,-14.9,75,3.919,3.928,3.927,3.912,0,0,13.778,89.51,3477.6775843828,26.24672,14,Waypoint,
405600,2021-03-21 11:21:34,40.1849197762131,33.3281981240968,27.559056,,,3478.9899203828,27.88714,0.223694,12.751476786,15,4,15.615,3478.9899203828,27.559056,0.447388,12.751476786,0,-0.223694,-6.934514,131.4, 2.4, -1.3,0,0,1024,1024,1024,1024,131.3,-14.9,75,3.919,3.928,3.927,3.912,0,0,13.778,89.51,3478.9899203828,27.559056,14,Waypoint,
405700,2021-03-21 11:21:34,40.184919699007,33.3281980964354,28.543308,,,3479.9741723828,28.871392,0,12.7790030336,15,4,15.615,3479.9741723828,28.543308,0.447388,12.7790030336,0,0,-6.934514,131.4, 2.7, -2.6,0,0,1024,1024,1024,1024,131.3,-14.9,75,3.919,3.928,3.927,3.912,0,0,13.778,89.51,3479.9741723828,28.543308,14,Waypoint,
405800,2021-03-21 11:21:34,40.1849196148034,33.3281981141392,29.52756,,,3480.9584243828,29.855644,0,12.8100069716,15,4,15.615,3480.9584243828,29.52756,0.447388,12.8100069716,0,0,-6.934514,131.4, 3.2, -2.8,0,0,1024,1024,1024,1024,131.3,-14.9,75,3.919,3.928,3.927,3.912,0,0,13.778,89.51,3480.9584243828,29.52756,14,Waypoint,
405900,2021-03-21 11:21:34,40.1849195922739,33.3281981201516,30.511812,,,3481.9426763828,30.839896,0,12.8183403052,15,4,15.615,3481.9426763828,30.511812,0.447388,12.8183403052,0,0,-6.934514,131.3, 3.4, -2.7,0,0,1024,1024,1024,1024,131.3,-14.9,75,3.919,3.928,3.927,3.912,0,0,13.778,89.51,3481.9426763828,30.511812,14,Waypoint,
406000,2021-03-21 11:21:34,40.1849195678407,33.3281981466764,31.496064,,,3482.9269283828,31.824148,0,12.827756316,15,4,15.615,3482.9269283828,31.496064,0.447388,12.827756316,0,0,-6.934514,131.4, 2.8, -2.3,0,0,1024,1024,1024,1024,131.3,-14.9,75,3.919,3.928,3.927,3.912,0,0,13.778,89.51,3482.9269283828,31.496064,14,Waypoint,
406100,2021-03-21 11:21:34,40.1849195522858,33.3281981111273,32.480316,,,3483.9111803828,32.8084,0,12.8327103844,15,5,15.615,3483.9111803828,32.480316,0.447388,12.8327103844,0,0,-6.71082,131.4, 2.5, -1.6,0,0,1024,1024,1024,1024,131.3,-14.9,75,3.919,3.928,3.927,3.912,0,0,13.778,89.51,3483.9111803828,32.480316,14,Waypoint,
406200,2021-03-21 11:21:34,40.1849195018578,33.3281981079221,33.464568,,,3484.8954323828,33.792652,0,12.8509846632,15,5,15.615,3484.8954323828,33.464568,0.447388,12.8509846632,0,0,-6.71082,131.4, 2.6, -1.9,0,0,1024,1024,1024,1024,131.3,-14.9,75,3.919,3.928,3.927,3.912,0,0,13.778,89.51,3484.8954323828,33.464568,14,Waypoint,
406300,2021-03-21 11:21:34,40.1849194262621,33.3281981071387,34.44882,,,3485.8796843828,34.776904,0.223694,12.8784781024,15,5,15.615,3485.8796843828,34.44882,0.447388,12.8784781024,-0.223694,0,-6.71082,131.4, 3.2, -2.5,0,0,1024,1024,1024,1024,131.3,-14.9,75,3.919,3.928,3.927,3.912,0,0,13.778,89.51,3485.8796843828,34.44882,14,Waypoint,
406400,2021-03-21 11:21:34,40.1849193395296,33.3281981372863,35.433072,,,3486.8639363828,35.761156,0,12.9106631428,15,5,15.615,3486.8639363828,35.433072,0.447388,12.9106631428,0,0,-6.487126,131.5, 3.2, -2.7,0,0,1024,1024,1024,1024,131.3,-14.9,75,3.919,3.928,3.927,3.912,0,0,13.778,89.51,3486.8639363828,35.433072,14,Waypoint,
406500,2021-03-21 11:21:34,40.1849192656634,33.3281981428699,36.417324,,,3487.8481883828,36.745408,0,12.9376316476,15,5,15.615,3487.8481883828,36.417324,0.447388,12.9376316476,0,0,-6.487126,131.4, 3.8, -3.4,0,0,1024,1024,1024,1024,131.3,-14.9,75,3.919,3.928,3.927,3.912,0,0,13.778,89.51,3487.8481883828,36.417324,14,Waypoint,
406600,2021-03-21 11:21:35,40.1849191972866,33.3281981894235,37.401576,,,3488.8324403828,37.401576,0,12.9634846668,15,5,15.615,3488.8324403828,37.401576,0.447388,12.9634846668,0,0,-6.487126,131.4, 3.9, -3,0,0,1024,1024,1024,1024,131.3,-14.9,75,3.919,3.928,3.927,3.912,0,0,13.778,89.51,3488.8324403828,37.401576,14,Waypoint,
406700,2021-03-21 11:21:35,40.1849191764898,33.3281981995942,38.385828,,,3489.8166923828,38.385828,0,12.9712602576,15,5,15.615,3489.8166923828,38.385828,0.447388,12.9712602576,0,0,-6.487126,131.4, 3.1, -2.8,0,0,1024,1024,1024,1024,131.3,-14.9,75,3.919,3.928,3.927,3.912,0,0,13.778,89.51,3489.8166923828,38.385828,14,Waypoint,
406800,2021-03-21 11:21:35,40.184919135764,33.3281982454737,39.37008,,,3490.8009443828,39.37008,0,12.9870082896,15,5,15.615,3490.8009443828,39.37008,0.447388,12.9870082896,0,0,-6.71082,131.3, 3.5, -2.8,0,0,1024,1024,1024,1024,131.3,-14.9,75,3.919,3.928,3.927,3.912,0,0,13.778,89.51,3490.8009443828,39.37008,14,Waypoint,
406900,2021-03-21 11:21:35,40.1849191081424,33.328198251332,40.354332,,,3491.7851963828,40.354332,0,12.9971788936,16,5,15.615,3491.7851963828,40.354332,0.447388,12.9971788936,0,0,-6.71082,131.4, 3.1, -2.1,0,0,1024,1024,1024,1024,131.3,-14.9,75,3.919,3.928,3.927,3.912,0,0,13.778,89.51,3491.7851963828,40.354332,14,Waypoint,
407000,2021-03-21 11:21:35,40.1849190554296,33.3281982805589,41.338584,,,3492.7694483828,41.338584,0,13.0169951672,16,5,15.615,3492.7694483828,41.338584,0.447388,13.0169951672,0,0,-6.71082,131.4, 3.2, -2.3,0,0,1024,1024,1024,1024,131.3,-14.9,75,3.919,3.928,3.927,3.912,0,0,13.778,89.51,3492.7694483828,41.338584,14,Waypoint,
407100,2021-03-21 11:21:35,40.1849189870903,33.3281983293422,42.322836,,,3493.7537003828,42.322836,0,13.0428809948,15,5,15.615,3493.7537003828,42.322836,0.447388,13.0428809948,0,0,-6.71082,131.4, 4, -2.5,0,0,1024,1024,1024,1024,131.3,-14.9,75,3.919,3.928,3.927,3.912,0,0,13.778,89.51,3493.7537003828,42.322836,14,Waypoint,
407200,2021-03-21 11:21:35,40.1849188996722,33.3281983826988,43.635172,,,3495.0660363828,43.307088,0,13.0758206284,15,5,15.615,3495.0660363828,43.635172,0.447388,13.0758206284,0,0,-6.71082,131.3, 4, -2.8,0,0,1024,1024,1024,1024,131.3,-14.9,75,3.919,3.928,3.927,3.912,0,0,13.778,89.51,3495.0660363828,43.635172,14,Waypoint,
407300,2021-03-21 11:21:35,40.1849188232168,33.3281983649389,44.619424,,,3496.0502883828,44.29134,0,13.1032484508,15,5,15.615,3496.0502883828,44.619424,0.447388,13.1032484508,0,0,-6.71082,131.4, 3.7, -3.4,0,0,1024,1024,1024,1024,131.3,-14.9,75,3.919,3.928,3.927,3.912,0,0,13.778,89.51,3496.0502883828,44.619424,14,Waypoint,
407500,2021-03-21 11:21:35,40.1849186166161,33.3281983940145,46.587928,,,3498.0187923828,46.259844,0,13.1790358548,16,5,15.615,3498.0187923828,46.587928,0.447388,13.1790358548,0,0,-6.71082,131.4, 4.3, -4.2,0,0,1024,1024,1024,1024,131.3,-14.9,75,3.919,3.928,3.927,3.912,0,0,13.778,89.51,3498.0187923828,46.587928,14,Waypoint,
407600,2021-03-21 11:21:36,40.1849185215312,33.3281984435407,47.57218,,,3499.0030443828,0,0,13.2146657772,16,5,15.615,3499.0030443828,47.57218,0.447388,13.2146657772,0,0,-6.71082,131.4, 4.1, -3.9,0,0,1024,1024,1024,1024,131.3,-14.9,75,3.919,3.928,3.927,3.912,0,0,13.778,89.51,3499.0030443828,47.57218,14,Waypoint,
407700,2021-03-21 11:21:36,40.1849184789881,33.3281985141664,48.556432,,,3499.9872963828,0,0,13.2316933368,15,5,15.615,3499.9872963828,48.556432,0.447388,13.2316933368,0,0,-6.71082,131.2, 4.2, -3.6,0,0,1024,1024,1024,1024,131.3,-14.9,75,3.919,3.928,3.927,3.912,0,0,13.778,89.51,3499.9872963828,48.556432,14,Waypoint,
407800,2021-03-21 11:21:36,40.1849184334666,33.3281986080935,49.540684,,,3500.9715483828,0,0,13.250328508,15,5,15.615,3500.9715483828,49.540684,0.447388,13.250328508,0,0,-6.71082,131.2, 5.2, -3.1,0,0,1024,1024,1024,1024,131.3,-14.9,75,3.919,3.928,3.927,3.912,0,0,13.778,89.51,3500.9715483828,49.540684,14,Waypoint,
407900,2021-03-21 11:21:36,40.1849183427867,33.3281986024903,50.524936,,,3501.9558003828,0,0,13.2832025248,15,5,15.615,3501.9558003828,50.524936,0.447388,13.2832025248,0,0,-6.71082,131.1, 5.3, -2.7,0,0,1024,1024,1024,1024,131.3,-14.9,75,3.919,3.928,3.927,3.912,0,0,13.778,89.51,3501.9558003828,50.524936,14,Waypoint,
408000,2021-03-21 11:21:36,40.1849182540039,33.3281985932685,51.509188,,,3502.9400523828,0,0,13.31528914,15,5,15.615,3502.9400523828,51.509188,0.447388,13.31528914,0,0,-6.71082,131.2, 4.7, -3.1,0,0,1024,1024,1024,1024,131.3,-14.9,75,3.919,3.928,3.927,3.912,0,0,13.778,89.51,3502.9400523828,51.509188,14,Waypoint,
408100,2021-03-21 11:21:36,40.1849182509001,33.3281985525787,52.49344,,,3503.9243043828,0,0,13.3154859904,15,5,15.615,3503.9243043828,52.49344,0.447388,13.3154859904,0,0,-6.71082,131.1, 4.5, -4,0,0,1024,1024,1024,1024,131.3,-14.9,75,3.919,3.928,3.927,3.912,0,0,13.778,89.51,3503.9243043828,52.49344,14,Waypoint,
408200,2021-03-21 11:21:36,40.1849182367717,33.3281985530314,53.477692,,,3504.9085563828,0,0,13.3206369092,15,5,15.615,3504.9085563828,53.477692,0.447388,13.3206369092,0,0,-6.487126,131.2, 5.4, -4.2,0,0,1024,1024,1024,1024,131.3,-14.9,75,3.919,3.928,3.927,3.912,0,0,13.778,89.51,3504.9085563828,53.477692,14,Waypoint,
408300,2021-03-21 11:21:36,40.1849182532027,33.3281985300356,54.461944,,,3505.8928083828,0,0,13.3141736544,15,5,15.561,3505.8928083828,54.461944,0.447388,13.3206369092,0,0,-6.487126,131.2, 5.3, -3.1,0,0,1024,1024,1024,1024,131.3,-14.9,74,3.919,3.926,3.926,3.912,0,0,13.68,89.51,3505.8928083828,54.461944,14,Waypoint,
408400,2021-03-21 11:21:36,40.1849182656212,33.3281985207184,55.446196,,,3506.8770603828,0,0,13.3094492448,15,5,15.561,3506.8770603828,55.446196,0.447388,13.3206369092,0,0,-6.487126,131.3, 4.9, -2.9,0,0,1024,1024,1024,1024,131.3,-14.9,74,3.919,3.926,3.926,3.912,0,0,13.68,89.51,3506.8770603828,55.446196,14,Waypoint,
408500,2021-03-21 11:21:36,40.1849183096772,33.3281984751557,56.430448,,,3507.8613123828,0,0,13.2924216852,15,5,15.561,3507.8613123828,56.430448,0.447388,13.3206369092,0,0,-6.71082,131.5, 4.4, -3.1,0,0,1024,1024,1024,1024,131.3,-14.9,74,3.919,3.926,3.926,3.912,0,0,13.68,89.51,3507.8613123828,56.430448,14,Waypoint,
408600,2021-03-21 11:21:37,40.1849183404939,33.3281984514171,57.4147,,,3508.8455643828,0,0,13.2807090864,15,5,15.561,3508.8455643828,57.4147,0.447388,13.3206369092,0,0,-6.487126,131.4, 4.2, -2.8,0,0,1024,1024,1024,1024,131.3,-14.9,74,3.919,3.926,3.926,3.912,0,0,13.68,89.51,3508.8455643828,57.4147,14,Waypoint,
408700,2021-03-21 11:21:37,40.1849183673843,33.328198414105,58.727036,,,3510.1579003828,0,0,13.2701119732,15,5,15.561,3510.1579003828,58.727036,0.447388,13.3206369092,0,0,-6.71082,131.3, 4.5, -3,0,0,1024,1024,1024,1024,131.3,-14.9,74,3.919,3.926,3.926,3.912,0,0,13.68,89.51,3510.1579003828,58.727036,14,Waypoint,
408800,2021-03-21 11:21:37,40.184918370835,33.3281983980045,59.711288,,,3511.1421523828,0,0,13.2685043616,15,5,15.561,3511.1421523828,59.711288,0.447388,13.3206369092,0,0,-6.71082,131.1, 5.3, -4.2,0,0,1024,1024,1024,1024,131.3,-14.9,74,3.919,3.926,3.926,3.912,0,0,13.68,89.51,3511.1421523828,59.711288,14,Waypoint,
408900,2021-03-21 11:21:37,40.1849183906174,33.3281983040494,60.69554,,,3512.1264043828,0,0,13.259350818,15,5,15.561,3512.1264043828,60.69554,0.447388,13.3206369092,0,0,-6.487126,131.3, 5.5, -4.2,0,0,1024,1024,1024,1024,131.3,-14.9,74,3.919,3.926,3.926,3.912,0,0,13.68,89.51,3512.1264043828,60.69554,14,Waypoint,
409000,2021-03-21 11:21:37,40.1849184394072,33.3281982473826,61.679792,,,3513.1106563828,0,0,13.2404203712,15,5,15.561,3513.1106563828,61.679792,0.447388,13.3206369092,0,0,-6.487126,131.4, 4.4, -3.2,0,0,1024,1024,1024,1024,131.3,-14.9,74,3.919,3.926,3.926,3.912,0,0,13.68,89.51,3513.1106563828,61.679792,14,Waypoint,
409100,2021-03-21 11:21:37,40.184918462238,33.3281981308675,62.664044,,,3514.0949083828,0,0,13.2297904496,15,5,15.561,3514.0949083828,62.664044,0.447388,13.3206369092,0,0,-6.487126,131.3, 4.3, -2.6,0,0,1024,1024,1024,1024,131.3,-14.9,74,3.919,3.926,3.926,3.912,0,0,13.68,89.51,3514.0949083828,62.664044,14,Waypoint,
409200,2021-03-21 11:21:37,40.1849184734661,33.3281980518313,63.648296,,,3515.0791603828,0,0,13.2241474048,15,5,15.561,3515.0791603828,63.648296,0.447388,13.3206369092,0,0,-6.487126,131.4, 4.7, -2.5,0,0,1024,1024,1024,1024,131.3,-14.9,74,3.919,3.926,3.926,3.912,0,0,13.68,89.51,3515.0791603828,63.648296,14,Waypoint,
409300,2021-03-21 11:21:37,40.1849185310348,33.328197975088,64.632548,,,3516.0634123828,0,0,13.2017064592,15,5,15.615,3516.0634123828,64.632548,0.447388,13.3206369092,0,0,-6.487126,131.3, 4.9, -3.1,0,0,1024,1024,1024,1024,131.3,-14.9,74,3.911,3.917,3.913,3.9,0,0,14.284,89.51,3516.0634123828,64.632548,14,Waypoint,
409400,2021-03-21 11:21:37,40.1849185846644,33.3281979160456,65.6168,,,3517.0476643828,0,0,13.181102784,15,5,15.615,3517.0476643828,65.6168,0.447388,13.3206369092,0,0,-6.487126,131.3, 4.4, -3.5,0,0,1024,1024,1024,1024,131.3,-14.9,74,3.911,3.917,3.913,3.9,0,0,14.284,89.51,3517.0476643828,65.6168,14,Waypoint,
409500,2021-03-21 11:21:37,40.1849186197573,33.3281978392336,66.601052,,,3518.0319163828,0,0,13.1668967468,15,5,15.615,3518.0319163828,66.601052,0.447388,13.3206369092,0,0,-6.487126,131.2, 4.2, -3.6,0,0,1024,1024,1024,1024,131.3,-14.9,74,3.911,3.917,3.913,3.9,0,0,14.284,89.51,3518.0319163828,66.601052,14,Waypoint,
409600,2021-03-21 11:21:38,40.1849186557101,33.3281978035991,67.585304,,,3519.0161683828,0,0,13.1531828356,15,5,15.615,3519.0161683828,67.585304,0.447388,13.3206369092,0,0,-6.263432,131.2, 4.9, -3.3,0,0,1024,1024,1024,1024,131.3,-14.9,74,3.911,3.917,3.913,3.9,0,0,14.284,89.51,3519.0161683828,67.585304,14,Waypoint,
409700,2021-03-21 11:21:38,40.1849187636629,33.3281977603992,68.569556,,,3520.0004203828,0,0,13.1130909708,15,5,15.615,3520.0004203828,68.569556,0.447388,13.3206369092,0,0,-6.263432,131.2, 4.8, -2.3,0,0,1024,1024,1024,1024,131.4,-14.9,74,3.911,3.917,3.913,3.9,0,0,14.284,89.51,3520.0004203828,68.569556,14,Waypoint,
409800,2021-03-21 11:21:38,40.1849188589481,33.3281977205686,69.553808,,,3520.9846723828,0,0,13.0776907072,15,5,15.615,3520.9846723828,69.553808,0.447388,13.3206369092,0,0,-6.487126,131.2, 4.4, -2.2,0,0,1024,1024,1024,1024,131.3,-14.9,74,3.911,3.917,3.913,3.9,0,0,14.284,89.51,3520.9846723828,69.553808,14,Waypoint,
409900,2021-03-21 11:21:38,40.184918900734,33.3281975991118,70.53806,,,3521.9689243828,0,0,13.0604006804,16,5,15.615,3521.9689243828,70.53806,0.447388,13.3206369092,0,0,-6.487126,131.3, 3.6, -2.8,0,0,1024,1024,1024,1024,131.3,-14.9,74,3.911,3.917,3.913,3.9,0,0,14.284,89.51,3521.9689243828,70.53806,14,Waypoint,
410000,2021-03-21 11:21:38,40.1849189229655,33.3281975196706,71.522312,,,3522.9531763828,0,0,13.0509846696,16,5,15.615,3522.9531763828,71.522312,0.447388,13.3206369092,0,0,-6.487126,131.2, 4, -3.6,0,0,1024,1024,1024,1024,131.3,-14.9,74,3.911,3.917,3.913,3.9,0,0,14.284,89.51,3522.9531763828,71.522312,14,Waypoint,
410100,2021-03-21 11:21:38,40.184918934503,33.3281974543846,72.506564,,,3523.9374283828,0,0,13.0457025172,15,5,15.615,3523.9374283828,72.506564,0.447388,13.3206369092,0,0,-6.487126,131.3, 4.5, -3.4,0,0,1024,1024,1024,1024,131.4,-14.9,74,3.911,3.917,3.913,3.9,0,0,14.284,89.51,3523.9374283828,72.506564,14,Waypoint,
410200,2021-03-21 11:21:38,40.1849189542023,33.3281974221613,73.490816,,,3524.9216803828,0,0,13.0380253516,15,5,15.615,3524.9216803828,73.490816,0.447388,13.3206369092,0,0,-6.71082,131.3, 4.1, -2.5,0,0,1024,1024,1024,1024,131.3,-14.9,74,3.911,3.917,3.913,3.9,0,0,14.284,89.51,3524.9216803828,73.490816,14,Waypoint,
410300,2021-03-21 11:21:38,40.1849190105334,33.3281974509004,74.803152,,,3526.2340163828,0,0,13.0179466108,15,5,15.561,3526.2340163828,74.803152,0.447388,13.3206369092,0,0,-6.71082,131.4, 4, -2.4,0,0,1024,1024,1024,1024,131.3,-14.9,74,3.905,3.913,3.912,3.899,0,0,14.498,89.51,3526.2340163828,74.803152,14,Waypoint,
410400,2021-03-21 11:21:38,40.1849190296562,33.3281974845112,75.787404,,,3527.2182683828,0,0,13.0115489728,15,5,15.561,3527.2182683828,75.787404,0.447388,13.3206369092,0,0,-6.487126,131.4, 4.7, -3.1,0,0,1024,1024,1024,1024,131.3,-14.9,74,3.905,3.913,3.912,3.899,0,0,14.498,89.51,3527.2182683828,75.787404,14,Waypoint,
410500,2021-03-21 11:21:38,40.1849189782267,33.328197476433,76.771656,,,3528.2025203828,0,0,13.0301513356,15,5,15.561,3528.2025203828,76.771656,0.447388,13.3206369092,0,0,-6.487126,131.3, 5.1, -4,0,0,1024,1024,1024,1024,131.4,-14.9,74,3.905,3.913,3.912,3.899,0,0,14.498,89.51,3528.2025203828,76.771656,14,Waypoint,
410600,2021-03-21 11:21:39,40.1849189454803,33.3281974839955,77.755908,,,3529.1867723828,0,0,13.0421920184,15,5,15.561,3529.1867723828,77.755908,0.447388,13.3206369092,0,0,-6.71082,131.3, 4.6, -3.8,0,0,1024,1024,1024,1024,131.3,-14.9,74,3.905,3.913,3.912,3.899,0,0,14.498,89.51,3529.1867723828,77.755908,14,Waypoint,
410700,2021-03-21 11:21:39,40.1849189274714,33.3281974621713,78.74016,,,3530.1710243828,0,0,13.048392806,15,5,15.561,3530.1710243828,78.74016,0.447388,13.3206369092,0,0,-6.487126,131.2, 5.3, -3.8,0,0,1024,1024,1024,1024,131.3,-14.9,74,3.905,3.913,3.912,3.899,0,0,14.498,89.51,3530.1710243828,78.74016,14,Waypoint,
410800,2021-03-21 11:21:39,40.184918924887,33.3281974659862,79.724412,,,3531.1552763828,0,0,13.0494098664,15,5,15.561,3531.1552763828,79.724412,0.447388,13.3206369092,0,0,-6.263432,131.3, 5.5, -3.4,0,0,1024,1024,1024,1024,131.4,-14.9,74,3.905,3.913,3.912,3.899,0,0,14.498,89.51,3531.1552763828,79.724412,14,Waypoint,
410900,2021-03-21 11:21:39,40.1849189519453,33.3281974129198,80.708664,,,3532.1395283828,0,0,13.0386815196,15,5,15.561,3532.1395283828,80.708664,0.447388,13.3206369092,0,0,-6.263432,131.3, 4.6, -2.8,0,0,1024,1024,1024,1024,131.4,-14.9,74,3.905,3.913,3.912,3.899,0,0,14.498,89.51,3532.1395283828,80.708664,14,Waypoint,
411000,2021-03-21 11:21:39,40.1849189722031,33.328197383379,81.692916,,,3533.1237803828,0,0,13.030840312,15,5,15.561,3533.1237803828,81.692916,0.447388,13.3206369092,0,0,-6.263432,131.3, 4.9, -2.8,0,0,1024,1024,1024,1024,131.4,-14.9,74,3.905,3.913,3.912,3.899,0,0,14.498,89.51,3533.1237803828,81.692916,14,Waypoint,
411100,2021-03-21 11:21:39,40.184919056734,33.3281972984341,82.677168,,,3534.1080323828,0,0,12.9987536968,15,5,15.561,3534.1080323828,82.677168,0.447388,13.3206369092,0,0,-6.263432,131.1, 5.1, -2.7,0,0,1024,1024,1024,1024,131.4,-14.9,74,3.905,3.913,3.912,3.899,0,0,14.498,89.51,3534.1080323828,82.677168,14,Waypoint,
411200,2021-03-21 11:21:39,40.1849191232055,33.3281972300073,83.66142,,,3535.0922843828,0,0,12.9734912288,15,5,15.561,3535.0922843828,83.66142,0.447388,13.3206369092,0,0,-6.263432,131.2, 4.5, -3,0,0,1024,1024,1024,1024,131.4,-14.9,74,3.905,3.913,3.912,3.899,0,0,14.498,89.51,3535.0922843828,83.66142,14,Waypoint,
411300,2021-03-21 11:21:39,40.1849192013577,33.3281971219825,84.645672,,,3536.0765363828,0,0,12.9434715428,15,5,15.561,3536.0765363828,84.645672,0.447388,13.3206369092,0,0,-6.263432,131.3, 4.5, -3.4,0,0,1024,1024,1024,1024,131.4,-14.9,74,3.905,3.913,3.912,3.899,0,0,14.498,89.51,3536.0765363828,84.645672,14,Waypoint,
411400,2021-03-21 11:21:39,40.1849192618072,33.3281970500435,85.629924,,,3537.0607883828,0,0,12.920440046,15,5,15.561,3537.0607883828,85.629924,0.447388,13.3206369092,0,0,-6.263432,131.3, 4.7, -3.9,0,0,1024,1024,1024,1024,131.4,-14.9,74,3.905,3.913,3.912,3.899,0,0,14.498,89.51,3537.0607883828,85.629924,14,Waypoint,
411500,2021-03-21 11:21:39,40.1849193542654,33.3281969703934,86.614176,,,3538.0450403828,0,0,12.885663142,15,5,15.561,3538.0450403828,86.614176,0.447388,13.3206369092,0,0,-6.263432,131.4, 4.1, -3.4,0,0,1024,1024,1024,1024,131.4,-14.9,74,3.905,3.913,3.912,3.899,0,0,14.498,89.51,3538.0450403828,86.614176,14,Waypoint,
411600,2021-03-21 11:21:40,40.184919435116,33.3281969385738,87.598428,,,3539.0292923828,0,0,12.8557746896,15,5,15.561,3539.0292923828,87.598428,0.447388,13.3206369092,0,0,-6.263432,131.2, 4, -3.3,0,0,1024,1024,1024,1024,131.4,-14.9,74,3.905,3.913,3.912,3.899,0,0,14.498,89.51,3539.0292923828,87.598428,14,Waypoint,
411700,2021-03-21 11:21:40,40.1849195162369,33.3281969084864,88.58268,,,3540.0135443828,0,0,12.8258206204,15,5,15.561,3540.0135443828,88.58268,0.447388,13.3206369092,0,0,-6.263432,131.3, 4.6, -2.9,0,0,1024,1024,1024,1024,131.4,-14.9,74,3.905,3.913,3.912,3.899,0,0,14.498,89.51,3540.0135443828,88.58268,14,Waypoint,
411800,2021-03-21 11:21:40,40.1849195967521,33.3281968983424,89.566932,,,3540.9977963828,0,0,12.7963586772,15,5,15.561,3540.9977963828,89.566932,0.447388,13.3206369092,0,0,-6.039738,131.2, 4.7, -2.2,0,0,1024,1024,1024,1024,131.4,-14.9,74,3.905,3.913,3.912,3.899,0,0,14.498,89.51,3540.9977963828,89.566932,14,Waypoint,
411900,2021-03-21 11:21:40,40.1849196700337,33.3281969070905,90.551184,,,3541.9820483828,0,0,12.7697510648,15,5,15.561,3541.9820483828,90.551184,0.447388,13.3206369092,0,0,-6.263432,131.2, 3.9, -2.2,0,0,1024,1024,1024,1024,131.4,-14.9,74,3.905,3.913,3.912,3.899,0,0,14.498,89.51,3541.9820483828,90.551184,14,Waypoint,
412000,2021-03-21 11:21:40,40.1849197265309,33.3281969068214,91.535436,,,3542.9663003828,0,0,12.7491473896,15,5,15.561,3542.9663003828,91.535436,0.447388,13.3206369092,0,0,-6.263432,131.3, 3.8, -2.9,0,0,1024,1024,1024,1024,131.4,-14.9,74,3.905,3.913,3.912,3.899,0,0,14.498,89.51,3542.9663003828,91.535436,14,Waypoint,
412100,2021-03-21 11:21:40,40.1849199131441,33.3281969349776,92.519688,,,3543.9505523828,0,0,12.6815292772,15,5,15.561,3543.9505523828,92.519688,0.447388,13.3206369092,0,0,-6.263432,131.4, 3.9, -3.6,0,0,1024,1024,1024,1024,131.4,-14.9,74,3.905,3.913,3.912,3.899,0,0,14.498,89.51,3543.9505523828,92.519688,14,Waypoint,
412200,2021-03-21 11:21:40,40.1849200815822,33.3281969799405,93.50394,,,3544.9348043828,0,0.223694,12.620735312,15,5,15.561,3544.9348043828,93.50394,0.447388,13.3206369092,0.223694,0,-6.039738,131.4, 3.3, -3,0,0,1024,1024,1024,1024,131.4,-14.9,74,3.905,3.913,3.912,3.899,0,0,14.498,89.51,3544.9348043828,93.50394,14,Waypoint,
412300,2021-03-21 11:21:40,40.1849202277106,33.3281969731236,94.488192,,,3545.9190563828,0,0.223694,12.5673888536,16,5,15.506,3545.9190563828,94.488192,0.447388,13.3206369092,0.223694,0,-6.039738,131.4, 3.2, -2,0,0,1024,1024,1024,1024,131.4,-14.9,74,3.904,3.911,3.91,3.897,0,0,14.144,89.51,3545.9190563828,94.488192,14,Waypoint,
412400,2021-03-21 11:21:40,40.1849203225724,33.3281969940227,95.472444,,,3546.9033083828,0,0,12.5331040756,16,5,15.506,3546.9033083828,95.472444,0.447388,13.3206369092,0,0,-6.263432,131.4, 4, -1.9,0,0,1024,1024,1024,1024,131.4,-14.9,74,3.904,3.911,3.91,3.897,0,0,14.144,89.51,3546.9033083828,95.472444,14,Waypoint,
412500,2021-03-21 11:21:40,40.1849203710463,33.3281969623012,96.456696,,,3547.8875603828,0,0,12.5150266472,16,5,15.506,3547.8875603828,96.456696,0.447388,13.3206369092,0,0,-6.263432,131.3, 4.4, -2.6,0,0,1024,1024,1024,1024,131.4,-14.9,74,3.904,3.911,3.91,3.897,0,0,14.144,89.51,3547.8875603828,96.456696,14,Waypoint,
412600,2021-03-21 11:21:41,40.1849204094385,33.3281969570568,97.440948,,,3548.8718123828,0,0,12.5009518436,16,5,15.506,3548.8718123828,97.440948,0.447388,13.3206369092,0,0,-6.263432,131.4, 4.1, -2.8,0,0,1024,1024,1024,1024,131.4,-14.9,74,3.904,3.911,3.91,3.897,0,0,14.144,89.51,3548.8718123828,97.440948,14,Waypoint,
412700,2021-03-21 11:21:41,40.1849204449792,33.3281969741551,98.4252,,,3549.8560643828,0,0,12.4882549928,16,5,15.506,3549.8560643828,98.4252,0.447388,13.3206369092,0,0,-6.263432,131.4, 3.7, -2.3,0,0,1024,1024,1024,1024,131.4,-14.9,74,3.904,3.911,3.91,3.897,0,0,14.144,89.51,3549.8560643828,98.4252,14,Waypoint,
412800,2021-03-21 11:21:41,40.1849204720293,33.3281970192161,99.409452,,,3550.8403163828,0,0,12.479003024,16,5,15.506,3550.8403163828,99.409452,0.447388,13.3206369092,0,0,-6.263432,131.4, 3.9, -1.9,0,0,1024,1024,1024,1024,131.4,-14.9,74,3.904,3.911,3.91,3.897,0,0,14.144,89.51,3550.8403163828,99.409452,14,Waypoint,
412900,2021-03-21 11:21:41,40.1849204536849,33.3281970365274,100.721788,,,3552.1526523828,0,0,12.4859255964,16,5,15.506,3552.1526523828,100.721788,0.447388,13.3206369092,0,0,-6.263432,131.4, 5.2, -2,0,0,1024,1024,1024,1024,131.4,-14.9,74,3.904,3.911,3.91,3.897,0,0,14.144,89.51,3552.1526523828,100.721788,14,Waypoint,
413000,2021-03-21 11:21:41,40.1849204418494,33.3281970466967,101.70604,,,3553.1369043828,0,0,12.4903875388,16,5,15.506,3553.1369043828,101.70604,0.447388,13.3206369092,0,0,-6.263432,131.2, 5.1, -2,0,0,1024,1024,1024,1024,131.4,-14.9,74,3.904,3.911,3.91,3.897,0,0,14.144,89.51,3553.1369043828,101.70604,14,Waypoint,
413100,2021-03-21 11:21:41,40.184920383652,33.3281969338984,102.690292,,,3554.1211563828,0,0,12.5100397704,16,5,15.506,3554.1211563828,102.690292,0.447388,13.3206369092,0,0,-6.263432,131.3, 3.9, -2.5,0,0,1024,1024,1024,1024,131.4,-14.9,74,3.904,3.911,3.91,3.897,0,0,14.144,89.51,3554.1211563828,102.690292,14,Waypoint,
413200,2021-03-21 11:21:41,40.1849203357611,33.3281968361942,103.674544,,,3555.1054083828,0,0,12.5262143116,16,5,15.506,3555.1054083828,103.674544,0.447388,13.3206369092,0,0,-6.263432,131.3, 3.8, -3,0,0,1024,1024,1024,1024,131.4,-14.9,74,3.904,3.911,3.91,3.897,0,0,14.144,89.51,3555.1054083828,103.674544,14,Waypoint,
413300,2021-03-21 11:21:41,40.1849202862125,33.3281967303053,104.658796,,,3556.0896603828,0,0,12.5429465956,15,5,15.561,3556.0896603828,104.658796,0.447388,13.3206369092,0,0,-6.263432,131.3, 3.3, -3.4,0,0,1024,1024,1024,1024,131.4,-14.9,74,3.899,3.908,3.905,3.896,0,0,14.138,91.31,3556.0896603828,104.658796,14,Waypoint,
413400,2021-03-21 11:21:41,40.1849202512563,33.3281966690234,105.643048,,,3557.0739123828,0,0,12.55495447,15,5,15.561,3557.0739123828,105.643048,0.447388,13.3206369092,0,0,-6.263432,131.2, 4, -3.9,0,0,1024,1024,1024,1024,131.4,-14.9,74,3.899,3.908,3.905,3.896,0,0,14.138,91.31,3557.0739123828,105.643048,14,Waypoint,
413500,2021-03-21 11:21:41,40.1849202732354,33.3281965905282,106.6273,,,3558.0581643828,0,0,12.5460305852,16,5,15.561,3558.0581643828,106.6273,0.447388,13.3206369092,0,0,-6.263432,131.4, 4.1, -3.5,0,0,1024,1024,1024,1024,131.4,-14.9,74,3.899,3.908,3.905,3.896,0,0,14.138,91.31,3558.0581643828,106.6273,14,Waypoint,
413600,2021-03-21 11:21:42,40.1849203138895,33.3281965479954,107.611552,,,3559.0424163828,0,0,12.5307418708,16,5,15.561,3559.0424163828,107.611552,0.447388,13.3206369092,0,0,-6.263432,131.3, 3.5, -2.9,0,0,1024,1024,1024,1024,131.4,-14.9,74,3.899,3.908,3.905,3.896,0,0,14.138,91.31,3559.0424163828,107.611552,14,Waypoint,
413700,2021-03-21 11:21:42,40.1849203900437,33.3281964661619,108.923888,,,3560.3547523828,0,0,12.5020673292,16,5,15.561,3560.3547523828,108.923888,0.447388,13.3206369092,0,0,-6.263432,131.2, 3.9, -3,0,0,1024,1024,1024,1024,131.4,-14.9,74,3.899,3.908,3.905,3.896,0,0,14.138,91.31,3560.3547523828,108.923888,14,Waypoint,
413800,2021-03-21 11:21:42,40.184920452063,33.3281964276935,109.90814,,,3561.3390043828,0,0,12.4790686408,16,5,15.561,3561.3390043828,109.90814,0.447388,13.3206369092,0,0,-6.263432,131.4, 4, -2.5,0,0,1024,1024,1024,1024,131.4,-14.9,74,3.899,3.908,3.905,3.896,0,0,14.138,91.31,3561.3390043828,109.90814,14,Waypoint,
413900,2021-03-21 11:21:42,40.1849204972588,33.3281963579213,110.892392,,,3562.3232563828,0,0,12.4618770392,16,5,15.561,3562.3232563828,110.892392,0.447388,13.3206369092,0,0,-6.039738,131.3, 3.3, -2.2,0,0,1024,1024,1024,1024,131.4,-14.9,74,3.899,3.908,3.905,3.896,0,0,14.138,91.31,3562.3232563828,110.892392,14,Waypoint,
414000,2021-03-21 11:21:42,40.1849205170786,33.3281963162995,111.876644,,,3563.3075083828,0,0,12.454232682,16,5,15.561,3563.3075083828,111.876644,0.447388,13.3206369092,0,0,-6.263432,131.3, 3.6, -2.5,0,0,1024,1024,1024,1024,131.4,-14.9,74,3.899,3.908,3.905,3.896,0,0,14.138,91.31,3563.3075083828,111.876644,14,Waypoint,
414100,2021-03-21 11:21:42,40.1849205718448,33.3281962834848,112.860896,,,3564.2917603828,0,0,12.4339570908,16,5,15.561,3564.2917603828,112.860896,0.447388,13.3206369092,0,0,-6.263432,131.2, 4.1, -2.4,0,0,1024,1024,1024,1024,131.4,-14.9,74,3.899,3.908,3.905,3.896,0,0,14.138,91.31,3564.2917603828,112.860896,14,Waypoint,
414200,2021-03-21 11:21:42,40.1849206063971,33.3281962636087,113.845148,,,3565.2760123828,0,0,12.4211618148,16,5,15.561,3565.2760123828,113.845148,0.447388,13.3206369092,0,0,-6.263432,131.3, 3.6, -2.4,0,0,1024,1024,1024,1024,131.4,-14.9,74,3.899,3.908,3.905,3.896,0,0,14.138,91.31,3565.2760123828,113.845148,14,Waypoint,
414300,2021-03-21 11:21:42,40.1849205708254,33.3281961633482,114.8294,,,3566.2602643828,0,0,12.433235306,16,5,15.561,3566.2602643828,114.8294,0.447388,13.3206369092,0,0,-6.263432,131.3, 3.9, -2.8,0,0,1024,1024,1024,1024,131.4,-14.9,74,3.899,3.908,3.905,3.896,0,0,14.27,91.31,3566.2602643828,114.8294,14,Waypoint,
414400,2021-03-21 11:21:42,40.1849205198535,33.3281960929145,115.813652,,,3567.2445163828,0,0,12.4512143092,16,5,15.561,3567.2445163828,115.813652,0.447388,13.3206369092,0,0,-6.263432,131.3, 3.7, -3.1,0,0,1024,1024,1024,1024,131.4,-14.9,74,3.899,3.908,3.905,3.896,0,0,14.27,91.31,3567.2445163828,115.813652,14,Waypoint,
414500,2021-03-21 11:21:42,40.1849205029828,33.3281960398257,116.797904,,,3568.2287683828,0,0,12.4569557792,16,5,15.561,3568.2287683828,116.797904,0.447388,13.3206369092,0,0,-6.039738,131.4, 3.7, -3.6,0,0,1024,1024,1024,1024,131.4,-14.9,74,3.899,3.908,3.905,3.896,0,0,14.27,91.31,3568.2287683828,116.797904,14,Waypoint,
414600,2021-03-21 11:21:43,40.1849204804174,33.3281960333227,117.782156,,,3569.2130203828,0,0,12.4651250708,16,5,15.561,3569.2130203828,117.782156,0.447388,13.3206369092,0,0,-6.263432,131.2, 4.1, -3.6,0,0,1024,1024,1024,1024,131.4,-14.9,74,3.899,3.908,3.905,3.896,0,0,14.27,91.31,3569.2130203828,117.782156,14,Waypoint,
414700,2021-03-21 11:21:43,40.1849204842573,33.3281960196889,118.766408,,,3570.1972723828,0,0,12.4636158844,16,5,15.561,3570.1972723828,118.766408,0.447388,13.3206369092,0,0,-6.039738,131.3, 3.9, -3.6,0,0,1024,1024,1024,1024,131.4,-14.9,74,3.899,3.908,3.905,3.896,0,0,14.27,91.31,3570.1972723828,118.766408,14,Waypoint,
414800,2021-03-21 11:21:43,40.1849204827608,33.3281960400135,119.75066,,,3571.1815243828,0,0,12.4643048608,16,5,15.561,3571.1815243828,119.75066,0.447388,13.3206369092,0,0,-6.039738,131.3, 4.2, -3.5,0,0,1024,1024,1024,1024,131.4,-14.9,74,3.899,3.908,3.905,3.896,0,0,14.27,91.31,3571.1815243828,119.75066,14,Waypoint,
414900,2021-03-21 11:21:43,40.1849205054483,33.3281961123365,120.734912,,,3572.1657763828,0,0,12.4566276952,16,5,15.561,3572.1657763828,120.734912,0.447388,13.3206369092,0,0,-6.039738,131.3, 4.4, -3.5,0,0,1024,1024,1024,1024,131.4,-14.9,74,3.899,3.908,3.905,3.896,0,0,14.27,91.31,3572.1657763828,120.734912,14,Waypoint,
415000,2021-03-21 11:21:43,40.1849205268493,33.3281962054157,121.719164,,,3573.1500283828,0,0.223694,12.449639506,16,5,15.561,3573.1500283828,121.719164,0.447388,13.3206369092,0,0.223694,-6.263432,131.4, 3.9, -3,0,0,1024,1024,1024,1024,131.4,-14.9,74,3.899,3.908,3.905,3.896,0,0,14.27,91.31,3573.1500283828,121.719164,14,Waypoint,
415100,2021-03-21 11:21:43,40.1849205531714,33.3281962424853,122.703416,,,3574.1342803828,0,0.223694,12.4403875372,16,5,15.561,3574.1342803828,122.703416,0.447388,13.3206369092,0,0.223694,-6.263432,131.2, 5, -3,0,0,1024,1024,1024,1024,131.4,-14.9,74,3.899,3.908,3.905,3.896,0,0,14.27,91.31,3574.1342803828,122.703416,14,Waypoint,
415200,2021-03-21 11:21:43,40.1849205650754,33.3281962962581,123.687668,,,3575.1185323828,0,0,12.4365489544,16,5,15.561,3575.1185323828,123.687668,0.447388,13.3206369092,0,0,-6.039738,131.3, 5.2, -2.7,0,0,1024,1024,1024,1024,131.4,-14.9,74,3.899,3.908,3.905,3.896,0,0,14.27,91.31,3575.1185323828,123.687668,14,Waypoint,
415300,2021-03-21 11:21:43,40.1849205877221,33.3281963088211,124.67192,,,3576.1027843828,0,0,12.4284124712,16,5,15.588,3576.1027843828,124.67192,0.447388,13.3206369092,0,0,-6.039738,131.3, 4.2, -2.6,0,0,1024,1024,1024,1024,131.4,-14.9,74,3.896,3.903,3.901,3.886,0,0,14.27,91.31,3576.1027843828,124.67192,14,Waypoint,
415400,2021-03-21 11:21:43,40.1849205961835,33.3281963370585,125.656172,,,3577.0870363828,0,0,12.4255909488,16,5,15.588,3577.0870363828,125.656172,0.447388,13.3206369092,0,0,-6.039738,131.3, 4.9, -2.8,0,0,1024,1024,1024,1024,131.4,-14.9,74,3.896,3.903,3.901,3.886,0,0,14.27,91.31,3577.0870363828,125.656172,14,Waypoint,
415500,2021-03-21 11:21:43,40.184920648481,33.3281963332969,126.640424,,,3578.0712883828,0,0,12.40649646,16,5,15.588,3578.0712883828,126.640424,0.447388,13.3206369092,0,0,-6.039738,131.3, 4.4, -2.5,0,0,1024,1024,1024,1024,131.4,-14.9,74,3.896,3.903,3.901,3.886,0,0,14.27,91.31,3578.0712883828,126.640424,14,Waypoint,
415600,2021-03-21 11:21:44,40.1849206899445,33.3281963316487,127.624676,,,3579.0555403828,0,0,12.3913717876,16,5,15.588,3579.0555403828,127.624676,0.447388,13.3206369092,0,0,-6.039738,131.2, 4.2, -3,0,0,1024,1024,1024,1024,131.4,-14.9,74,3.896,3.903,3.901,3.886,0,0,14.27,91.31,3579.0555403828,127.624676,14,Waypoint,
415700,2021-03-21 11:21:44,40.184920724855,33.3281962910277,128.608928,,,3580.0397923828,0,0,12.3782484276,16,5,15.588,3580.0397923828,128.608928,0.447388,13.3206369092,0,0,-6.039738,131.3, 4.1, -2.8,0,0,1024,1024,1024,1024,131.4,-14.9,74,3.896,3.903,3.901,3.886,0,0,14.27,91.31,3580.0397923828,128.608928,14,Waypoint,
415800,2021-03-21 11:21:44,40.1849207557922,33.3281962704228,129.59318,,,3581.0240443828,0,0,12.3667654876,16,5,15.588,3581.0240443828,129.59318,0.447388,13.3206369092,0,0,-6.039738,131.2, 3.8, -3,0,0,1024,1024,1024,1024,131.4,-14.9,74,3.896,3.903,3.901,3.886,0,0,14.27,91.31,3581.0240443828,129.59318,14,Waypoint,
415900,2021-03-21 11:21:44,40.1849207710491,33.3281961640013,130.577432,,,3582.0082963828,0,0,12.360236616,16,5,15.588,3582.0082963828,130.577432,0.447388,13.3206369092,0,0,-6.039738,131.4, 4.1, -2.7,0,0,1024,1024,1024,1024,131.4,-14.9,74,3.896,3.903,3.901,3.886,0,0,14.27,91.31,3582.0082963828,130.577432,14,Waypoint,
416000,2021-03-21 11:21:44,40.1849207823733,33.3281960959137,131.561684,,,3582.9925483828,0,0,12.3555122064,16,5,15.588,3582.9925483828,131.561684,0.447388,13.3206369092,0,0,-6.039738,131.4, 3.8, -2.8,0,0,1024,1024,1024,1024,131.4,-14.9,74,3.896,3.903,3.901,3.886,0,0,14.27,91.31,3582.9925483828,131.561684,14,Waypoint,
416100,2021-03-21 11:21:44,40.1849207757797,33.3281960288912,132.545936,,,3583.9768003828,0,0,12.3573494768,16,5,15.588,3583.9768003828,132.545936,0.447388,13.3206369092,0,0,-6.039738,131.3, 4, -3.1,0,0,1024,1024,1024,1024,131.4,-14.9,74,3.896,3.903,3.901,3.886,0,0,14.27,91.31,3583.9768003828,132.545936,14,Waypoint,
416200,2021-03-21 11:21:44,40.1849207745779,33.3281960032101,133.530188,,,3584.9610523828,0,0,12.357611944,16,5,15.588,3584.9610523828,133.530188,0.447388,13.3206369092,0,0,-6.039738,131.4, 3.7, -3,0,0,1024,1024,1024,1024,131.4,-14.9,74,3.896,3.903,3.901,3.886,0,0,14.27,91.31,3584.9610523828,133.530188,14,Waypoint,
416300,2021-03-21 11:21:44,40.184920802338,33.3281959917094,134.51444,,,3585.9453043828,0,0,12.3473757232,16,5,15.561,3585.9453043828,134.51444,0.447388,13.3206369092,0,0,-6.039738,131.2, 3.7, -3.3,0,0,1024,1024,1024,1024,131.4,-14.9,74,3.895,3.905,3.904,3.889,0,0,13.892,91.31,3585.9453043828,134.51444,14,Waypoint,
416400,2021-03-21 11:21:44,40.184920822762,33.3281960185761,135.498692,,,3586.9295563828,0,0,12.3401578752,16,5,15.561,3586.9295563828,135.498692,0.447388,13.3206369092,0,0,-6.039738,131.3, 4.2, -3.3,0,0,1024,1024,1024,1024,131.4,-14.9,74,3.895,3.905,3.904,3.889,0,0,13.892,91.31,3586.9295563828,135.498692,14,Waypoint,
416500,2021-03-21 11:21:44,40.1849209241,33.3281960548133,136.482944,,,3587.9138083828,0,0,12.303478084,16,5,15.561,3587.9138083828,136.482944,0.447388,13.3206369092,0,0,-6.039738,131.3, 3.8, -2.7,0,0,1024,1024,1024,1024,131.4,-14.9,74,3.895,3.905,3.904,3.889,0,0,13.892,91.31,3587.9138083828,136.482944,14,Waypoint,
416600,2021-03-21 11:21:45,40.1849209988049,33.328196110394,137.467196,,,3588.8980603828,0,0,12.2767064296,16,5,15.561,3588.8980603828,137.467196,0.447388,13.3206369092,0,0,-6.039738,131.2, 4.1, -2.5,0,0,1024,1024,1024,1024,131.4,-14.9,74,3.895,3.905,3.904,3.889,0,0,13.892,91.31,3588.8980603828,137.467196,14,Waypoint,
416700,2021-03-21 11:21:45,40.1849210104646,33.3281961359854,138.779532,,,3590.2103963828,0,0,12.2726709964,16,5,15.561,3590.2103963828,138.779532,0.447388,13.3206369092,0,0,-6.039738,131.4, 3.9, -2.2,0,0,1024,1024,1024,1024,131.4,-14.9,74,3.895,3.905,3.904,3.889,0,0,13.892,91.31,3590.2103963828,138.779532,14,Waypoint,
