time(millisecond),datetime(utc),latitude,longitude,height_above_takeoff(feet),height_above_ground_at_drone_location(feet),ground_elevation_at_drone_location(feet),altitude_above_seaLevel(feet),height_sonar(feet),speed(mph),distance(feet),mileage(feet),satellites,gpslevel,voltage(v),max_altitude(feet),max_ascent(feet),max_speed(mph),max_distance(feet), xSpeed(mph), ySpeed(mph), zSpeed(mph), compass_heading(degrees), pitch(degrees), roll(degrees),isPhoto,isVideo,rc_elevator,rc_aileron,rc_throttle,rc_rudder,rc_elevator(percent),rc_aileron(percent),rc_throttle(percent),rc_rudder(percent),gimbal_heading(degrees),gimbal_pitch(degrees),battery_percent,voltageCell1,voltageCell2,voltageCell3,voltageCell4,voltageCell5,voltageCell6,current(A),battery_temperature(f),altitude(feet),ascent(feet),flycStateRaw,flycState,message
2200,2021-12-09 11:38:15,40.1849238183175,33.3282702850619,0,Available with any HD 360 subscription,Available with any HD 360 subscription,3452.058036647,0,0,0,0,10,4,0,3452.058036647,0,0,0,0,0,0,136.3, -0.1, 0.2,0,0,364,364,364,1684,-100,-100,-100,100,140.8,-8.2,100,4.292,4.296,4.296,4.294,0,0,0,76.91,3452.058036647,0,41,Motors_Started,
2300,2021-12-09 11:38:15,40.1849237004719,33.3282702743152,0,,,3452.058036647,0,0,0.043100066996,0.043100066996,10,4,0,3452.058036647,0,0,0.043100066996,0,0,0,136.2, -0.1, 0.3,0,0,364,364,364,1684,-100,-100,-100,100,140.8,-8.2,100,4.292,4.296,4.296,4.294,0,0,0,76.91,3452.058036647,0,41,Motors_Started,
2400,2021-12-09 11:38:15,40.184922507534,33.3282706421752,0,,,3452.058036647,0,0,0.48848754844,0.4902559212,10,4,0,3452.058036647,0,0,0.48848754844,0,0,0,136.4, -0.1, 0.3,0,0,364,364,364,1684,-100,-100,-100,100,140.8,-8.2,100,4.292,4.296,4.296,4.294,0,0,0,76.91,3452.058036647,0,41,Motors_Started,
2500,2021-12-09 11:38:15,40.184922351591,33.3282707537696,0,,,3452.058036647,0,0,0.55084975516,0.5551017238,10,4,0,3452.058036647,0,0,0.55084975516,0,0,0,136.2, -0.1, 0.2,0,0,364,364,364,1684,-100,-100,-100,100,140.8,-8.2,100,4.292,4.296,4.296,4.294,0,0,0,76.91,3452.058036647,0,41,Motors_Started,
2600,2021-12-09 11:38:15,40.1849221000957,33.3282706920181,0,,,3452.058036647,0,0,0.6370735112,0.648458026,10,4,0,3452.058036647,0,0,0.6370735112,0,0,0,136.2, -0.1, 0.2,0,0,364,364,364,1684,-100,-100,-100,100,140.8,-8.2,100,4.292,4.296,4.296,4.294,0,0,0,76.91,3452.058036647,0,41,Motors_Started,
2700,2021-12-09 11:38:15,40.1849218569348,33.3282706300929,0,,,3452.058036647,0,0,0.72204398636,0.73883860632,10,4,0,3452.058036647,0,0,0.72204398636,0,0,0,136.3, -0.1, 0.3,0,0,364,364,364,1684,-100,-100,-100,100,140.9,-8.2,100,4.292,4.296,4.296,4.294,0,0,0,76.91,3452.058036647,0,41,Motors_Started,
2800,2021-12-09 11:38:15,40.1849214303721,33.3282706810444,0,,,3452.058036647,0,0,0.87820540868,0.89511813888,10,4,0,3452.058036647,0,0,0.87820540868,0,0,0,136.4, -0.1, 0.3,0,0,364,364,364,1684,-100,-100,-100,100,140.8,-8.2,100,4.292,4.296,4.296,4.294,0,0,0,76.91,3452.058036647,0,41,Motors_Started,
2900,2021-12-09 11:38:15,40.1849213318968,33.3282707000207,0,,,3452.058036647,0,0,0.91451118412,0.93143375684,10,4,17.109,3452.058036647,0,0,0.91451118412,0,0,0,136.2, -0.1, 0.2,0,0,364,364,364,1684,-100,-100,-100,100,140.9,-8.2,100,4.292,4.296,4.296,4.294,0,0,1.33,76.91,3452.058036647,0,41,Motors_Started,"Setting new Return-To-Home altitude to 200m (656 ft). Data Recorder File Index is 24. Setting new Maximum Flight Altitude to 500m (1640 ft)"
3000,2021-12-09 11:38:16,40.1849213491616,33.328270701048,0,,,3452.058036647,0,0,0.908300554,0.93773953132,10,4,17.109,3452.058036647,0,0,0.91451118412,0,0,0,136.4, -0.1, 0.2,0,0,367,364,399,1664,-100,-100,-95,97,140.9,-8.2,100,4.292,4.296,4.296,4.294,0,0,1.33,76.91,3452.058036647,0,41,Motors_Started,
3100,2021-12-09 11:38:16,40.184921372165,33.3282707020248,0,,,3452.058036647,0,0,0.90001315216,0.94613520088,10,4,17.109,3452.058036647,0,0,0.91451118412,0,0,0,136.3, -0.1, 0.2,0,0,966,933,998,1117,-9,-14,-4,14,140.9,-8.2,100,4.292,4.296,4.296,4.294,0,0,1.33,76.91,3452.058036647,0,41,Motors_Started,
3200,2021-12-09 11:38:16,40.1849220195268,33.3282710075559,0,,,3452.058036647,0,0,0.68648952328,1.19720804356,10,4,17.109,3452.058036647,0,0,0.91451118412,0,0,0,136.3, -0.1, 0.2,0,0,1024,1024,1024,1024,0,0,0,0,139.9,-8.2,100,4.292,4.296,4.296,4.294,0,0,1.33,76.91,3452.058036647,0,41,Motors_Started,
3300,2021-12-09 11:38:16,40.1849221851803,33.328271103902,0,,,3452.058036647,0,0,0.63806760572,1.26334649712,9,4,17.109,3452.058036647,0,0,0.91451118412,0,0,0,136.4, -0.1, 0.2,0,0,1024,1024,1024,1024,0,0,0,0,138.4,-8.3,100,4.292,4.296,4.296,4.294,0,0,1.33,76.91,3452.058036647,0,41,Motors_Started,
3400,2021-12-09 11:38:16,40.1849223209274,33.3282711797414,0,,,3452.058036647,0,0,0.60054791948,1.31719492404,9,4,17.109,3452.058036647,0,0,0.91451118412,0,0,0,136.3, -0.1, 0.2,0,0,1024,1024,1024,1024,0,0,0,0,137.8,-8.2,100,4.292,4.296,4.296,4.294,0,0,1.33,76.91,3452.058036647,0,41,Motors_Started,
3500,2021-12-09 11:38:16,40.1849224534306,33.3282712462453,0,,,3452.058036647,0,0,0.56547245904,1.36896986008,9,4,17.109,3452.058036647,0,0,0.91451118412,0,0,0,136.3, -0.1, 0.2,0,0,1024,1024,1024,1024,0,0,0,0,137.5,-8.2,100,4.292,4.296,4.296,4.294,0,0,1.33,76.91,3452.058036647,0,41,Motors_Started,
3600,2021-12-09 11:38:16,40.1849230230538,33.3282712893597,0,,,3452.058036647,0,0,0.40317258508,1.57714571976,9,4,17.109,3452.058036647,0,0,0.91451118412,0,0,0,136.4, -0.1, 0.2,0,0,1024,1024,1082,1024,0,0,9,0,137.3,-8.2,100,4.292,4.296,4.296,4.294,0,0,1.33,76.91,3452.058036647,0,41,Motors_Started,
3700,2021-12-09 11:38:16,40.18492322864,33.3282712888734,0,,,3452.058036647,0,0,0.35294620552,1.65215228384,9,4,17.109,3452.058036647,0,0,0.91451118412,0,0,0,136.4, -0.1, 0.3,0,0,1024,1024,1312,1024,0,0,44,0,137.1,-8.2,100,4.292,4.296,4.296,4.294,0,0,1.33,76.91,3452.058036647,0,10,Assisted_Takeoff,
3800,2021-12-09 11:38:16,40.1849233910154,33.3282712684998,0,,,3452.058036647,0,0,0.315348435288,1.71166672144,9,4,17.109,3452.058036647,0,0,0.91451118412,0,0,0,136.4, -0.2, 0.2,0,0,1024,1024,1676,998,0,0,99,-4,137.1,-8.2,100,4.292,4.296,4.296,4.294,0,0,1.33,76.91,3452.058036647,0,10,Assisted_Takeoff,
3900,2021-12-09 11:38:16,40.1849235468526,33.3282712397172,0,,,3452.058036647,0,0,0.283928486776,1.76908798312,9,4,17.129,3452.058036647,0,0,0.91451118412,0,0,0,136.4, -0.2, 0.2,0,0,1024,1024,1684,1024,0,0,100,0,137,-8.2,100,4.292,4.296,4.296,4.294,0,0,1.33,76.91,3452.058036647,0,10,Assisted_Takeoff,
4000,2021-12-09 11:38:17,40.1849236293886,33.3282712162799,0,,,3452.058036647,0,0,0.268557751376,1.7999016324,9,4,17.129,3452.058036647,0,0,0.91451118412,0,0,0,136.4, -0.2, 0.2,0,0,1024,1024,1684,1024,0,0,100,0,136.9,-8.2,100,4.292,4.296,4.296,4.294,0,0,1.33,76.91,3452.058036647,0,10,Assisted_Takeoff,
4100,2021-12-09 11:38:17,40.1849236440756,33.3282710834626,0,,,3452.058036647,0,0,0.231442264624,1.83730648924,9,4,17.129,3452.058036647,0,0,0.91451118412,0,0,0,136.4, -0.3, 0.2,0,0,1024,1024,1684,1024,0,0,100,0,136.9,-8.2,100,4.292,4.296,4.296,4.294,0,0,1.33,76.91,3452.058036647,0,10,Assisted_Takeoff,
4200,2021-12-09 11:38:17,40.1849236863793,33.3282710702058,0,,,3452.058036647,0,0,0.224076778824,1.85317919316,9,4,17.129,3452.058036647,0,0,0.91451118412,0,0,0,136.4, -0.5, 0.1,0,0,1024,1024,1684,1024,0,0,100,0,136.9,-8.3,100,4.292,4.296,4.296,4.294,0,0,1.33,76.91,3452.058036647,0,10,Assisted_Takeoff,
4300,2021-12-09 11:38:17,40.1849237324415,33.3282710563071,0,,,3452.058036647,0,0,0.21724246102,1.8704232882,9,4,17.129,3452.058036647,0,0,0.91451118412,0,0,0,136.7, -0.7, -0.1,0,0,1024,1024,1684,1024,0,0,100,0,136.9,-8.2,100,4.292,4.296,4.296,4.294,0,0,1.33,76.91,3452.058036647,0,10,Assisted_Takeoff,
4400,2021-12-09 11:38:17,40.1849237818322,33.3282710282757,0,,,3452.058036647,0,0,0.207584980396,1.89006567728,9,4,17.129,3452.058036647,0,0,0.91451118412,0,0,0,137.3, -1, -1.6,0,0,1024,1024,1684,1024,0,0,100,0,136.9,-8.3,100,4.292,4.296,4.296,4.294,0,0,1.33,76.91,3452.058036647,0,10,Assisted_Takeoff,
4500,2021-12-09 11:38:17,40.1849236470231,33.3282709943258,0,,,3452.058036647,0,0.3131716,0.207338261228,1.94015426156,9,4,17.129,3452.058036647,0,0.3131716,0.91451118412,0.223694,0.223694,-0.447388,137.8, -1.3, -3.1,0,0,1024,1024,1684,1024,0,0,100,0,136.9,-8.3,100,4.292,4.296,4.296,4.294,0,0,1.33,76.91,3452.058036647,0,6,P-GPS,
4600,2021-12-09 11:38:17,40.1849238426953,33.3282712084133,0.328084,,,3452.386120647,0,0.4921268,0.257521661784,2.03319888396,9,4,17.129,3452.386120647,0.328084,0.4921268,0.91451118412,0.223694,0.447388,-1.342164,137.8, -0.1, -1.1,0,0,1024,1024,1684,1024,0,0,100,0,137,-8.2,100,4.292,4.296,4.296,4.294,0,0,1.33,76.91,3452.386120647,0.328084,6,P-GPS,
4700,2021-12-09 11:38:17,40.1849240811402,33.328271502752,0.656168,,,3452.714204647,0,0.8052984,0.35269686168,2.15277894028,10,4,17.129,3452.714204647,0.656168,0.8052984,0.91451118412,0.447388,0.671082,-2.23694,137.8, 0.4, 1.9,0,0,1024,1024,1684,1024,0,0,100,0,137.1,-8.2,100,4.292,4.296,4.296,4.294,0,0,1.33,76.91,3452.714204647,0.656168,6,P-GPS,
4800,2021-12-09 11:38:17,40.1849243431275,33.3282718549489,0.984252,,,3453.042288647,0,0.8052984,0.47763781056,2.2897966612,10,4,17.129,3453.042288647,0.984252,0.8052984,0.91451118412,0.447388,0.671082,-3.131716,137.7, 0, 4.7,0,0,1024,1024,1684,1024,0,0,100,0,137.2,-8.3,100,4.292,4.296,4.296,4.294,0,0,1.33,76.91,3453.042288647,0.984252,6,P-GPS,
4900,2021-12-09 11:38:17,40.1849245847495,33.3282722249994,1.312336,,,3453.370372647,0,0.6263432,0.60875001948,2.42547908024,10,4,16.807,3453.370372647,1.312336,0.8052984,0.91451118412,0.447388,0.447388,-4.026492,137.9, -0.7, 4.4,0,0,1024,1024,1684,1024,0,0,100,0,137.2,-8.3,100,4.238,4.25,4.253,4.248,0,0,4.52,76.91,3453.370372647,1.312336,6,P-GPS,
5000,2021-12-09 11:38:18,40.1849248679473,33.3282725120714,1.968504,,,3454.026540647,0,0.3131716,0.72936682124,2.55616477996,10,4,16.807,3454.026540647,1.968504,0.8052984,0.91451118412,0.223694,0.223694,-5.144962,138.2, -0.8, 3.6,0,0,1024,1024,1684,1024,0,0,100,0,137.3,-8.3,100,4.238,4.25,4.253,4.248,0,0,4.52,76.91,3454.026540647,1.968504,6,P-GPS,
5100,2021-12-09 11:38:18,40.1849251465415,33.3282727977586,2.952756,,,3455.010792647,0,0.3131716,0.85167981728,2.68528879984,9,4,16.807,3455.010792647,2.952756,0.8052984,0.91451118412,0.223694,0.223694,-6.263432,138.5, -0.3, 4.5,0,0,1024,1024,1684,1024,0,0,100,0,137.4,-8.2,100,4.238,4.25,4.253,4.248,0,0,4.52,76.91,3455.010792647,2.952756,6,P-GPS,
5200,2021-12-09 11:38:18,40.184925361234,33.3282731779476,3.937008,,,3455.995044647,4.265092,0.3131716,0.98340226244,2.81706701928,9,4,16.807,3455.995044647,3.937008,0.8052984,0.98340226244,0.223694,0.223694,-7.605596,137.9, -0.7, 5.1,0,0,1024,1024,1684,1024,0,0,100,0,137.5,-8.3,100,4.238,4.25,4.253,4.248,0,0,4.52,76.91,3455.995044647,3.937008,6,P-GPS,
5300,2021-12-09 11:38:18,40.1849254958444,33.3282735678112,4.92126,,,3456.979296647,5.249344,0.3131716,1.1008366494,2.93631571076,10,4,16.807,3456.979296647,4.92126,0.8052984,1.1008366494,0.223694,0.223694,-8.724066,137.6, 0, 5,0,0,1024,1024,1453,1024,0,0,65,0,137.5,-8.3,100,4.238,4.25,4.253,4.248,0,0,4.52,76.91,3456.979296647,4.92126,6,P-GPS,
5400,2021-12-09 11:38:18,40.1849256969817,33.3282738966086,6.56168,,,3458.619716647,6.889764,0,1.21785436968,3.053723851,10,4,16.807,3458.619716647,6.56168,0.8052984,1.21785436968,0,0,-9.842536,137.6, 0.3, 4.9,0,0,1024,1024,1020,1024,0,0,-1,0,137.5,-8.2,100,4.238,4.25,4.253,4.248,0,0,4.52,76.91,3458.619716647,6.56168,6,P-GPS,
5500,2021-12-09 11:38:18,40.1849258818442,33.3282742354407,7.874016,,,3459.932052647,8.2021,0,1.33388127628,3.16977700432,10,4,16.807,3459.932052647,7.874016,0.8052984,1.33388127628,0,0,-10.513618,137.7, 1.7, 4.8,0,0,1024,1024,1024,1024,0,0,0,0,137.5,-8.2,100,4.238,4.25,4.253,4.248,0,0,4.52,76.91,3459.932052647,7.874016,6,P-GPS,
5600,2021-12-09 11:38:18,40.1849258458687,33.3282743688074,9.514436,,,3461.572472647,9.84252,0,1.35753285184,3.2092028586,10,4,16.807,3461.572472647,9.514436,0.8052984,1.35753285184,0,0,-10.513618,137.6, 2.1, 4.9,0,0,1024,1024,1024,1024,0,0,0,0,137.5,-8.3,100,4.238,4.25,4.253,4.248,0,0,4.52,76.91,3461.572472647,9.514436,6,P-GPS,
5700,2021-12-09 11:38:18,40.184925839946,33.3282745083688,10.826772,,,3462.884808647,11.48294,0.223694,1.38916343028,3.2481628336,10,4,16.807,3462.884808647,10.826772,0.8052984,1.38916343028,0,0.223694,-10.06623,137.4, 0.6, 5.5,0,0,1024,1024,1024,1024,0,0,0,0,137.5,-8.2,100,4.238,4.25,4.253,4.248,0,0,4.52,76.91,3462.884808647,10.826772,6,P-GPS,
5800,2021-12-09 11:38:18,40.1849250275283,33.3282745627694,12.467192,,,3464.525228647,13.12336,0.9395148,1.27133862336,3.54494762,10,4,16.807,3464.525228647,12.467192,0.9395148,1.38916343028,-0.671082,0.671082,-9.171454,137.3, 1.7, 4.4,0,0,1024,1024,1024,1024,0,0,0,0,137.5,-8.2,100,4.238,4.25,4.253,4.248,0,0,4.52,76.91,3464.525228647,12.467192,6,P-GPS,
5900,2021-12-09 11:38:18,40.1849250630056,33.3282750090853,13.779528,,,3465.837564647,14.107612,0.8052984,1.3928478136,3.6700460492,10,4,16.835,3465.837564647,13.779528,0.9395148,1.3928478136,-0.447388,0.671082,-8.052984,137.3, 4.1, 3.8,0,0,1024,1024,1024,1036,0,0,0,2,137.5,-8.2,100,4.161,4.163,4.151,4.129,0,0,5.808,76.91,3465.837564647,13.779528,6,P-GPS,
6000,2021-12-09 11:38:18,40.1849248559082,33.3282761250798,14.76378,,,3466.821816647,15.419948,0.8052984,1.6712434918,3.990157608,10,4,16.835,3466.821816647,14.76378,0.9395148,1.6712434918,-0.223694,0.894776,-6.934514,137.4, 4.7, 4.3,0,0,1024,1024,1024,1321,0,0,0,45,137.5,-8.2,100,4.161,4.163,4.151,4.129,0,0,5.808,76.91,3466.821816647,14.76378,6,P-GPS,
6100,2021-12-09 11:38:19,40.1849246971887,33.3282772764566,15.748032,,,3467.806068647,16.4042,0.671082,1.9749344464,4.3162402956,10,4,16.835,3467.806068647,15.748032,0.9395148,1.9749344464,0,0.671082,-5.816044,137.4, 5, 5.4,0,0,1024,1024,1024,1601,0,0,0,87,137.8,-8.2,100,4.161,4.163,4.151,4.129,0,0,5.808,76.91,3467.806068647,15.748032,6,P-GPS,
6200,2021-12-09 11:38:19,40.1849249654472,33.3282786114102,17.060368,,,3469.118404647,17.060368,0.7158208,2.35826123032,4.7010172108,10,4,16.835,3469.118404647,17.060368,0.9395148,2.35826123032,0.223694,0.671082,-4.697574,140.1, 5.2, 6.5,0,0,1024,1024,1024,1684,0,0,0,100,140.3,-8.2,100,4.161,4.163,4.151,4.129,0,0,5.808,76.91,3469.118404647,17.060368,6,P-GPS,
6300,2021-12-09 11:38:19,40.1849253406879,33.3282792839618,17.716536,,,3469.774572647,17.716536,1.006623,2.56904863864,4.9331366408,10,4,16.835,3469.774572647,17.716536,1.006623,2.56904863864,0.447388,0.894776,-3.35541,148.8, 3.7, 7.4,0,0,1024,1024,1024,1684,0,0,0,100,145,-8.3,100,4.161,4.163,4.151,4.129,0,0,5.808,76.91,3469.774572647,17.716536,6,P-GPS,
6400,2021-12-09 11:38:19,40.1849259105895,33.3282799537889,18.372704,,,3470.430740647,18.372704,1.006623,2.80101386916,5.212598592,10,4,16.835,3470.430740647,18.372704,1.006623,2.80101386916,0.894776,1.11847,-2.460634,162.8, 1.3, 8.4,0,0,1024,1024,1024,1684,0,0,0,100,155.4,-8.1,100,4.161,4.163,4.151,4.129,0,0,5.808,76.91,3470.430740647,18.372704,6,P-GPS,
6500,2021-12-09 11:38:19,40.1849265099351,33.3282806336675,18.700788,,,3470.758824647,18.700788,1.4316416,3.04708015,5.5019358716,10,4,16.835,3470.758824647,18.700788,1.4316416,3.04708015,0.894776,1.11847,-1.565858,177.2, -0.8, 10,0,0,1024,1024,1024,1684,0,0,0,100,171,-8,100,4.161,4.163,4.151,4.129,0,0,5.808,76.91,3470.758824647,18.700788,6,P-GPS,
6600,2021-12-09 11:38:19,40.1849282193128,33.3282812487577,19.68504,,,3471.743076647,19.028872,1.901399,3.452099848,6.1487534776,10,4,16.835,3471.743076647,19.68504,1.901399,3.452099848,1.342164,1.342164,-1.11847,191.9, -4.3, 10.4,0,0,1024,1024,1024,1684,0,0,0,100,187.1,-7.9,100,4.161,4.163,4.151,4.129,0,0,5.808,76.91,3471.743076647,19.68504,6,P-GPS,
6700,2021-12-09 11:38:19,40.1849289525913,33.328281875469,20.013124,,,3472.071160647,19.028872,1.7448132,3.73441613,6.4682744852,10,4,16.835,3472.071160647,20.013124,1.901399,3.73441613,1.342164,1.11847,-0.894776,206.5, -9.1, 9,0,0,1024,1024,1024,1684,0,0,0,100,203.6,-7.9,100,4.161,4.163,4.151,4.129,0,0,5.808,76.91,3472.071160647,20.013124,6,P-GPS,
6800,2021-12-09 11:38:19,40.1849297807984,33.3282823754008,20.013124,,,3472.071160647,19.356956,1.8119214,4.0111221756,6.801017278,10,4,16.835,3472.071160647,20.013124,1.901399,4.0111221756,1.565858,0.894776,-0.671082,221.7, -12.9, 4.9,0,0,1024,1024,1024,1361,0,0,0,51,219.7,-8.1,100,4.161,4.163,4.151,4.129,0,0,5.808,76.91,3472.071160647,20.013124,6,P-GPS,
6900,2021-12-09 11:38:19,40.1849305404708,33.3282827687905,20.013124,,,3472.071160647,19.356956,1.4987498,4.2570867504,7.099081592,10,4,16.027,3472.071160647,20.013124,1.901399,4.2570867504,1.342164,0.671082,-0.447388,236.6, -14.8, 0.7,0,0,1024,1024,1024,1024,0,0,0,0,233.9,-8.3,100,4.059,4.078,4.081,4.07,0,0,17.646,76.91,3472.071160647,20.013124,6,P-GPS,
7000,2021-12-09 11:38:20,40.1849320005695,33.3282821951875,20.341208,,,3472.399244647,19.356956,1.4092722,4.4645998804,7.6552823972,10,4,16.027,3472.399244647,20.341208,1.901399,4.4645998804,1.342164,0.447388,-0.223694,242, -14.7, -1.8,0,0,1024,1024,1024,1024,0,0,0,0,239.3,-8.3,100,4.059,4.078,4.081,4.07,0,0,17.646,76.91,3472.399244647,20.341208,6,P-GPS,
7100,2021-12-09 11:38:20,40.1849326253269,33.328282132776,20.341208,,,3472.399244647,19.68504,1.1408394,4.6076445044,7.8838913284,10,4,16.027,3472.399244647,20.341208,1.901399,4.6076445044,1.11847,0.223694,-0.223694,242.8, -15, -2.9,0,0,1024,1024,1024,1024,0,0,0,0,239.3,-8.3,100,4.059,4.078,4.081,4.07,0,0,17.646,76.91,3472.399244647,20.341208,6,P-GPS,
7200,2021-12-09 11:38:20,40.184933087152,33.328281819311,20.341208,,,3472.399244647,19.68504,0.9171454,4.6660762648,8.0736879224,10,4,16.027,3472.399244647,20.341208,1.901399,4.6660762648,0.894776,0.223694,-0.223694,243.3, -14.9, -3.5,0,0,1024,1024,1024,1024,0,0,0,0,240.6,-8.3,100,4.059,4.078,4.081,4.07,0,0,17.646,76.91,3472.399244647,20.341208,6,P-GPS,
7300,2021-12-09 11:38:20,40.1849334196884,33.3282814225324,20.341208,,,3472.399244647,19.68504,0.671082,4.6806431944,8.237861156,10,4,16.027,3472.399244647,20.341208,1.901399,4.6806431944,0.671082,0,0,243.5, -14, -4,0,0,1024,1024,1024,1024,0,0,0,0,241.2,-8.3,100,4.059,4.078,4.081,4.07,0,0,17.646,76.91,3472.399244647,20.341208,6,P-GPS,
7400,2021-12-09 11:38:20,40.1849336566921,33.3282811211399,20.341208,,,3472.399244647,19.68504,0.223694,4.6912074992,8.3583992176,10,4,16.027,3472.399244647,20.341208,1.901399,4.6912074992,0.223694,0,0,243.5, -13.4, -3.7,0,0,1024,1024,1024,1024,0,0,0,0,241.6,-8.3,100,4.059,4.078,4.081,4.07,0,0,17.646,76.91,3472.399244647,20.341208,6,P-GPS,
7500,2021-12-09 11:38:20,40.1849339734994,33.328280248314,20.341208,,,3472.399244647,19.68504,0,4.6303479172,8.6277561816,10,4,16.027,3472.399244647,20.341208,1.901399,4.6912074992,0,0,0,243.4, -12.6, -3.9,0,0,1024,1024,1024,1024,0,0,0,0,241.8,-8.2,100,4.059,4.078,4.081,4.07,0,0,17.646,76.91,3472.399244647,20.341208,6,P-GPS,
7600,2021-12-09 11:38:20,40.1849338552548,33.3282799236538,20.341208,,,3472.399244647,20.013124,0,4.5417980456,8.728018652,10,4,16.027,3472.399244647,20.341208,1.901399,4.6912074992,0,0,0,243.3, -12.3, -3.1,0,0,1024,1024,1024,1024,0,0,0,0,241.9,-8.2,100,4.059,4.078,4.081,4.07,0,0,17.646,76.91,3472.399244647,20.341208,6,P-GPS,
7700,2021-12-09 11:38:20,40.1849336491264,33.3282795733434,20.341208,,,3472.399244647,20.013124,0.223694,4.4235237636,8.8512470024,9,4,16.027,3472.399244647,20.341208,1.901399,4.6912074992,-0.223694,0,0,243.3, -12, -2.1,0,0,1024,1024,1120,1024,0,0,15,0,242,-8.3,100,4.059,4.078,4.081,4.07,0,0,17.646,76.91,3472.399244647,20.341208,6,P-GPS,
7800,2021-12-09 11:38:20,40.1849332832167,33.3282793790171,20.341208,,,3472.399244647,20.013124,0.671082,4.2836943628,8.9953414952,9,4,16.027,3472.399244647,20.341208,1.901399,4.6912074992,-0.671082,0,0,243.2, -11.2, -0.7,0,0,1024,1024,1269,1024,0,0,37,0,242.2,-8.3,100,4.059,4.078,4.081,4.07,0,0,17.646,76.91,3472.399244647,20.341208,6,P-GPS,
7900,2021-12-09 11:38:20,40.1849324144157,33.3282796397633,20.341208,,,3472.399244647,20.013124,0.9171454,4.0786090544,9.320538356,10,4,16.859,3472.399244647,20.341208,1.901399,4.6912074992,-0.894776,-0.223694,0,243.1, -9.3, 0.8,0,0,1024,1024,1545,1024,0,0,79,0,242.3,-8.3,100,4.059,4.078,4.081,4.07,0,0,17.646,76.91,3472.399244647,20.341208,6,P-GPS,
8000,2021-12-09 11:38:21,40.1849316707054,33.3282794122635,20.341208,,,3472.399244647,20.013124,0.671082,3.8314633772,9.5991800972,10,4,16.859,3472.399244647,20.341208,1.901399,4.6912074992,-0.671082,0,-0.671082,243.1, -7, 2.2,0,0,1024,1024,1455,1391,0,0,65,56,242.6,-8.3,100,4.059,4.078,4.081,4.07,0,0,17.646,76.91,3472.399244647,20.341208,6,P-GPS,
8100,2021-12-09 11:38:21,40.1849309701781,33.3282791766293,20.669292,,,3472.727328647,20.341208,0.7158208,3.598753396,9.8630908668,9,4,16.859,3472.727328647,20.669292,1.901399,4.6912074992,-0.671082,-0.223694,-2.013246,243.4, -7.1, 2.2,0,0,1024,1024,1266,1551,0,0,37,80,244.5,-8.3,100,4.059,4.078,4.081,4.07,0,0,17.646,76.91,3472.727328647,20.669292,6,P-GPS,
8200,2021-12-09 11:38:21,40.1849304337051,33.3282789854396,20.997376,,,3473.055412647,20.669292,0.7158208,3.4214896108,10.065945204,9,4,16.859,3473.055412647,20.997376,1.901399,4.6912074992,-0.671082,-0.223694,-3.35541,246.8, -8.9, 1.7,0,0,1024,1024,1129,1578,0,0,16,84,248.2,-8.3,100,4.059,4.078,4.081,4.07,0,0,17.646,76.91,3473.055412647,20.997376,6,P-GPS,
8300,2021-12-09 11:38:21,40.1849292290653,33.3282795738564,21.32546,,,3473.383496647,21.32546,0.7158208,3.25583671836,10.5350397072,8,4,16.859,3473.383496647,21.32546,1.901399,4.6912074992,-0.671082,-0.223694,-3.35541,256.2, -12.6, -0.9,0,0,1024,1024,1066,1336,0,0,6,47,255.7,-8.2,100,4.059,4.078,4.081,4.07,0,0,17.646,76.91,3473.383496647,21.32546,6,P-GPS,
8400,2021-12-09 11:38:21,40.1849287973013,33.3282792358343,21.981628,,,3474.039664647,21.653544,0.8052984,3.08615167356,10.7186027052,8,4,16.859,3474.039664647,21.981628,1.901399,4.6912074992,-0.671082,-0.447388,-2.460634,267.1, -12.8, -2.7,0,0,1024,1024,1024,1064,0,0,0,6,255.7,-8.2,100,4.059,4.078,4.081,4.07,0,0,17.646,76.91,3474.039664647,21.981628,6,P-GPS,
8500,2021-12-09 11:38:21,40.184928396989,33.3282788966097,22.309712,,,3474.367748647,21.981628,0.8052984,2.92441282324,10.8925856504,9,4,16.859,3474.367748647,22.309712,1.901399,4.6912074992,-0.671082,-0.447388,-1.565858,272.2, -9.4, -2.3,0,0,1024,1024,1024,1024,0,0,0,0,264.9,-8.2,100,4.059,4.078,4.081,4.07,0,0,17.646,76.91,3474.367748647,22.309712,6,P-GPS,
8600,2021-12-09 11:38:21,40.1849279642626,33.328278401914,22.309712,,,3474.367748647,22.309712,0.9395148,2.7215223968,11.102198518,9,4,16.859,3474.367748647,22.309712,1.901399,4.6912074992,-0.671082,-0.671082,-0.894776,272.5, -6.9, -1.3,0,0,1024,1024,1024,1024,0,0,0,0,269.2,-8.2,100,4.059,4.078,4.081,4.07,0,0,17.646,76.91,3474.367748647,22.309712,6,P-GPS,
8700,2021-12-09 11:38:21,40.1849273705922,33.3282777249645,22.637796,,,3474.695832647,22.309712,0.9395148,2.44543314912,11.3894688684,9,4,16.859,3474.695832647,22.637796,1.901399,4.6912074992,-0.671082,-0.671082,-0.447388,272.4, -5.8, -0.5,0,0,1024,1024,1024,1024,0,0,0,0,270.5,-8.2,100,4.059,4.078,4.081,4.07,0,0,17.646,76.91,3474.695832647,22.637796,6,P-GPS,
8800,2021-12-09 11:38:21,40.1849271073102,33.328277189146,22.637796,,,3474.695832647,22.309712,0.9395148,2.26787408832,11.5670607376,9,4,16.859,3474.695832647,22.637796,1.901399,4.6912074992,-0.671082,-0.671082,-0.223694,272.2, -4.4, -0.1,0,0,1024,1024,1024,1024,0,0,0,0,271,-8.2,100,4.059,4.078,4.081,4.07,0,0,17.646,76.91,3474.695832647,22.637796,6,P-GPS,
8900,2021-12-09 11:38:21,40.1849268941811,33.3282767101807,22.309712,,,3474.367748647,22.309712,0.9395148,2.1134515112,11.7215554932,10,4,16.493,3474.695832647,22.637796,1.901399,4.6912074992,-0.671082,-0.671082,0,271.9, -3.9, 0,0,0,1024,1024,1024,1024,0,0,0,0,271.2,-8.2,100,4.131,4.14,4.135,4.119,0,0,8.54,76.91,3474.367748647,22.309712,6,P-GPS,
9000,2021-12-09 11:38:22,40.1849266379845,33.3282762962898,22.309712,,,3474.367748647,22.309712,0.4921268,1.9661417952,11.8700135032,10,4,16.493,3474.695832647,22.637796,1.901399,4.6912074992,-0.223694,-0.447388,0,271.8, -4.5, 0.3,0,0,1024,1024,1024,1024,0,0,0,0,271.3,-8.2,100,4.131,4.14,4.135,4.119,0,0,8.54,76.91,3474.367748647,22.309712,6,P-GPS,
9100,2021-12-09 11:38:22,40.1849264476764,33.328275945032,21.981628,,,3474.039664647,22.309712,0.4921268,1.84639441604,11.9900594388,10,4,16.493,3474.695832647,22.637796,1.901399,4.6912074992,-0.223694,-0.447388,0,271.8, -4.7, -0.3,0,0,1024,1024,1024,1024,0,0,0,0,271.3,-8.2,100,4.131,4.14,4.135,4.119,0,0,8.54,76.91,3474.039664647,21.981628,6,P-GPS,
9200,2021-12-09 11:38:22,40.184926856025,33.3282759246794,21.981628,,,3474.039664647,22.309712,0.447388,1.92336948412,12.1391408084,10,4,16.493,3474.695832647,22.637796,1.901399,4.6912074992,0,-0.447388,0.223694,271.8, -5.6, -0.9,0,0,1024,1024,1024,1024,0,0,0,0,271.4,-8.2,100,4.131,4.14,4.135,4.119,0,0,8.54,76.91,3474.039664647,21.981628,6,P-GPS,
9300,2021-12-09 11:38:22,40.1849269189693,33.3282757957134,21.653544,,,3473.711580647,22.309712,0.447388,1.90763129464,12.1817917284,10,4,16.493,3474.695832647,22.637796,1.901399,4.6912074992,0,-0.447388,0,271.9, -5.7, -1.1,0,0,1024,1024,1024,1024,0,0,0,0,271.4,-8.3,100,4.131,4.14,4.135,4.119,0,0,8.54,76.91,3473.711580647,21.653544,6,P-GPS,
9400,2021-12-09 11:38:22,40.1849268734282,33.3282756284697,21.653544,,,3473.711580647,21.981628,0.223694,1.86029861596,12.231299604,10,4,16.493,3474.695832647,22.637796,1.901399,4.6912074992,0,-0.223694,0,272, -6.1, -1.9,0,0,1024,1024,1024,1024,0,0,0,0,271.4,-8.2,100,4.131,4.14,4.135,4.119,0,0,8.54,76.91,3473.711580647,21.653544,6,P-GPS,
9500,2021-12-09 11:38:22,40.1849268657338,33.3282754974855,21.32546,,,3473.383496647,21.981628,0.3131716,1.82949152836,12.2679137784,9,4,16.493,3474.695832647,22.637796,1.901399,4.6912074992,0.223694,-0.223694,0,272, -5.8, -2.7,0,0,1024,1024,1024,1024,0,0,0,0,271.4,-8.2,100,4.131,4.14,4.135,4.119,0,0,8.54,76.91,3473.383496647,21.32546,6,P-GPS,
9600,2021-12-09 11:38:22,40.1849271761234,33.3282757104686,21.32546,,,3473.383496647,21.981628,0.4921268,1.94620413052,12.3957681132,9,4,16.493,3474.695832647,22.637796,1.901399,4.6912074992,0.223694,-0.447388,0,272, -5.4, -4.1,0,0,1024,1024,1024,1024,0,0,0,0,271.4,-8.2,100,4.131,4.14,4.135,4.119,0,0,8.54,76.91,3473.383496647,21.32546,6,P-GPS,
9700,2021-12-09 11:38:22,40.1849273329181,33.3282756735559,21.32546,,,3473.383496647,21.981628,0.4921268,1.97487867212,12.453904598,10,4,16.493,3474.695832647,22.637796,1.901399,4.6912074992,0.223694,-0.447388,0,272, -5.5, -4.9,0,0,1024,1024,1024,1024,0,0,0,0,271.4,-8.2,100,4.131,4.14,4.135,4.119,0,0,8.54,76.91,3473.383496647,21.32546,6,P-GPS,
9800,2021-12-09 11:38:22,40.1849275312056,33.3282754190071,21.32546,,,3473.383496647,21.653544,0.223694,1.97048562736,12.5552169372,10,4,16.493,3474.695832647,22.637796,1.901399,4.6912074992,0,-0.223694,0,272.1, -5.4, -4.3,0,0,1024,1024,1024,1024,0,0,0,0,271.4,-8.3,100,4.131,4.14,4.135,4.119,0,0,8.54,76.91,3473.383496647,21.32546,6,P-GPS,
9900,2021-12-09 11:38:22,40.184927701891,33.3282751984672,21.32546,,,3473.383496647,21.653544,0.223694,1.97060045676,12.64271694,10,4,16.56,3474.695832647,22.637796,1.901399,4.6912074992,0,-0.223694,0,272.1, -5.8, -3.9,0,0,1024,1024,1024,1024,0,0,0,0,271.4,-8.3,100,4.12,4.136,4.127,4.118,0,0,11.898,76.91,3473.383496647,21.32546,6,P-GPS,
10000,2021-12-09 11:38:23,40.1849278237067,33.3282747009208,21.32546,,,3473.383496647,21.653544,0,1.91064310576,12.7883534276,10,4,16.56,3474.695832647,22.637796,1.901399,4.6912074992,0,0,0,272.1, -5.3, -3.8,0,0,1024,1024,1024,1024,0,0,0,0,271.4,-8.2,100,4.12,4.136,4.127,4.118,0,0,11.898,76.91,3473.383496647,21.32546,6,P-GPS,
10100,2021-12-09 11:38:23,40.1849278335507,33.3282745451721,20.997376,,,3473.055412647,21.653544,0,1.88575793436,12.8319229828,9,4,16.56,3474.695832647,22.637796,1.901399,4.6912074992,0,0,0,272.1, -5.1, -2.9,0,0,1024,1024,1024,1024,0,0,0,0,271.4,-8.2,100,4.12,4.136,4.127,4.118,0,0,11.898,76.91,3473.055412647,20.997376,6,P-GPS,
10200,2021-12-09 11:38:23,40.1849278547709,33.3282745352187,20.997376,,,3473.055412647,21.653544,0,1.89003943056,12.8401578912,9,4,16.56,3474.695832647,22.637796,1.901399,4.6912074992,0,0,0,272.1, -5.1, -2.7,0,0,1024,1024,1024,1024,0,0,0,0,271.5,-8.2,100,4.12,4.136,4.127,4.118,0,0,11.898,76.91,3473.055412647,20.997376,6,P-GPS,
10300,2021-12-09 11:38:23,40.184927883469,33.3282745545173,20.997376,,,3473.055412647,21.32546,0,1.90157158316,12.8519032984,9,4,16.56,3474.695832647,22.637796,1.901399,4.6912074992,0,0,0,272.2, -5.5, -3.4,0,0,1024,1024,1024,1024,0,0,0,0,271.5,-8.2,100,4.12,4.136,4.127,4.118,0,0,11.898,76.91,3473.055412647,20.997376,6,P-GPS,
10400,2021-12-09 11:38:23,40.1849282341055,33.3282746298648,20.997376,,,3473.055412647,21.32546,0,2.015502033,12.9815620952,9,4,16.56,3474.695832647,22.637796,1.901399,4.6912074992,0,0,-0.223694,272.3, -6, -3.8,0,0,1024,1024,1024,1024,0,0,0,0,271.5,-8.2,100,4.12,4.136,4.127,4.118,0,0,11.898,76.91,3473.055412647,20.997376,6,P-GPS,
10500,2021-12-09 11:38:23,40.1849283983585,33.3282746263947,20.669292,,,3472.727328647,21.32546,0,2.06315295316,13.041503042,10,4,16.56,3474.695832647,22.637796,1.901399,4.6912074992,0,0,-0.223694,272.3, -6, -4.1,0,0,1024,1024,1024,1024,0,0,0,0,271.5,-8.2,100,4.12,4.136,4.127,4.118,0,0,11.898,76.91,3472.727328647,20.669292,6,P-GPS,
10600,2021-12-09 11:38:23,40.1849285184481,33.328274501863,20.669292,,,3472.727328647,21.32546,0,2.07897644448,13.0973757472,10,4,16.56,3474.695832647,22.637796,1.901399,4.6912074992,0,0,-0.223694,272.3, -6, -4,0,0,1024,1024,1024,1024,0,0,0,0,271.5,-8.2,100,4.12,4.136,4.127,4.118,0,0,11.898,76.91,3472.727328647,20.669292,6,P-GPS,
10700,2021-12-09 11:38:23,40.1849286159659,33.3282743774267,20.341208,,,3472.399244647,21.32546,0,2.08928484376,13.1470804732,10,4,16.56,3474.695832647,22.637796,1.901399,4.6912074992,0,0,0,272.3, -5.9, -3.9,0,0,1024,1024,1024,1024,0,0,0,0,271.5,-8.2,100,4.12,4.136,4.127,4.118,0,0,11.898,76.91,3472.399244647,20.341208,6,P-GPS,
10800,2021-12-09 11:38:23,40.1849287302843,33.3282743302802,20.341208,,,3472.399244647,21.32546,0,2.1173229024,13.1908140704,10,4,16.56,3474.695832647,22.637796,1.901399,4.6912074992,0,0,-0.223694,272.3, -5.8, -3.8,0,0,1024,1024,1024,1024,0,0,0,0,271.5,-8.2,100,4.12,4.136,4.127,4.118,0,0,11.898,76.91,3472.399244647,20.341208,6,P-GPS,
10900,2021-12-09 11:38:23,40.184929014552,33.3282741466529,19.68504,,,3471.743076647,20.997376,0,2.18008209076,13.3064636804,10,4,16.414,3474.695832647,22.637796,1.901399,4.6912074992,0,0,-0.223694,272.3, -5.8, -3.9,0,0,1024,1024,1024,1024,0,0,0,0,271.5,-8.2,100,4.126,4.131,4.123,4.107,0,0,9.77,76.91,3471.743076647,19.68504,6,P-GPS,
11000,2021-12-09 11:38:24,40.1849291029016,33.3282740992374,20.013124,,,3472.071160647,20.997376,0,2.20175860064,13.3413062012,10,4,16.414,3474.695832647,22.637796,1.901399,4.6912074992,0,0,-0.223694,272.3, -5.6, -3.9,0,0,1024,1024,1024,1024,0,0,0,0,271.5,-8.2,100,4.126,4.131,4.123,4.107,0,0,9.77,76.91,3472.071160647,20.013124,6,P-GPS,
11100,2021-12-09 11:38:24,40.1849291683194,33.3282740567159,19.68504,,,3471.743076647,20.997376,0,2.2170440342,13.367946622,10,4,16.414,3474.695832647,22.637796,1.901399,4.6912074992,0,0,-0.447388,272.3, -4.7, -4,0,0,1024,1024,1024,1024,0,0,0,0,271.5,-8.3,100,4.126,4.131,4.123,4.107,0,0,9.77,76.91,3471.743076647,19.68504,6,P-GPS,
11200,2021-12-09 11:38:24,40.1849291814821,33.3282739822038,20.013124,,,3472.071160647,20.997376,0,2.21151909964,13.389272082,10,4,16.414,3474.695832647,22.637796,1.901399,4.6912074992,0,0,-0.447388,272.3, -6, -3.3,0,0,1024,1024,1024,1024,0,0,0,0,271.5,-8.2,100,4.126,4.131,4.123,4.107,0,0,9.77,76.91,3472.071160647,20.013124,6,P-GPS,
11300,2021-12-09 11:38:24,40.1849291929773,33.3282738438505,19.68504,,,3471.743076647,20.997376,0,2.1975558446,13.4280516108,10,4,16.414,3474.695832647,22.637796,1.901399,4.6912074992,0,0,-0.447388,272.3, -6.9, -2.9,0,0,1024,1024,1024,1024,0,0,0,0,271.5,-8.2,100,4.126,4.131,4.123,4.107,0,0,9.77,76.91,3471.743076647,19.68504,6,P-GPS,
11400,2021-12-09 11:38:24,40.184929156821,33.3282737220294,19.68504,,,3471.743076647,20.997376,0,2.17059390148,13.4645017432,10,4,16.414,3474.695832647,22.637796,1.901399,4.6912074992,0,0,-0.447388,272.4, -6.6, -2.4,0,0,1024,1024,1024,1024,0,0,0,0,271.5,-8.2,100,4.126,4.131,4.123,4.107,0,0,9.77,76.91,3471.743076647,19.68504,6,P-GPS,
11500,2021-12-09 11:38:24,40.1849291253936,33.3282735984199,19.356956,,,3471.414992647,20.997376,0,2.14525597416,13.5007878336,10,4,16.414,3474.695832647,22.637796,1.901399,4.6912074992,0,0,-0.447388,272.4, -6.3, -2.1,0,0,1024,1024,1024,1024,0,0,0,0,271.5,-8.2,100,4.126,4.131,4.123,4.107,0,0,9.77,76.91,3471.414992647,19.356956,6,P-GPS,
11600,2021-12-09 11:38:24,40.1849291328861,33.3282735495188,19.028872,,,3471.086908647,20.997376,0,2.141896394,13.5146985952,10,4,16.414,3474.695832647,22.637796,1.901399,4.6912074992,0,0,-0.447388,272.3, -6, -2.5,0,0,1024,1024,1024,1024,0,0,0,0,271.5,-8.3,100,4.126,4.131,4.123,4.107,0,0,9.77,76.91,3471.086908647,19.028872,6,P-GPS,
11700,2021-12-09 11:38:24,40.1849291093991,33.3282733829786,18.700788,,,3470.758824647,20.669292,0,2.11476712804,13.5619098828,10,4,16.414,3474.695832647,22.637796,1.901399,4.6912074992,0,0,-0.447388,272.4, -5.7, -2.6,0,0,1024,1024,1365,985,0,0,52,-6,271.6,-8.2,100,4.126,4.131,4.123,4.107,0,0,9.77,76.91,3470.758824647,18.700788,6,P-GPS,
11800,2021-12-09 11:38:24,40.1849291795606,33.3282733612133,19.028872,,,3471.086908647,20.669292,0,2.13571857228,13.5882222196,10,4,16.414,3474.695832647,22.637796,1.901399,4.6912074992,0,0,-0.671082,272.5, -5.3, -2.3,0,0,1024,1024,1593,1024,0,0,86,0,271.5,-8.3,100,4.126,4.131,4.123,4.107,0,0,9.77,76.91,3471.086908647,19.028872,6,P-GPS,
11900,2021-12-09 11:38:24,40.1849292606457,33.3282733548309,19.356956,,,3471.414992647,20.997376,0,2.16214245764,13.6178482048,9,4,16.328,3474.695832647,22.637796,1.901399,4.6912074992,0,0,-0.894776,272.2, -5.6, -2.6,0,0,1024,1024,1684,1024,0,0,100,0,271.5,-8.3,100,4.126,4.131,4.123,4.107,0,0,10.302,76.91,3471.414992647,19.356956,6,P-GPS,
12000,2021-12-09 11:38:25,40.1849294206745,33.3282732961389,19.356956,,,3471.414992647,20.997376,0,2.20961621244,13.678478128,9,4,16.328,3474.695832647,22.637796,1.901399,4.6912074992,0,0,-1.789552,272, -4.5, -2.5,0,0,1024,1024,1684,1024,0,0,100,0,271.5,-8.3,100,4.126,4.131,4.123,4.107,0,0,10.302,76.91,3471.414992647,19.356956,6,P-GPS,
12100,2021-12-09 11:38:25,40.1849298149973,33.3282732240794,20.013124,,,3472.071160647,21.32546,0,2.3362205472,13.8237537232,10,4,16.328,3474.695832647,22.637796,1.901399,4.6912074992,0,0,-3.35541,271.9, -5.5, -2.6,0,0,1024,1024,1684,1024,0,0,100,0,271.5,-8.3,100,4.126,4.131,4.123,4.107,0,0,10.302,76.91,3472.071160647,20.013124,6,P-GPS,
12200,2021-12-09 11:38:25,40.1849298927458,33.3282732617097,20.669292,,,3472.727328647,21.981628,0,2.36646333032,13.854003068,10,4,16.328,3474.695832647,22.637796,1.901399,4.6912074992,0,0,-4.921268,272.1, -6.9, -2.8,0,0,1024,1024,1684,1024,0,0,100,0,271.5,-8.3,100,4.126,4.131,4.123,4.107,0,0,10.302,76.91,3472.727328647,20.669292,6,P-GPS,
12300,2021-12-09 11:38:25,40.1849299499823,33.3282732896892,20.997376,,,3473.055412647,22.637796,0,2.38875663812,13.8762799716,9,4,16.328,3474.695832647,22.637796,1.901399,4.6912074992,0,0,-6.039738,272.2, -8.2, -2.7,0,0,1024,1024,1684,1024,0,0,100,0,271.5,-8.3,100,4.126,4.131,4.123,4.107,0,0,10.302,76.91,3473.055412647,20.997376,6,P-GPS,
12400,2021-12-09 11:38:25,40.1849300588487,33.3282733158888,21.653544,,,3473.711580647,23.622048,0,2.42852369976,13.916667112,9,4,16.328,3474.695832647,22.637796,1.901399,4.6912074992,0,0,-7.605596,272.3, -8, -2.9,0,0,1024,1024,1684,1024,0,0,100,0,271.5,-8.3,100,4.126,4.131,4.123,4.107,0,0,10.302,76.91,3473.711580647,21.653544,6,P-GPS,
12500,2021-12-09 11:38:25,40.1849301659856,33.3282732828695,23.293964,,,3475.352000647,24.934384,0,2.46207028876,13.9568245936,9,4,16.328,3475.352000647,23.293964,1.901399,4.6912074992,0,0,-8.94776,272.4, -7.6, -3.2,0,0,1024,1024,1684,1024,0,0,100,0,271.6,-8.3,100,4.126,4.131,4.123,4.107,0,0,10.302,76.91,3475.352000647,23.293964,6,P-GPS,
12600,2021-12-09 11:38:25,40.1849305538338,33.3282732836151,24.934384,,,3476.992420647,26.24672,0.223694,2.59568905944,14.0983272228,9,4,16.328,3476.992420647,24.934384,1.901399,4.6912074992,-0.223694,0,-9.842536,272.6, -7.3, -2.5,0,0,1024,1024,1684,1024,0,0,100,0,271.6,-8.3,100,4.126,4.131,4.123,4.107,0,0,10.302,76.91,3476.992420647,24.934384,6,P-GPS,
12700,2021-12-09 11:38:25,40.1849306957983,33.3282731878478,26.574804,,,3478.632840647,27.88714,0.3131716,2.6364666198,14.1565949412,10,4,16.328,3478.632840647,26.574804,1.901399,4.6912074992,-0.223694,-0.223694,-10.289924,272.4, -6.5, -1.7,0,0,1024,1024,1684,1024,0,0,100,0,271.6,-8.2,100,4.126,4.131,4.123,4.107,0,0,10.302,76.91,3478.632840647,26.574804,6,P-GPS,
12800,2021-12-09 11:38:25,40.1849308389108,33.3282732870404,28.215224,,,3480.273260647,29.52756,0.3131716,2.69466544056,14.2156828696,10,4,16.328,3480.273260647,28.215224,1.901399,4.6912074992,-0.223694,-0.223694,-10.737312,272.4, -5.7, -2.1,0,0,1024,1024,1684,1024,0,0,100,0,271.6,-8.2,100,4.126,4.131,4.123,4.107,0,0,10.302,76.91,3480.273260647,28.215224,6,P-GPS,
12900,2021-12-09 11:38:25,40.1849310109331,33.3282734088335,29.199476,,,3481.257512647,31.16798,0.3131716,2.7648951016,14.2870411396,10,4,16.453,3481.257512647,29.199476,1.901399,4.6912074992,-0.223694,-0.223694,-10.737312,272.3, -4.9, -2.7,0,0,1024,1024,1684,1024,0,0,100,0,271.6,-8.2,100,4.113,4.121,4.122,4.108,0,0,10.302,76.91,3481.257512647,29.199476,6,P-GPS,
13000,2021-12-09 11:38:26,40.1849311810502,33.3282736228677,31.16798,,,3483.226016647,32.480316,0.223694,2.84283473664,14.3731303812,10,4,16.453,3483.226016647,31.16798,1.901399,4.6912074992,-0.223694,0,-10.961006,272.3, -5.1, -3,0,0,1024,1024,1684,1024,0,0,100,0,271.6,-8.3,100,4.113,4.121,4.122,4.108,0,0,10.302,76.91,3483.226016647,31.16798,6,P-GPS,
13100,2021-12-09 11:38:26,40.1849313884781,33.3282737043004,32.480316,,,3484.538352647,34.120736,0,2.92177830872,14.4521330084,10,4,16.453,3484.538352647,32.480316,1.901399,4.6912074992,0,0,-10.961006,272.4, -6.5, -2.3,0,0,1024,1024,1684,1024,0,0,100,0,271.6,-8.3,100,4.113,4.121,4.122,4.108,0,0,10.302,76.91,3484.538352647,32.480316,6,P-GPS,
13200,2021-12-09 11:38:26,40.1849317178765,33.3282739128155,34.44882,,,3486.506856647,35.761156,0.223694,3.05438329984,14.585630388,10,4,16.453,3486.506856647,34.44882,1.901399,4.6912074992,0,0.223694,-10.961006,272.4, -6.9, -1.3,0,0,1024,1024,1684,1024,0,0,100,0,271.6,-8.3,100,4.113,4.121,4.122,4.108,0,0,10.302,76.91,3486.506856647,34.44882,6,P-GPS,
13300,2021-12-09 11:38:26,40.184932099644,33.3282741524299,35.433072,,,3487.491108647,37.401576,0.447388,3.2079725436,14.7401251436,10,4,16.453,3487.491108647,35.433072,1.901399,4.6912074992,0,0.447388,-10.961006,272.5, -8.1, -3.2,0,0,1024,1024,1684,1024,0,0,100,0,271.6,-8.3,100,4.113,4.121,4.122,4.108,0,0,10.302,76.91,3487.491108647,35.433072,6,P-GPS,
13400,2021-12-09 11:38:26,40.1849329478728,33.3282746940591,37.073492,,,3489.131528647,39.041996,0,3.5503938144,15.0844493016,10,4,16.453,3489.131528647,37.073492,1.901399,4.6912074992,0,0,-10.961006,272.6, -8.8, -4.4,0,0,1024,1024,1684,1024,0,0,100,0,271.6,-8.3,100,4.113,4.121,4.122,4.108,0,0,10.302,76.91,3489.131528647,37.073492,6,P-GPS,
13500,2021-12-09 11:38:26,40.1849334282247,33.3282749868015,39.041996,,,3491.100032647,40.682416,0,3.7430775476,15.2777563944,10,4,16.453,3491.100032647,39.041996,1.901399,4.6912074992,0,0,-11.1847,272.5, -8.8, -4.1,0,0,1024,1024,1684,1024,0,0,100,0,271.6,-8.3,100,4.113,4.121,4.122,4.108,0,0,10.302,76.91,3491.100032647,39.041996,6,P-GPS,
13600,2021-12-09 11:38:26,40.1849337338087,33.3282749463542,41.0105,,,3493.068536647,42.322836,0.223694,3.8438977608,15.3898298888,10,4,16.453,3493.068536647,41.0105,1.901399,4.6912074992,0.223694,0,-11.1847,272.5, -8.8, -4.3,0,0,1024,1024,1684,1024,0,0,100,0,271.6,-8.3,100,4.113,4.121,4.122,4.108,0,0,10.302,76.91,3493.068536647,41.0105,6,P-GPS,
13700,2021-12-09 11:38:26,40.1849340340222,33.3282748899971,42.65092,,,3494.708956647,43.963256,0.223694,3.9420276852,15.500492622,10,4,16.453,3494.708956647,42.65092,1.901399,4.6912074992,0.223694,0,-11.1847,272.5, -9, -4.4,0,0,1024,1024,1684,1024,0,0,100,0,271.6,-8.3,100,4.113,4.121,4.122,4.108,0,0,10.302,76.91,3494.708956647,42.65092,6,P-GPS,
13800,2021-12-09 11:38:26,40.1849346563385,33.328274570657,44.29134,,,3496.349376647,45.603676,0.223694,4.130741602,15.7443574592,10,4,16.453,3496.349376647,44.29134,1.901399,4.6912074992,0.223694,0,-11.1847,272.5, -8.6, -5.1,0,0,1024,1024,1684,1024,0,0,100,0,271.6,-8.2,100,4.113,4.121,4.122,4.108,0,0,10.302,76.91,3496.349376647,44.29134,6,P-GPS,
13900,2021-12-09 11:38:26,40.1849351529325,33.3282746389241,45.603676,,,3497.661712647,47.244096,0.223694,4.3098098492,15.9265425044,10,4,16.162,3497.661712647,45.603676,1.901399,4.6912074992,0.223694,0,-10.961006,272.5, -7.8, -5.5,0,0,1024,1024,1684,1024,0,0,100,0,271.6,-8.3,100,3.962,3.984,3.992,3.973,0,0,21.446,76.91,3497.661712647,45.603676,6,P-GPS,
14000,2021-12-09 11:38:27,40.1849355923877,33.3282745111409,47.244096,,,3499.302132647,48.884516,0.223694,4.4543308512,16.0907813548,10,4,16.162,3499.302132647,47.244096,1.901399,4.6912074992,0.223694,0,-10.961006,272.6, -7.3, -5.6,0,0,1024,1024,1684,1024,0,0,100,0,271.6,-8.3,100,3.962,3.984,3.992,3.973,0,0,21.446,76.91,3499.302132647,47.244096,6,P-GPS,
14100,2021-12-09 11:38:27,40.1849359848297,33.3282743968542,48.556432,,,3500.614468647,49.540684,0.223694,4.5845145824,16.2374677112,10,4,16.162,3500.614468647,48.556432,1.901399,4.6912074992,0.223694,0,-10.961006,272.6, -7.3, -5.2,0,0,1024,1024,1684,1024,0,0,100,0,271.6,-8.3,100,3.962,3.984,3.992,3.973,0,0,21.446,76.91,3500.614468647,48.556432,6,P-GPS,
14200,2021-12-09 11:38:27,40.1849363257379,33.3282743079403,49.868768,,,3501.926804647,49.540684,0.447388,4.6990815152,16.3642721772,10,4,16.162,3501.926804647,49.868768,1.901399,4.6990815152,0.447388,0,-10.961006,272.5, -7.4, -5.4,0,0,1024,1024,1684,1024,0,0,100,0,271.6,-8.3,100,3.962,3.984,3.992,3.973,0,0,21.446,76.91,3501.926804647,49.868768,6,P-GPS,
14300,2021-12-09 11:38:27,40.1849366448966,33.3282737738428,51.509188,,,3503.567224647,49.540684,0.447388,4.7797245624,16.5532813696,10,4,16.162,3503.567224647,51.509188,1.901399,4.7797245624,0.447388,0,-10.961006,272.5, -7.1, -6.4,0,0,1024,1024,1684,1024,0,0,100,0,271.6,-8.3,100,3.962,3.984,3.992,3.973,0,0,21.446,76.91,3503.567224647,51.509188,6,P-GPS,
14400,2021-12-09 11:38:27,40.1849370246563,33.3282738301355,53.149608,,,3505.207644647,49.540684,0.447388,4.9186025196,16.6927170696,10,4,16.162,3505.207644647,53.149608,1.901399,4.9186025196,0.447388,0,-10.961006,272.6, -7.4, -7.1,0,0,1024,1024,1684,1024,0,0,100,0,271.6,-8.3,100,3.962,3.984,3.992,3.973,0,0,21.446,76.91,3505.207644647,53.149608,6,P-GPS,
14500,2021-12-09 11:38:27,40.1849373608486,33.3282738968497,54.790028,,,3506.848064647,49.540684,0.4921268,5.042487038,16.8167984384,10,4,16.162,3506.848064647,54.790028,1.901399,5.042487038,0.447388,0.223694,-10.961006,272.6, -7.9, -7.5,0,0,1024,1024,1684,1024,0,0,100,0,271.6,-8.3,100,3.962,3.984,3.992,3.973,0,0,21.446,76.91,3506.848064647,54.790028,6,P-GPS,
14600,2021-12-09 11:38:27,40.1849376376384,33.3282740599814,56.430448,,,3508.488484647,49.540684,0.4921268,5.150590716,16.9275267884,10,4,16.162,3508.488484647,56.430448,1.901399,5.150590716,0.223694,0,-10.961006,272.7, -8.2, -7.6,0,0,1024,1024,1684,1024,0,0,100,0,271.6,-8.3,100,3.962,3.984,3.992,3.973,0,0,21.446,76.91,3508.488484647,56.430448,6,P-GPS,
14700,2021-12-09 11:38:27,40.1849380094708,33.3282743979782,57.742784,,,3509.800820647,49.540684,0,5.3030185424,17.0927170824,10,4,16.162,3509.800820647,57.742784,1.901399,5.3030185424,0,0,-10.961006,272.7, -8, -7.6,0,0,1024,1024,1684,1024,0,0,100,0,271.6,-8.2,100,3.962,3.984,3.992,3.973,0,0,21.446,76.91,3509.800820647,57.742784,6,P-GPS,
14800,2021-12-09 11:38:27,40.1849381445666,33.3282742871645,59.383204,,,3511.441240647,49.540684,0,5.3446195936,17.1508863756,10,4,16.162,3511.441240647,59.383204,1.901399,5.3446195936,0,0,-10.961006,272.7, -7.9, -7.4,0,0,1024,1024,1684,1024,0,0,100,0,271.6,-8.3,100,3.962,3.984,3.992,3.973,0,0,21.446,76.91,3511.441240647,59.383204,6,P-GPS,
14900,2021-12-09 11:38:27,40.1849382235917,33.3282741758882,61.023624,,,3513.081660647,49.540684,0,5.366469988,17.1932092116,10,4,15.986,3513.081660647,61.023624,1.901399,5.366469988,0,0,-10.961006,272.7, -7.9, -7,0,0,1024,1024,1684,1024,0,0,100,0,271.6,-8.3,99,4.009,4.024,4.024,4.009,0,0,15.852,76.91,3513.081660647,61.023624,6,P-GPS,
15000,2021-12-09 11:38:28,40.184938240179,33.3282741563009,62.33596,,,3514.393996647,49.540684,0,5.3712928228,17.2013785032,10,4,15.986,3514.393996647,62.33596,1.901399,5.3712928228,0,0,-10.961006,272.6, -8, -6.6,0,0,1024,1024,1684,1024,0,0,100,0,271.6,-8.3,99,4.009,4.024,4.024,4.009,0,0,15.852,76.91,3514.393996647,62.33596,6,P-GPS,
15100,2021-12-09 11:38:28,40.1849381417461,33.3282739218776,63.648296,,,3515.706332647,49.540684,0.223694,5.3232941336,17.2759519964,10,4,15.986,3515.706332647,63.648296,1.901399,5.3712928228,-0.223694,0,-10.737312,272.5, -8.1, -6.1,0,0,1024,1024,1684,1024,0,0,100,0,271.6,-8.3,99,4.009,4.024,4.024,4.009,0,0,15.852,76.91,3515.706332647,63.648296,6,P-GPS,
15200,2021-12-09 11:38:28,40.1849380857211,33.3282739570328,65.288716,,,3517.346752647,49.540684,0.223694,5.30511828,17.2985897924,10,4,15.986,3517.346752647,65.288716,1.901399,5.3712928228,-0.223694,0,-10.961006,272.5, -8.2, -5.7,0,0,1024,1024,1684,1024,0,0,100,0,271.6,-8.3,99,4.009,4.024,4.024,4.009,0,0,15.852,76.91,3517.346752647,65.288716,6,P-GPS,
15300,2021-12-09 11:38:28,40.1849380213617,33.3282739918769,66.601052,,,3518.659088647,49.540684,0.223694,5.283956862,17.3240163024,10,4,15.986,3518.659088647,66.601052,1.901399,5.3712928228,-0.223694,0,-10.737312,272.5, -8.1, -5.7,0,0,1024,1024,1684,1024,0,0,100,0,271.6,-8.3,99,4.009,4.024,4.024,4.009,0,0,15.852,76.91,3518.659088647,66.601052,6,P-GPS,
15400,2021-12-09 11:38:28,40.1849379442223,33.3282739511578,68.241472,,,3520.299508647,49.540684,0.447388,5.2541668348,17.3543640724,10,4,15.986,3520.299508647,68.241472,1.901399,5.3712928228,-0.447388,0,-10.737312,272.4, -8.1, -5.3,0,0,1024,1024,1684,1024,0,0,100,0,271.6,-8.3,99,4.009,4.024,4.024,4.009,0,0,15.852,76.91,3520.299508647,68.241472,6,P-GPS,
15500,2021-12-09 11:38:28,40.1849377140744,33.3282738052364,69.881892,,,3521.939928647,49.540684,0.447388,5.1639437348,17.447671162,10,4,15.986,3521.939928647,69.881892,1.901399,5.3712928228,-0.447388,0,-10.961006,272.4, -7.7, -4.8,0,0,1024,1024,1684,1024,0,0,100,0,271.6,-8.3,99,4.009,4.024,4.024,4.009,0,0,15.852,76.91,3521.939928647,69.881892,6,P-GPS,
15600,2021-12-09 11:38:28,40.1849375315356,33.3282737635278,71.522312,,,3523.580348647,49.540684,0,5.0963256224,17.515256466,10,4,15.986,3523.580348647,71.522312,1.901399,5.3712928228,0,0,-10.961006,272.3, -7.7, -4.4,0,0,1024,1024,1684,1024,0,0,100,0,271.6,-8.3,99,4.009,4.024,4.024,4.009,0,0,15.852,76.91,3523.580348647,71.522312,6,P-GPS,
15700,2021-12-09 11:38:28,40.1849373711436,33.328273745,73.162732,,,3525.220768647,49.540684,0.223694,5.037893862,17.5740163104,10,4,15.986,3525.220768647,73.162732,1.901399,5.3712928228,0,0.223694,-10.961006,272.3, -8.2, -4.6,0,0,1024,1024,1684,1024,0,0,100,0,271.6,-8.3,99,4.009,4.024,4.024,4.009,0,0,15.852,76.91,3525.220768647,73.162732,6,P-GPS,
15800,2021-12-09 11:38:28,40.1849374039535,33.3282739609234,75.131236,,,3527.189272647,49.540684,0.223694,5.0614831016,17.6353680184,10,4,15.986,3527.189272647,75.131236,1.901399,5.3712928228,0,0.223694,-10.961006,272.4, -8.9, -5.1,0,0,1024,1024,1684,1024,0,0,100,0,271.6,-8.3,99,4.009,4.024,4.024,4.009,0,0,15.852,76.91,3527.189272647,75.131236,6,P-GPS,
15900,2021-12-09 11:38:28,40.1849374445473,33.3282741790696,76.771656,,,3528.829692647,49.540684,0.223694,5.0886156484,17.6979664456,10,4,16.009,3528.829692647,76.771656,1.901399,5.3712928228,0,0.223694,-10.961006,272.5, -9.4, -5.5,0,0,1024,1024,1684,1024,0,0,100,0,271.6,-8.3,99,4.005,4.021,4.018,4.001,0,0,16.076,78.71,3528.829692647,76.771656,6,P-GPS,
16000,2021-12-09 11:38:29,40.1849378839732,33.3282748352013,78.412076,,,3530.470112647,49.540684,0.223694,5.28625345,17.9411751148,10,4,16.009,3530.470112647,78.412076,1.901399,5.3712928228,0,0.223694,-10.961006,272.6, -9.9, -6.3,0,0,1024,1024,1684,1024,0,0,100,0,271.6,-8.3,99,4.005,4.021,4.018,4.001,0,0,16.076,78.71,3530.470112647,78.412076,6,P-GPS,
16100,2021-12-09 11:38:29,40.1849380150531,33.3282750356017,80.052496,,,3532.110532647,49.540684,0,5.3462272052,18.0146987392,10,4,16.009,3532.110532647,80.052496,1.901399,5.3712928228,0,0,-11.1847,272.6, -10.1, -6.9,0,0,1024,1024,1684,1037,0,0,100,2,271.6,-8.3,99,4.005,4.021,4.018,4.001,0,0,16.076,78.71,3532.110532647,80.052496,6,P-GPS,
16200,2021-12-09 11:38:29,40.184938133923,33.3282751600072,82.021,,,3534.079036647,49.540684,0,5.3968833748,18.0702433604,10,4,16.009,3534.079036647,82.021,1.901399,5.3968833748,0,0,-11.1847,272.6, -9.9, -7.3,0,0,1024,1024,1684,1085,0,0,100,9,271.6,-8.3,99,4.005,4.021,4.018,4.001,0,0,16.076,78.71,3534.079036647,82.021,6,P-GPS,
16300,2021-12-09 11:38:29,40.184938236528,33.3282752511215,83.989504,,,3536.047540647,49.540684,0,5.4395342948,18.115486144,10,4,16.009,3536.047540647,83.989504,1.901399,5.4395342948,0,0,-11.1847,272.6, -9.5, -7.8,0,0,1024,1024,1684,1148,0,0,100,19,271.7,-8.3,99,4.005,4.021,4.018,4.001,0,0,16.076,78.71,3536.047540647,83.989504,6,P-GPS,
16400,2021-12-09 11:38:29,40.184938542099,33.3282750931529,85.629924,,,3537.687960647,49.540684,0,5.5366143504,18.2353352292,10,4,16.009,3537.687960647,85.629924,1.901399,5.5366143504,0,0,-11.1847,273.1, -9.2, -7.6,0,0,1024,1024,1684,1197,0,0,100,26,272.4,-8.3,99,4.005,4.021,4.018,4.001,0,0,16.076,78.71,3537.687960647,85.629924,6,P-GPS,
16500,2021-12-09 11:38:29,40.1849385914409,33.3282750576333,86.94226,,,3539.000296647,49.540684,0,5.5517062144,18.2558732876,10,4,16.009,3539.000296647,86.94226,1.901399,5.5517062144,0,0,-11.1847,274.8, -9, -7.2,0,0,1024,1024,1684,1135,0,0,100,17,273.6,-8.3,99,4.005,4.021,4.018,4.001,0,0,16.076,78.71,3539.000296647,86.94226,6,P-GPS,
16600,2021-12-09 11:38:29,40.18493856109,33.3282750844468,88.58268,,,3540.640716647,49.540684,0,5.5427495212,18.2692263064,10,4,16.009,3540.640716647,88.58268,1.901399,5.5517062144,0,0,-10.961006,277.1, -8.3, -7.2,0,0,1024,1024,1684,1063,0,0,100,6,274.5,-8.3,99,4.005,4.021,4.018,4.001,0,0,16.076,78.71,3540.640716647,88.58268,6,P-GPS,
16700,2021-12-09 11:38:29,40.1849385227303,33.3282751163953,90.2231,,,3542.281136647,49.540684,0,5.531332198,18.2858273568,10,4,16.009,3542.281136647,90.2231,1.901399,5.5517062144,0,0,-10.961006,278.7, -8.2, -7.5,0,0,1024,1024,1684,1024,0,0,100,0,275,-8.3,99,4.005,4.021,4.018,4.001,0,0,16.076,78.71,3542.281136647,90.2231,6,P-GPS,
16800,2021-12-09 11:38:29,40.1849382732788,33.3282749924691,91.86352,,,3543.921556647,49.540684,0,5.4346458432,18.3831698796,10,4,16.009,3543.921556647,91.86352,1.901399,5.5517062144,0,0,-10.961006,279.4, -8.6, -7.7,0,0,1024,1024,1684,1024,0,0,100,0,275.4,-8.3,99,4.005,4.021,4.018,4.001,0,0,16.076,78.71,3543.921556647,91.86352,6,P-GPS,
16900,2021-12-09 11:38:29,40.1849381564933,33.3282749635674,93.50394,,,3545.561976647,49.540684,0.223694,5.3913715636,18.4265425844,10,4,15.938,3545.561976647,93.50394,1.901399,5.5517062144,-0.223694,0,-10.961006,279.5, -9.1, -7.6,0,0,1024,1024,1684,1024,0,0,100,0,275.7,-8.3,99,4.005,4.021,4.018,4.001,0,0,16.076,78.71,3545.561976647,93.50394,6,P-GPS,
17000,2021-12-09 11:38:30,40.1849380545234,33.3282749889234,95.14436,,,3547.202396647,49.540684,0.223694,5.3569883604,18.464403478,10,4,15.938,3547.202396647,95.14436,1.901399,5.5517062144,-0.223694,0,-10.961006,279.4, -8.9, -7.3,0,0,1024,1024,1684,1024,0,0,100,0,275.9,-8.3,99,4.005,4.021,4.018,4.001,0,0,16.076,78.71,3547.202396647,95.14436,6,P-GPS,
17100,2021-12-09 11:38:30,40.1849379496939,33.3282750004521,96.78478,,,3548.842816647,49.540684,0.223694,5.32070227,18.502789306,10,4,15.938,3548.842816647,96.78478,1.901399,5.5517062144,-0.223694,0,-10.961006,279.4, -8.7, -7.2,0,0,1024,1024,1684,1024,0,0,100,0,276.1,-8.3,99,4.005,4.021,4.018,4.001,0,0,16.076,78.71,3548.842816647,96.78478,6,P-GPS,
17200,2021-12-09 11:38:30,40.1849377748251,33.328274986936,98.4252,,,3550.483236647,49.540684,0.223694,5.2579726092,18.5667000692,10,4,15.938,3550.483236647,98.4252,1.901399,5.5517062144,-0.223694,0,-10.961006,279.4, -8.6, -7.1,0,0,1024,1024,1684,1024,0,0,100,0,276.1,-8.3,99,4.005,4.021,4.018,4.001,0,0,16.076,78.71,3550.483236647,98.4252,6,P-GPS,
17300,2021-12-09 11:38:30,40.184937660847,33.3282749664657,100.393704,,,3552.451740647,49.540684,0.223694,5.2162731328,18.6086948212,10,4,15.938,3552.451740647,100.393704,1.901399,5.5517062144,-0.223694,0,-11.1847,279.4, -8.6, -6.9,0,0,1024,1024,1684,1024,0,0,100,0,276.3,-8.3,99,4.005,4.021,4.018,4.001,0,0,16.076,78.71,3552.451740647,100.393704,6,P-GPS,
17400,2021-12-09 11:38:30,40.1849374628803,33.3282749241965,101.70604,,,3553.764076647,49.540684,0.223694,5.1434056764,18.6818575532,10,4,15.938,3553.764076647,101.70604,1.901399,5.5517062144,-0.223694,0,-11.1847,279.4, -8.5, -6.8,0,0,1024,1024,1684,1024,0,0,100,0,276.4,-8.3,99,4.005,4.021,4.018,4.001,0,0,16.076,78.71,3553.764076647,101.70604,6,P-GPS,
17500,2021-12-09 11:38:30,40.1849372713753,33.3282748807304,103.34646,,,3555.404496647,49.540684,0.223694,5.0727363828,18.752789314,10,4,15.938,3555.404496647,103.34646,1.901399,5.5517062144,-0.223694,0,-11.1847,279.3, -8.3, -7,0,0,1024,1024,1684,1024,0,0,100,0,276.4,-8.3,99,4.005,4.021,4.018,4.001,0,0,16.076,78.71,3555.404496647,103.34646,6,P-GPS,
17600,2021-12-09 11:38:30,40.1849371729978,33.3282748498834,105.314964,,,3557.373000647,49.540684,0.223694,5.0358269328,18.789698764,10,4,15.938,3557.373000647,105.314964,1.901399,5.5517062144,-0.223694,0,-11.1847,279.3, -8.4, -6.9,0,0,1024,1024,1684,1024,0,0,100,0,276.5,-8.3,99,4.005,4.021,4.018,4.001,0,0,16.076,78.71,3557.373000647,105.314964,6,P-GPS,
17700,2021-12-09 11:38:30,40.1849370642438,33.3282748172088,106.6273,,,3558.685336647,49.540684,0.223694,4.9951445168,18.83038118,10,4,15.938,3558.685336647,106.6273,1.901399,5.5517062144,-0.223694,0,-10.961006,279.3, -8.6, -6.9,0,0,1024,1024,1684,1024,0,0,100,0,276.6,-8.3,99,4.005,4.021,4.018,4.001,0,0,16.076,78.71,3558.685336647,106.6273,6,P-GPS,
17800,2021-12-09 11:38:30,40.1849369711554,33.3282748185851,108.26772,,,3560.325756647,49.540684,0.223694,4.9624017336,18.8643706824,10,4,15.938,3560.325756647,108.26772,1.901399,5.5517062144,-0.223694,0,-10.961006,279.3, -8.6, -6.8,0,0,1024,1024,1684,1024,0,0,100,0,276.7,-8.3,99,4.005,4.021,4.018,4.001,0,0,16.076,78.71,3560.325756647,108.26772,6,P-GPS,
17900,2021-12-09 11:38:30,40.184936883379,33.3282748144703,109.90814,,,3561.966176647,49.540684,0.223694,4.9311353284,18.8963916808,10,4,15.941,3561.966176647,109.90814,1.901399,5.5517062144,-0.223694,0,-10.961006,279.3, -8.6, -6.6,0,0,1024,1024,1684,1024,0,0,100,0,276.7,-8.3,99,4.005,4.021,4.018,4.001,0,0,16.076,78.71,3561.966176647,109.90814,6,P-GPS,
18000,2021-12-09 11:38:31,40.1849367885808,33.3282748202305,111.220476,,,3563.278512647,49.540684,0.223694,4.898130078,18.9310373512,10,4,15.941,3563.278512647,111.220476,1.901399,5.5517062144,-0.223694,0,-10.961006,279.3, -8.6, -6.5,0,0,1024,1024,1684,1024,0,0,100,0,276.8,-8.3,99,4.005,4.021,4.018,4.001,0,0,16.076,78.71,3563.278512647,111.220476,6,P-GPS,
18100,2021-12-09 11:38:31,40.1849367854639,33.32827489754,112.860896,,,3564.918932647,49.540684,0,4.9026248288,18.95259247,10,4,15.941,3564.918932647,112.860896,1.901399,5.5517062144,0,0,-10.961006,279.3, -8.5, -6.6,0,0,1024,1024,1684,1024,0,0,100,0,276.8,-8.3,99,4.005,4.021,4.018,4.001,0,0,16.076,78.71,3564.918932647,112.860896,6,P-GPS,
18200,2021-12-09 11:38:31,40.1849367014688,33.3282748608459,114.8294,,,3566.887436647,49.540684,0,4.8703741716,18.984908744,10,4,15.941,3566.887436647,114.8294,1.901399,5.5517062144,0,0,-11.1847,279.3, -8.5, -6.8,0,0,1024,1024,1684,1024,0,0,100,0,276.9,-8.3,99,4.005,4.021,4.018,4.001,0,0,16.076,78.71,3566.887436647,114.8294,6,P-GPS,
18300,2021-12-09 11:38:31,40.1849366203104,33.3282748330962,116.46982,,,3568.527856647,49.540684,0,4.8397639344,19.0155189812,10,4,15.941,3568.527856647,116.46982,1.901399,5.5517062144,0,0,-11.1847,279.3, -8.7, -6.8,0,0,1024,1024,1684,1024,0,0,100,0,276.9,-8.3,99,4.005,4.021,4.018,4.001,0,0,16.076,78.71,3568.527856647,116.46982,6,P-GPS,
18400,2021-12-09 11:38:31,40.1849365796221,33.3282748904512,118.11024,,,3570.168276647,49.540684,0,4.8296589472,19.0373365672,10,4,15.941,3570.168276647,118.11024,1.901399,5.5517062144,0,0,-11.1847,279.3, -8.7, -6.7,0,0,1024,1024,1684,1024,0,0,100,0,277,-8.3,99,4.005,4.021,4.018,4.001,0,0,16.076,78.71,3570.168276647,118.11024,6,P-GPS,
18500,2021-12-09 11:38:31,40.1849366288956,33.3282749979126,119.75066,,,3571.808696647,49.540684,0.223694,4.8550198404,19.0722775132,10,4,15.941,3571.808696647,119.75066,1.901399,5.5517062144,-0.223694,0,-11.1847,279.3, -9.1, -6.9,0,0,1024,1024,1684,1024,0,0,100,0,277,-8.3,99,4.005,4.021,4.018,4.001,0,0,16.076,78.71,3571.808696647,119.75066,6,P-GPS,
18600,2021-12-09 11:38:31,40.1849365943888,33.3282750479573,121.39108,,,3573.449116647,49.540684,0.223694,4.8467193152,19.091043918,10,4,15.941,3573.449116647,121.39108,1.901399,5.5517062144,-0.223694,0,-10.961006,279.3, -9.2, -6.7,0,0,1024,1024,1684,1024,0,0,100,0,277,-8.3,99,4.005,4.021,4.018,4.001,0,0,16.076,78.71,3573.449116647,121.39108,6,P-GPS,
18700,2021-12-09 11:38:31,40.1849365597811,33.3282750931585,123.0315,,,3575.089536647,49.540684,0.223694,4.8380250892,19.1088916876,10,4,15.941,3575.089536647,123.0315,1.901399,5.5517062144,-0.223694,0,-10.961006,279.3, -9.1, -6.6,0,0,1024,1024,1684,1024,0,0,100,0,277,-8.3,99,4.005,4.021,4.018,4.001,0,0,16.076,78.71,3575.089536647,123.0315,6,P-GPS,
18800,2021-12-09 11:38:31,40.184936470728,33.328275058491,124.343836,,,3576.401872647,49.540684,0,4.804134012,19.1427827648,10,4,15.941,3576.401872647,124.343836,1.901399,5.5517062144,0,0,-10.961006,279.3, -9, -6.5,0,0,1024,1024,1684,1024,0,0,100,0,277.1,-8.3,99,4.005,4.021,4.018,4.001,0,0,16.076,78.71,3576.401872647,124.343836,6,P-GPS,
18900,2021-12-09 11:38:31,40.1849364144946,33.3282749633684,125.984256,,,3578.042292647,49.540684,0,4.7771326988,19.1763129496,10,4,15.862,3578.042292647,125.984256,1.901399,5.5517062144,0,0,-10.961006,279.3, -9.2, -6.5,0,0,1024,1024,1684,1024,0,0,100,0,277.1,-8.3,99,3.99,4.004,4.002,3.981,0,0,16.562,78.71,3578.042292647,125.984256,6,P-GPS,
19000,2021-12-09 11:38:32,40.1849363574437,33.3282750411544,127.624676,,,3579.682712647,49.540684,0.223694,4.7630907036,19.206365444,10,4,15.862,3579.682712647,127.624676,1.901399,5.5517062144,-0.223694,0,-10.961006,279.3, -9.2, -6.6,0,0,1024,1024,1684,1024,0,0,100,0,277.1,-8.3,99,3.99,4.004,4.002,3.981,0,0,16.562,78.71,3579.682712647,127.624676,6,P-GPS,
19100,2021-12-09 11:38:32,40.1849363026791,33.3282751081405,129.265096,,,3581.323132647,49.540684,0.223694,4.7491471336,19.2337276496,10,4,15.862,3581.323132647,129.265096,1.901399,5.5517062144,-0.223694,0,-10.961006,279.3, -9, -6.5,0,0,1024,1024,1684,1024,0,0,100,0,277.2,-8.3,99,3.99,4.004,4.002,3.981,0,0,16.562,78.71,3581.323132647,129.265096,6,P-GPS,
19200,2021-12-09 11:38:32,40.1849362122744,33.3282750257604,130.577432,,,3582.635468647,49.540684,0.223694,4.7110237728,19.2739179396,10,4,15.862,3582.635468647,130.577432,1.901399,5.5517062144,-0.223694,0,-10.961006,279.3, -8.9, -6.5,0,0,1024,1024,1684,1024,0,0,100,0,277.2,-8.3,99,3.99,4.004,4.002,3.981,0,0,16.562,78.71,3582.635468647,130.577432,6,P-GPS,
19300,2021-12-09 11:38:32,40.1849361266834,33.3282749538354,132.217852,,,3584.275888647,49.540684,0.223694,4.6754594672,19.31102424,10,4,15.862,3584.275888647,132.217852,1.901399,5.5517062144,-0.223694,0,-10.961006,279.3, -9.2, -6.6,0,0,1024,1024,1684,1024,0,0,100,0,277.2,-8.3,99,3.99,4.004,4.002,3.981,0,0,16.562,78.71,3584.275888647,132.217852,6,P-GPS,
19400,2021-12-09 11:38:32,40.1849359335239,33.3282749037682,133.858272,,,3585.916308647,49.540684,0,4.6038715384,19.382874636,10,4,15.862,3585.916308647,133.858272,1.901399,5.5517062144,0,0,-10.961006,279.3, -9.2, -6.2,0,0,1024,1024,1684,1024,0,0,100,0,277.2,-8.3,99,3.99,4.004,4.002,3.981,0,0,16.562,78.71,3585.916308647,133.858272,6,P-GPS,
