time(millisecond),datetime(utc),latitude,longitude,height_above_takeoff(feet),height_above_ground_at_drone_location(feet),ground_elevation_at_drone_location(feet),altitude_above_seaLevel(feet),height_sonar(feet),speed(mph),distance(feet),satellites,gpslevel,voltage(v),max_altitude(feet),max_ascent(feet),max_speed(mph),max_distance(feet), xSpeed(mph), ySpeed(mph), zSpeed(mph), compass_heading(degrees), pitch(degrees), roll(degrees),isPhoto,isVideo,rc_elevator,rc_aileron,rc_throttle,rc_rudder,gimbal_heading(degrees),gimbal_pitch(degrees),battery_percent,voltageCell1,voltageCell2,voltageCell3,voltageCell4,voltageCell5,voltageCell6,current(A),battery_temperature(f),altitude(feet),ascent(feet),flycStateRaw,flycState,message
388700,2021-04-16 08:48:27,40.1849040239369,33.328306672787,0,Available with any HD 360 subscription,Available with any HD 360 subscription,3451.8329592119,0.328084,0,0,12,4,0,3451.8329592119,0,0,0,0,0,0,106.8, 0.9, -0.3,0,0,1024,1024,1024,1024,0,0,55,3.856,3.86,3.875,3.851,0,0,0,111.11,3451.8329592119,0,41,Motors_Started,
388800,2021-04-16 08:48:27,40.1849040742689,33.3283066697317,0,,,3451.8329592119,0.328084,0,0.0183833011132,12,4,0,3451.8329592119,0,0,0.0183833011132,0,0,0,107.2, 1, -0.3,0,0,1024,1024,1024,1024,106.9,0,55,3.856,3.86,3.875,3.851,0,0,0,111.11,3451.8329592119,0,41,Motors_Started,
388900,2021-04-16 08:48:27,40.1849041183118,33.328306670993,0,,,3451.8329592119,0.328084,0,0.034436352808,12,4,0,3451.8329592119,0,0,0.034436352808,0,0,0,107.1, 1, -0.3,0,0,1024,1024,1024,1024,106.9,0,55,3.856,3.86,3.875,3.851,0,0,0,111.11,3451.8329592119,0,41,Motors_Started,
389000,2021-04-16 08:48:28,40.1849041373352,33.3283066743062,0,,,3451.8329592119,0.328084,0,0.041375329408,12,4,0,3451.8329592119,0,0,0.041375329408,0,0,0,106.9, 0.9, -0.3,0,0,1024,1024,1024,1024,106.9,0,55,3.856,3.86,3.875,3.851,0,0,0,111.11,3451.8329592119,0,41,Motors_Started,
389100,2021-04-16 08:48:28,40.1849041851496,33.328306852521,0,,,3451.8329592119,0.328084,0,0.077261813496,12,4,0,3451.8329592119,0,0,0.077261813496,0,0,0,106.8, 1, -0.3,0,0,1024,1024,1024,1024,106.9,0,55,3.856,3.86,3.875,3.851,0,0,0,111.11,3451.8329592119,0,41,Motors_Started,
389200,2021-04-16 08:48:28,40.1849041855209,33.3283069083119,0,,,3451.8329592119,0.328084,0,0.088234254792,12,4,15.231,3451.8329592119,0,0,0.088234254792,0,0,0,106.7, 1, -0.3,0,0,1024,1024,1024,1024,106.9,0,55,3.856,3.86,3.875,3.851,0,0,2.866,111.11,3451.8329592119,0,41,Motors_Started,Setting new Return-To-Home altitude to 150m (492 ft). Data Recorder File Index is 383. Setting new Maximum Flight Altitude to 500m (1640 ft)
389300,2021-04-16 08:48:28,40.1849041837068,33.3283069436129,0,,,3451.8329592119,0.328084,0,24.1350401424,12,4,15.231,3451.8329592119,0,0,24.1350401424,0,0,0,106.9, 0.9, -0.3,0,0,1024,1024,1024,1024,106.9,0,55,3.856,3.86,3.875,3.851,0,0,2.866,111.11,3451.8329592119,0,41,Motors_Started,
389400,2021-04-16 08:48:28,40.1849041794664,33.3283069084576,0,,,3451.8329592119,0.328084,0,24.1305453916,12,4,15.231,3451.8329592119,0,0,24.1350401424,0,0,0,107, 1, -0.3,0,0,1024,1024,1024,1024,106.9,0,55,3.856,3.86,3.875,3.851,0,0,2.866,111.11,3451.8329592119,0,41,Motors_Started,
389500,2021-04-16 08:48:28,40.1849041739427,33.3283068775013,0,,,3451.8329592119,0.328084,0,24.1271661264,12,4,15.231,3451.8329592119,0,0,24.1350401424,0,0,0,106.9, 0.9, -0.3,0,0,1024,1024,1024,1024,106.9,0,55,3.856,3.86,3.875,3.851,0,0,2.866,111.11,3451.8329592119,0,41,Motors_Started,
389600,2021-04-16 08:48:28,40.1849041221744,33.3283067776528,0,,,3451.8329592119,0.328084,0,24.1262802996,12,4,15.231,3451.8329592119,0,0,24.1350401424,0,0,0,106.8, 0.9, -0.4,0,0,1024,1024,1024,1024,106.9,0,55,3.856,3.86,3.875,3.851,0,0,2.866,111.11,3451.8329592119,0,41,Motors_Started,
389700,2021-04-16 08:48:28,40.1849041263758,33.3283067624718,0,,,3451.8329592119,0.328084,0,24.1225729504,13,4,15.231,3451.8329592119,0,0,24.1350401424,0,0,0,106.7, 0.9, -0.3,0,0,1024,1024,1024,1024,106.9,0,55,3.856,3.86,3.875,3.851,0,0,2.866,111.11,3451.8329592119,0,41,Motors_Started,
389800,2021-04-16 08:48:28,40.1849041727083,33.3283067565911,0,,,3451.8329592119,0.328084,0,24.1078747872,13,4,15.231,3451.8329592119,0,0,24.1350401424,0,0,0,106.7, 0.9, -0.3,0,0,1024,1024,1024,1024,106.9,0,55,3.856,3.86,3.875,3.851,0,0,2.866,111.11,3451.8329592119,0,41,Motors_Started,
389900,2021-04-16 08:48:29,40.1849042119115,33.3283067536311,0,,,3451.8329592119,0.328084,0,24.0957684876,13,4,15.231,3451.8329592119,0,0,24.1350401424,0,0,0,106.8, 1, -0.3,0,0,1024,1024,1024,1024,106.9,0,55,3.856,3.86,3.875,3.851,0,0,2.866,111.11,3451.8329592119,0,41,Motors_Started,
390000,2021-04-16 08:48:29,40.1849042874452,33.3283067643105,0,,,3451.8329592119,0.328084,0,24.075132004,13,4,15.231,3451.8329592119,0,0,24.1350401424,0,0,0,106.8, 0.9, -0.3,0,0,1024,1024,1024,1024,106.9,0,55,3.856,3.86,3.875,3.851,0,0,2.866,111.11,3451.8329592119,0,41,Motors_Started,
390100,2021-04-16 08:48:29,40.1849043078203,33.3283067642713,0,,,3451.8329592119,0.328084,0,24.06906245,13,4,15.231,3451.8329592119,0,0,24.1350401424,0,0,0,106.9, 1, -0.3,0,0,1024,1024,1024,1024,106.9,0,55,3.856,3.86,3.875,3.851,0,0,2.866,111.11,3451.8329592119,0,41,Motors_Started,
390200,2021-04-16 08:48:29,40.1849043581327,33.3283067639013,0,,,3451.8329592119,0.328084,0,24.0541018196,13,4,15.463,3451.8329592119,0,0,24.1350401424,0,0,0,106.9, 1, -0.3,0,0,1024,1024,1024,1024,106.9,0,55,3.832,3.838,3.854,3.823,0,0,2.866,111.11,3451.8329592119,0,41,Motors_Started,
390300,2021-04-16 08:48:29,40.1849043985898,33.3283067749115,0,,,3451.8329592119,0.328084,0,24.0439312156,13,4,15.463,3451.8329592119,0,0,24.1350401424,0,0,0,106.9, 1, -0.3,0,0,1024,1024,1024,1024,106.9,0,55,3.832,3.838,3.854,3.823,0,0,2.866,111.11,3451.8329592119,0,11,AutoTakeoff,
390400,2021-04-16 08:48:29,40.1849044289928,33.3283069327036,0,,,3451.8329592119,0.328084,0,24.0606634996,13,4,15.463,3451.8329592119,0,0,24.1350401424,0,0,0,106.8, 0.9, -0.3,0,0,1024,1024,1024,1024,106.9,0,55,3.832,3.838,3.854,3.823,0,0,2.866,111.11,3451.8329592119,0,11,AutoTakeoff,
390500,2021-04-16 08:48:29,40.18490444587,33.3283069786616,0,,,3451.8329592119,0.328084,0,24.0631897464,13,4,15.463,3451.8329592119,0,0,24.1350401424,0,0,0,106.9, 1, -0.4,0,0,1024,1024,1024,1024,106.9,0,55,3.832,3.838,3.854,3.823,0,0,2.866,111.11,3451.8329592119,0,11,AutoTakeoff,
390600,2021-04-16 08:48:29,40.1849044927399,33.328306995261,0,,,3451.8329592119,0.328084,0,24.0520348904,13,4,15.463,3451.8329592119,0,0,24.1350401424,0,0,0,106.8, 1, -0.3,0,0,1024,1024,1024,1024,106.9,0,55,3.832,3.838,3.854,3.823,0,0,2.866,111.11,3451.8329592119,0,11,AutoTakeoff,
390700,2021-04-16 08:48:29,40.1849045410591,33.3283070099151,0,,,3451.8329592119,0.328084,0,24.0401582496,13,4,15.463,3451.8329592119,0,0,24.1350401424,0,0,0,106.8, 1, -0.4,0,0,1024,1024,1024,1024,106.9,0,55,3.832,3.838,3.854,3.823,0,0,2.866,111.11,3451.8329592119,0,11,AutoTakeoff,
390800,2021-04-16 08:48:29,40.1849046938983,33.3283069874126,0,,,3451.8329592119,0.328084,0,23.9913721588,13,4,15.463,3451.8329592119,0,0,24.1350401424,0,0,0,106.8, 0.9, -0.4,0,0,1024,1024,1024,1024,106.9,0,55,3.832,3.838,3.854,3.823,0,0,2.866,111.11,3451.8329592119,0,11,AutoTakeoff,
390900,2021-04-16 08:48:30,40.1849047563524,33.3283070038774,0,,,3451.8329592119,0.328084,0,23.9756569352,13,4,15.463,3451.8329592119,0,0,24.1350401424,0,0,0,106.9, 1, -0.3,0,0,1024,1024,1024,1024,106.9,0,55,3.832,3.838,3.854,3.823,0,0,2.866,111.11,3451.8329592119,0,11,AutoTakeoff,
391000,2021-04-16 08:48:30,40.1849048213631,33.3283070497008,0,,,3451.8329592119,0.328084,0,23.9640099532,13,4,15.463,3451.8329592119,0,0,24.1350401424,0,0,0,106.9, 1, -0.3,0,0,1024,1024,1024,1024,106.9,0,55,3.832,3.838,3.854,3.823,0,0,2.866,111.11,3451.8329592119,0,11,AutoTakeoff,
391100,2021-04-16 08:48:30,40.1849048827392,33.3283071049648,0,,,3451.8329592119,0.328084,0,23.9550204516,13,4,15.463,3451.8329592119,0,0,24.1350401424,0,0,0,106.8, 0.2, -0.3,0,0,1024,1024,1024,1024,106.9,0,55,3.832,3.838,3.854,3.823,0,0,2.866,111.11,3451.8329592119,0,11,AutoTakeoff,
391200,2021-04-16 08:48:30,40.1849049484795,33.3283071897724,0,,,3451.8329592119,0.328084,0,23.949639874,13,4,15.11,3451.8329592119,0,0,24.1350401424,0,0,0,106.7, -1.3, -0.5,0,0,1024,1024,1024,1024,106.9,0,55,3.837,3.84,3.857,3.821,0,0,2.866,111.11,3451.8329592119,0,11,AutoTakeoff,
391300,2021-04-16 08:48:30,40.1849050353863,33.328307396746,0,,,3451.8329592119,0.328084,0,23.9583012916,13,4,15.11,3451.8329592119,0,0,24.1350401424,0,0,-0.223694,106.6, -2.4, -0.2,0,0,1024,1024,1024,1024,106.9,0,55,3.837,3.84,3.857,3.821,0,0,2.866,111.11,3451.8329592119,0,11,AutoTakeoff,
391400,2021-04-16 08:48:30,40.1849050927336,33.3283075338631,0,,,3451.8329592119,0.656168,0.223694,23.9641739952,13,4,15.11,3451.8329592119,0,0.223694,24.1350401424,0,0.223694,-0.671082,106.5, -1.1, -0.2,0,0,1024,1024,1024,1024,106.9,0,55,3.837,3.84,3.857,3.821,0,0,2.866,111.11,3451.8329592119,0,11,AutoTakeoff,
391500,2021-04-16 08:48:30,40.1849051475405,33.3283077210195,0,,,3451.8329592119,0.656168,0.223694,23.9792330508,13,4,15.11,3451.8329592119,0,0.223694,24.1350401424,0,0.223694,-1.11847,106.4, 1.2, 0.2,0,0,1024,1024,1024,1024,106.9,0,55,3.837,3.84,3.857,3.821,0,0,2.866,111.11,3451.8329592119,0,11,AutoTakeoff,
391600,2021-04-16 08:48:30,40.1849052060212,33.3283079541282,0.328084,,,3452.1610432119,0.984252,0.223694,24.00098502,13,4,15.11,3452.1610432119,0.328084,0.223694,24.1350401424,0,0.223694,-1.11847,106.3, 2.3, 0.5,0,0,1024,1024,1024,1024,106.9,0,55,3.837,3.84,3.857,3.821,0,0,2.866,111.11,3452.1610432119,0.328084,11,AutoTakeoff,
391700,2021-04-16 08:48:30,40.1849052668273,33.3283081539598,0.328084,,,3452.1610432119,0.984252,0.223694,24.0166674352,15,4,15.11,3452.1610432119,0.328084,0.223694,24.1350401424,0,0.223694,-1.342164,106.4, 1.7, 0.6,0,0,1024,1024,1024,1024,106.9,0,55,3.837,3.84,3.857,3.821,0,0,2.866,111.11,3452.1610432119,0.328084,11,AutoTakeoff,
391800,2021-04-16 08:48:30,40.1849053209795,33.3283083748586,0.656168,,,3452.4891272119,1.312336,0.223694,24.0379600868,15,4,15.11,3452.4891272119,0.656168,0.223694,24.1350401424,0,0.223694,-1.342164,106.4, 1.3, 0.2,0,0,1024,1024,1024,1024,106.9,0,55,3.837,3.84,3.857,3.821,0,0,2.866,111.11,3452.4891272119,0.656168,11,AutoTakeoff,
391900,2021-04-16 08:48:30,40.1849053781021,33.3283085838055,0.656168,,,3452.4891272119,1.312336,0.223694,24.0565296412,16,4,15.11,3452.4891272119,0.656168,0.223694,24.1350401424,0,0.223694,-1.11847,106.3, 1.3, 0.1,0,0,1024,1024,1024,1024,106.9,0,55,3.837,3.84,3.857,3.821,0,0,2.866,111.11,3452.4891272119,0.656168,11,AutoTakeoff,
392000,2021-04-16 08:48:31,40.1849054481089,33.3283088170881,0.984252,,,3452.8172112119,1.64042,0.223694,24.07562413,16,4,15.11,3452.8172112119,0.984252,0.223694,24.1350401424,0,0.223694,-1.11847,106.3, 1.3, 1.2,0,0,1024,1024,1024,1024,106.9,0,55,3.837,3.84,3.857,3.821,0,0,2.866,111.11,3452.8172112119,0.984252,11,AutoTakeoff,
392100,2021-04-16 08:48:31,40.1849054798538,33.3283091139034,1.312336,,,3453.1452952119,1.64042,0.223694,24.116798672,15,4,15.11,3453.1452952119,1.312336,0.223694,24.1350401424,0,0.223694,-1.11847,106.4, 1.8, 1.4,0,0,1024,1024,1024,1024,106.9,0,55,3.837,3.84,3.857,3.821,0,0,2.866,111.11,3453.1452952119,1.312336,11,AutoTakeoff,
392200,2021-04-16 08:48:31,40.1849055360188,33.3283091722563,1.312336,,,3453.1452952119,1.968504,0,24.1104666508,15,4,15.126,3453.1452952119,1.312336,0.223694,24.1350401424,0,0,-1.11847,106.4, 2.1, 1.1,0,0,1024,1024,1024,1024,106.9,0,55,3.837,3.84,3.857,3.821,0,0,3.462,111.11,3453.1452952119,1.312336,11,AutoTakeoff,
392300,2021-04-16 08:48:31,40.1849055860414,33.3283092049673,1.64042,,,3453.4733792119,1.968504,0,24.1015755744,15,4,15.126,3453.4733792119,1.64042,0.223694,24.1350401424,0,0,-1.11847,106.3, 1.9, 0.8,0,0,1024,1024,1024,1024,106.8,0,55,3.837,3.84,3.857,3.821,0,0,3.462,111.11,3453.4733792119,1.64042,11,AutoTakeoff,
392400,2021-04-16 08:48:31,40.1849056352301,33.3283092142788,1.64042,,,3453.4733792119,2.296588,0.223694,24.0889771488,15,4,15.126,3453.4733792119,1.64042,0.223694,24.1350401424,0,0.223694,-0.894776,106.2, 1.9, 0.7,0,0,1024,1024,1024,1024,106.8,0,55,3.837,3.84,3.857,3.821,0,0,3.462,111.11,3453.4733792119,1.64042,11,AutoTakeoff,
392500,2021-04-16 08:48:31,40.1849056767652,33.3283092157644,1.64042,,,3453.4733792119,2.296588,0,24.0772317416,15,4,15.126,3453.4733792119,1.64042,0.223694,24.1350401424,0,0,-0.894776,106.2, 2, 1.1,0,0,1024,1024,1024,1024,106.8,0,55,3.837,3.84,3.857,3.821,0,0,3.462,111.11,3453.4733792119,1.64042,11,AutoTakeoff,
392600,2021-04-16 08:48:31,40.1849056870179,33.3283092075572,1.968504,,,3453.8014632119,2.624672,0,24.0728682244,15,4,15.126,3453.8014632119,1.968504,0.223694,24.1350401424,0,0,-0.894776,106.3, 2.4, 1.4,0,0,1024,1024,1024,1024,106.8,0,55,3.837,3.84,3.857,3.821,0,0,3.462,111.11,3453.8014632119,1.968504,11,AutoTakeoff,
392700,2021-04-16 08:48:31,40.1849056853113,33.3283091775035,1.968504,,,3453.8014632119,2.624672,0,24.06824224,15,4,15.126,3453.8014632119,1.968504,0.223694,24.1350401424,0,0,-0.894776,106.3, 2.4, 1.4,0,0,1024,1024,1024,1024,106.8,0,55,3.837,3.84,3.857,3.821,0,0,3.462,111.11,3453.8014632119,1.968504,11,AutoTakeoff,
392800,2021-04-16 08:48:31,40.184905691089,33.3283091224245,1.968504,,,3453.8014632119,2.952756,0,24.0571858092,15,4,15.126,3453.8014632119,1.968504,0.223694,24.1350401424,0,0,-0.894776,106.4, 2, 0.5,0,0,1024,1024,1024,1024,106.8,0,55,3.837,3.84,3.857,3.821,0,0,3.462,111.11,3453.8014632119,1.968504,11,AutoTakeoff,
392900,2021-04-16 08:48:32,40.1849056870733,33.3283090710455,2.296588,,,3454.1295472119,2.952756,0,24.0496070688,15,4,15.126,3454.1295472119,2.296588,0.223694,24.1350401424,0,0,-0.894776,106.5, 1.8, 0,0,0,1024,1024,1024,1024,106.8,0,55,3.837,3.84,3.857,3.821,0,0,3.462,111.11,3454.1295472119,2.296588,11,AutoTakeoff,
393000,2021-04-16 08:48:32,40.1849055690632,33.3283089436547,2.296588,,,3454.1295472119,3.28084,0,24.0620742608,15,4,15.126,3454.1295472119,2.296588,0.223694,24.1350401424,0,0,-0.894776,106.5, 2, 0,0,0,1024,1024,1024,1024,106.8,0,55,3.837,3.84,3.857,3.821,0,0,3.462,111.11,3454.1295472119,2.296588,11,AutoTakeoff,
393100,2021-04-16 08:48:32,40.1849055452944,33.3283089652154,2.624672,,,3454.4576312119,3.28084,0,24.0726057572,16,4,15.126,3454.4576312119,2.624672,0.223694,24.1350401424,0,0,-0.894776,106.4, 1.7, 0.1,0,0,1024,1024,1024,1024,106.8,0,55,3.837,3.84,3.857,3.821,0,0,3.462,111.11,3454.4576312119,2.624672,11,AutoTakeoff,
393200,2021-04-16 08:48:32,40.18490553057,33.3283090378356,2.624672,,,3454.4576312119,3.608924,0,24.0891739992,16,4,14.841,3454.4576312119,2.624672,0.223694,24.1350401424,0,0,-0.894776,106.4, 1.7, 0,0,0,1024,1024,1024,1024,106.8,0,55,3.72,3.735,3.759,3.705,0,0,13.344,111.11,3454.4576312119,2.624672,6,P-GPS,
393300,2021-04-16 08:48:32,40.1849055382986,33.3283090992437,2.952756,,,3454.7857152119,3.608924,0,24.0973760992,15,4,14.841,3454.7857152119,2.952756,0.223694,24.1350401424,0,0,-0.894776,106.3, 2.2, 0.2,0,0,1024,1024,1024,1024,106.8,0,55,3.72,3.735,3.759,3.705,0,0,13.344,111.11,3454.7857152119,2.952756,14,Waypoint,
393400,2021-04-16 08:48:32,40.1849056829142,33.3283090532465,2.952756,,,3454.7857152119,3.937008,0,24.0477697984,15,4,14.841,3454.7857152119,2.952756,0.223694,24.1350401424,0,0,-0.894776,106.3, 2.2, 1.3,0,0,1024,1024,1024,1024,106.8,0,55,3.72,3.735,3.759,3.705,0,0,13.344,111.11,3454.7857152119,2.952756,14,Waypoint,
393500,2021-04-16 08:48:32,40.1849057827965,33.3283090420793,3.28084,,,3455.1137992119,3.937008,0,24.0170283276,15,4,14.841,3455.1137992119,3.28084,0.223694,24.1350401424,0,0,-0.894776,106.3, 1.9, 1.5,0,0,1024,1024,1024,1024,106.8,0,55,3.72,3.735,3.759,3.705,0,0,13.344,111.11,3455.1137992119,3.28084,14,Waypoint,
393600,2021-04-16 08:48:32,40.18490589427,33.3283091231477,3.28084,,,3455.1137992119,4.265092,0,23.998688432,15,4,14.841,3455.1137992119,3.28084,0.223694,24.1350401424,0,0,-0.894776,106.1, 1.4, 1.1,0,0,1024,1024,1024,1024,106.8,0,55,3.72,3.735,3.759,3.705,0,0,13.344,111.11,3455.1137992119,3.28084,14,Waypoint,
393700,2021-04-16 08:48:32,40.1849059921134,33.3283091931386,3.608924,,,3455.4418832119,4.265092,0,23.982448274,16,4,14.841,3455.4418832119,3.608924,0.223694,24.1350401424,0,0,-0.894776,106.1, 0.9, 0.9,0,0,1024,1024,1024,1024,106.8,0,55,3.72,3.735,3.759,3.705,0,0,13.344,111.11,3455.4418832119,3.608924,14,Waypoint,
393800,2021-04-16 08:48:32,40.1849061904644,33.3283092751768,3.937008,,,3455.7699672119,4.593176,0,23.93946927,16,4,14.841,3455.7699672119,3.937008,0.223694,24.1350401424,0,0,-1.11847,106.3, 1.7, 1.5,0,0,1024,1024,1024,1024,106.8,0,55,3.72,3.735,3.759,3.705,0,0,13.344,111.11,3455.7699672119,3.937008,14,Waypoint,
393900,2021-04-16 08:48:33,40.1849062586669,33.328309268629,3.937008,,,3455.7699672119,4.593176,0,23.9187343612,15,4,14.841,3455.7699672119,3.937008,0.223694,24.1350401424,0,0,-1.11847,106.4, 1.9, 1.8,0,0,1024,1024,1024,1024,106.8,0,55,3.72,3.735,3.759,3.705,0,0,13.344,111.11,3455.7699672119,3.937008,14,Waypoint,
394000,2021-04-16 08:48:33,40.1849062875294,33.3283091676593,4.265092,,,3456.0980512119,4.92126,0,23.8931110008,15,4,14.841,3456.0980512119,4.265092,0.223694,24.1350401424,0,0,-1.342164,106.3, 1.3, 1.3,0,0,1024,1024,1024,1024,106.8,0,55,3.72,3.735,3.759,3.705,0,0,13.344,111.11,3456.0980512119,4.265092,14,Waypoint,
394100,2021-04-16 08:48:33,40.1849063002606,33.3283090786248,4.265092,,,3456.0980512119,5.249344,0,23.874180554,15,4,14.841,3456.0980512119,4.265092,0.223694,24.1350401424,0,0,-2.013246,106.1, 0.5, 0.6,0,0,1024,1024,1024,1024,106.8,0,55,3.72,3.735,3.759,3.705,0,0,13.344,111.11,3456.0980512119,4.265092,14,Waypoint,
394200,2021-04-16 08:48:33,40.1849062376893,33.3283091250874,4.92126,,,3456.7542192119,5.577428,0,23.9001319984,15,4,14.637,3456.7542192119,4.92126,0.223694,24.1350401424,0,0,-2.684328,106, 0.6, 0.3,0,0,1024,1024,1024,1024,106.8,0,54,3.7,3.718,3.743,3.683,0,0,13.606,111.11,3456.7542192119,4.92126,14,Waypoint,
394300,2021-04-16 08:48:33,40.1849062440239,33.3283091637071,5.249344,,,3457.0823032119,5.905512,0,23.9049220248,15,4,14.637,3457.0823032119,5.249344,0.223694,24.1350401424,0,0,-3.35541,106.1, 0, 1.2,0,0,1024,1024,1024,1024,106.7,0,54,3.7,3.718,3.743,3.683,0,0,13.606,111.11,3457.0823032119,5.249344,14,Waypoint,
394400,2021-04-16 08:48:33,40.1849062407508,33.3283091132026,5.905512,,,3457.7384712119,6.56168,0,23.8972120508,15,4,14.637,3457.7384712119,5.905512,0.223694,24.1350401424,0,0,-4.250186,106.2, 0.4, 1.4,0,0,1024,1024,1024,1024,106.8,0,54,3.7,3.718,3.743,3.683,0,0,13.606,111.11,3457.7384712119,5.905512,14,Waypoint,
394500,2021-04-16 08:48:33,40.184906207309,33.3283090964912,6.56168,,,3458.3946392119,7.217848,0.223694,23.9039705812,17,4,14.637,3458.3946392119,6.56168,0.223694,24.1350401424,0,0.223694,-4.921268,106.1, 1.1, 0.7,0,0,1024,1024,1024,1024,106.7,0,54,3.7,3.718,3.743,3.683,0,0,13.606,111.11,3458.3946392119,6.56168,14,Waypoint,
394600,2021-04-16 08:48:33,40.1849060996005,33.3283091200588,7.217848,,,3459.0508072119,8.2021,0.223694,23.9390099524,17,4,14.637,3459.0508072119,7.217848,0.223694,24.1350401424,0,0.223694,-5.816044,106.2, 2.2, 0.4,0,0,1024,1024,1024,1024,106.7,0,54,3.7,3.718,3.743,3.683,0,0,13.606,111.11,3459.0508072119,7.217848,14,Waypoint,
394700,2021-04-16 08:48:33,40.1849058855285,33.3283091051692,8.2021,,,3460.0350592119,8.858268,0.223694,23.9981306892,16,4,14.637,3460.0350592119,8.2021,0.223694,24.1350401424,0,0.223694,-6.487126,106, 2.4, 0.7,0,0,1024,1024,1024,1024,106.7,0,54,3.7,3.718,3.743,3.683,0,0,13.606,111.11,3460.0350592119,8.2021,14,Waypoint,
394800,2021-04-16 08:48:33,40.1849058519337,33.3283093056342,9.186352,,,3461.0193112119,9.84252,0.447388,24.0420939452,16,4,14.637,3461.0193112119,9.186352,0.447388,24.1350401424,0,0.447388,-6.934514,106, 2.8, 1.2,0,0,1024,1024,1024,1024,106.7,0,54,3.7,3.718,3.743,3.683,0,0,13.606,111.11,3461.0193112119,9.186352,14,Waypoint,
394900,2021-04-16 08:48:33,40.1849058408603,33.3283094835911,10.170604,,,3462.0035632119,10.826772,0.447388,24.0757553636,18,4,14.637,3462.0035632119,10.170604,0.447388,24.1350401424,0,0.447388,-7.381902,106, 2.3, 1.4,0,0,1024,1024,1024,1024,106.7,0,54,3.7,3.718,3.743,3.683,0,0,13.606,111.11,3462.0035632119,10.170604,14,Waypoint,
395000,2021-04-16 08:48:34,40.1849059012853,33.3283096739766,11.48294,,,3463.3158992119,12.139108,0.447388,24.0910768864,18,4,14.637,3463.3158992119,11.48294,0.447388,24.1350401424,0,0.447388,-7.381902,105.9, 2.5, 1.3,0,0,1024,1024,1024,1024,106.7,0,54,3.7,3.718,3.743,3.683,0,0,13.606,111.11,3463.3158992119,11.48294,14,Waypoint,
395100,2021-04-16 08:48:34,40.1849060123289,33.3283103128477,12.467192,,,3464.3001512119,13.12336,0.447388,24.1695873876,18,4,14.637,3464.3001512119,12.467192,0.447388,24.1695873876,0,0.447388,-7.381902,105.9, 3.1, 1.1,0,0,1024,1024,1024,1024,106.7,0,54,3.7,3.718,3.743,3.683,0,0,13.606,111.11,3464.3001512119,12.467192,14,Waypoint,
395200,2021-04-16 08:48:34,40.1849060666343,33.3283103813082,13.779528,,,3465.6124872119,14.107612,0.447388,24.1659456552,18,4,14.817,3465.6124872119,13.779528,0.447388,24.1695873876,0,0.447388,-7.381902,105.9, 4.2, 1,0,0,1024,1024,1024,1024,106.7,0,54,3.7,3.718,3.743,3.683,0,0,13.606,111.11,3465.6124872119,13.779528,14,Waypoint,
395300,2021-04-16 08:48:34,40.1849061353253,33.3283104125392,14.76378,,,3466.5967392119,15.091864,0.223694,24.1517724264,18,4,14.817,3466.5967392119,14.76378,0.447388,24.1695873876,0,0.223694,-7.381902,105.9, 4.2, 1.2,0,0,1024,1024,1024,1024,106.7,0,54,3.7,3.718,3.743,3.683,0,0,13.606,111.11,3466.5967392119,14.76378,14,Waypoint,
395400,2021-04-16 08:48:34,40.184906207752,33.3283103272775,16.076116,,,3467.9090752119,16.4042,0.223694,24.116306546,18,4,14.817,3467.9090752119,16.076116,0.447388,24.1695873876,0,0.223694,-7.381902,105.9, 3.4, 1.9,0,0,1024,1024,1024,1024,106.7,0,54,3.7,3.718,3.743,3.683,0,0,13.606,111.11,3467.9090752119,16.076116,14,Waypoint,
395500,2021-04-16 08:48:34,40.1849063821062,33.3283099107124,17.388452,,,3469.2214112119,17.388452,0,23.9942264896,18,4,14.817,3469.2214112119,17.388452,0.447388,24.1695873876,0,0,-7.381902,105.9, 2.8, 2.6,0,0,1024,1024,1024,1024,106.7,0,54,3.7,3.718,3.743,3.683,0,0,13.606,111.11,3469.2214112119,17.388452,14,Waypoint,
395600,2021-04-16 08:48:34,40.1849064575683,33.3283096476676,18.372704,,,3470.2056632119,18.372704,0,23.9271005032,18,4,14.817,3470.2056632119,18.372704,0.447388,24.1695873876,0,0,-7.158208,105.9, 2.1, 2.9,0,0,1024,1024,1024,1024,106.6,0,54,3.7,3.718,3.743,3.683,0,0,13.606,111.11,3470.2056632119,18.372704,14,Waypoint,
395700,2021-04-16 08:48:34,40.1849065219896,33.3283094017267,19.68504,,,3471.5179992119,19.68504,0,23.866142496,18,4,14.817,3471.5179992119,19.68504,0.447388,24.1695873876,0,0,-7.158208,105.8, 1.8, 2.7,0,0,1024,1024,1024,1024,106.6,0,54,3.7,3.718,3.743,3.683,0,0,13.606,111.11,3471.5179992119,19.68504,14,Waypoint,
395800,2021-04-16 08:48:34,40.1849065661595,33.3283091951792,20.669292,,,3472.5022512119,20.669292,0,23.8178485312,18,4,14.817,3472.5022512119,20.669292,0.447388,24.1695873876,0,0,-6.934514,105.9, 2, 2.9,0,0,1024,1024,1024,1024,106.6,0,54,3.7,3.718,3.743,3.683,0,0,13.606,111.11,3472.5022512119,20.669292,14,Waypoint,
395900,2021-04-16 08:48:34,40.1849065965202,33.328308944462,21.653544,,,3473.4865032119,21.653544,0,23.7659784508,18,4,14.817,3473.4865032119,21.653544,0.447388,24.1695873876,0,0,-6.71082,106, 2.3, 2.8,0,0,1024,1024,1024,1024,106.6,0,54,3.7,3.718,3.743,3.683,0,0,13.606,111.11,3473.4865032119,21.653544,14,Waypoint,
396000,2021-04-16 08:48:35,40.1849065850983,33.3283084266973,22.96588,,,3474.7988392119,22.637796,0,23.6805453772,18,4,14.817,3474.7988392119,22.96588,0.447388,24.1695873876,0,0,-6.71082,106, 1.7, 2.8,0,0,1024,1024,1024,1024,106.6,0,54,3.7,3.718,3.743,3.683,0,0,13.606,111.11,3474.7988392119,22.96588,14,Waypoint,
396100,2021-04-16 08:48:35,40.184906579555,33.3283079569312,23.950132,,,3475.7830912119,23.622048,0,23.6021333012,18,4,14.817,3475.7830912119,23.950132,0.447388,24.1695873876,0,0,-6.71082,105.9, 0.4, 2.6,0,0,1024,1024,1024,1024,106.6,0,54,3.7,3.718,3.743,3.683,0,0,13.606,111.11,3475.7830912119,23.950132,14,Waypoint,
396200,2021-04-16 08:48:35,40.1849066525908,33.3283077272309,24.934384,,,3476.7673432119,24.6063,0,23.5420283124,18,4,14.586,3476.7673432119,24.934384,0.447388,24.1695873876,0,0,-6.71082,105.9, 0, 2.4,0,0,1024,1024,1024,1024,106.6,0,54,3.627,3.647,3.673,3.594,0,0,19.89,111.11,3476.7673432119,24.934384,14,Waypoint,
396300,2021-04-16 08:48:35,40.1849067296162,33.3283075395645,25.918636,,,3477.7515952119,25.590552,0,23.4879272608,18,4,14.586,3477.7515952119,25.918636,0.447388,24.1695873876,0,0,-6.71082,105.9, 0.1, 2.5,0,0,1024,1024,1024,1024,106.6,0,54,3.627,3.647,3.673,3.594,0,0,19.89,111.11,3477.7515952119,25.918636,14,Waypoint,
396400,2021-04-16 08:48:35,40.1849070504945,33.3283073579076,27.230972,,,3479.0639312119,26.574804,0,23.364173976,18,4,14.586,3479.0639312119,27.230972,0.447388,24.1695873876,0,0,-6.71082,105.9, -0.2, 2.6,0,0,1024,1024,1024,1024,106.6,0,54,3.627,3.647,3.673,3.594,0,0,19.89,111.11,3479.0639312119,27.230972,14,Waypoint,
396500,2021-04-16 08:48:35,40.184907149162,33.3283072492857,28.215224,,,3480.0481832119,27.559056,0,23.3171923472,18,4,14.586,3480.0481832119,28.215224,0.447388,24.1695873876,0,0,-6.487126,105.9, -0.5, 2.8,0,0,1024,1024,1024,1024,106.6,0,54,3.627,3.647,3.673,3.594,0,0,19.89,111.11,3480.0481832119,28.215224,14,Waypoint,
396600,2021-04-16 08:48:35,40.1849071270672,33.3283071184865,29.199476,,,3481.0324352119,28.543308,0,23.3014443152,18,4,14.586,3481.0324352119,29.199476,0.447388,24.1695873876,0,0,-6.487126,105.9, -0.4, 2.5,0,0,1024,1024,1024,1024,106.6,0,54,3.627,3.647,3.673,3.594,0,0,19.89,111.11,3481.0324352119,29.199476,14,Waypoint,
396700,2021-04-16 08:48:35,40.1849070799303,33.3283070300574,30.183728,,,3482.0166872119,29.52756,0,23.3001647876,18,5,14.586,3482.0166872119,30.183728,0.447388,24.1695873876,0,0,-6.487126,106, -0.2, 2.2,0,0,1024,1024,1024,1024,106.6,0,54,3.627,3.647,3.673,3.594,0,0,19.89,111.11,3482.0166872119,30.183728,14,Waypoint,
396800,2021-04-16 08:48:35,40.1849066617166,33.3283069474586,31.16798,,,3483.0009392119,30.511812,0,23.4078419564,18,5,14.586,3483.0009392119,31.16798,0.447388,24.1695873876,0,0,-6.263432,106, 0.4, 2.1,0,0,1024,1024,1024,1024,106.5,0,54,3.627,3.647,3.673,3.594,0,0,19.89,111.11,3483.0009392119,31.16798,14,Waypoint,
396900,2021-04-16 08:48:36,40.1849065442634,33.3283069319916,32.152232,,,3483.9851912119,31.496064,0,23.439469254,18,5,14.586,3483.9851912119,32.152232,0.447388,24.1695873876,0,0,-6.263432,106, 0.7, 1.5,0,0,1024,1024,1024,1024,106.5,0,54,3.627,3.647,3.673,3.594,0,0,19.89,111.11,3483.9851912119,32.152232,14,Waypoint,
397000,2021-04-16 08:48:36,40.1849064686254,33.3283069445883,32.8084,,,3484.6413592119,32.480316,0.223694,23.4636162364,18,5,14.586,3484.6413592119,32.8084,0.447388,24.1695873876,0,0.223694,-6.263432,106, 0.6, 1.5,0,0,1024,1024,1024,1024,106.5,0,54,3.627,3.647,3.673,3.594,0,0,19.89,111.11,3484.6413592119,32.8084,14,Waypoint,
397100,2021-04-16 08:48:36,40.1849064087313,33.328306983735,33.792652,,,3485.6256112119,33.136484,0.223694,23.4876319852,18,5,14.586,3485.6256112119,33.792652,0.447388,24.1695873876,0,0.223694,-6.039738,106.1, 0.6, 2,0,0,1024,1024,1024,1024,106.5,0,54,3.627,3.647,3.673,3.594,0,0,19.89,111.11,3485.6256112119,33.792652,14,Waypoint,
397200,2021-04-16 08:48:36,40.1849063638025,33.3283073942793,34.776904,,,3486.6098632119,34.120736,0,23.5696201768,18,5,14.647,3486.6098632119,34.776904,0.447388,24.1695873876,0,0,-6.039738,106.1, 0.9, 2,0,0,1024,1024,1024,1024,106.5,0,54,3.67,3.689,3.717,3.651,0,0,14.588,111.11,3486.6098632119,34.776904,14,Waypoint,
397300,2021-04-16 08:48:36,40.1849063489478,33.3283075600824,35.433072,,,3487.2660312119,35.104988,0,23.601870834,17,5,14.647,3487.2660312119,35.433072,0.447388,24.1695873876,0,0,-6.039738,106.1, 1.3, 1.9,0,0,1024,1024,1024,1024,106.5,0,54,3.67,3.689,3.717,3.651,0,0,14.588,111.11,3487.2660312119,35.433072,14,Waypoint,
397400,2021-04-16 08:48:36,40.1849063201179,33.3283076619042,36.417324,,,3488.2502832119,36.08924,0,23.6273957692,17,5,14.647,3488.2502832119,36.417324,0.447388,24.1695873876,0,0,-6.039738,106.1, 1.1, 1.9,0,0,1024,1024,1024,1024,106.5,0,54,3.67,3.689,3.717,3.651,0,0,14.588,111.11,3488.2502832119,36.417324,14,Waypoint,
397500,2021-04-16 08:48:36,40.1849062942484,33.3283077467791,37.401576,,,3489.2345352119,37.073492,0,23.6492461636,18,5,14.647,3489.2345352119,37.401576,0.447388,24.1695873876,0,0,-6.263432,106.1, 1.1, 1.7,0,0,1024,1024,1024,1024,106.5,0,54,3.67,3.689,3.717,3.651,0,0,14.588,111.11,3489.2345352119,37.401576,14,Waypoint,
397600,2021-04-16 08:48:36,40.1849062642004,33.3283077375292,38.057744,,,3489.8907032119,37.72966,0,23.6563983948,18,5,14.647,3489.8907032119,38.057744,0.447388,24.1695873876,0,0,-6.263432,106.1, 0.9, 1.7,0,0,1024,1024,1024,1024,106.5,0,54,3.67,3.689,3.717,3.651,0,0,14.588,111.11,3489.8907032119,38.057744,14,Waypoint,
397700,2021-04-16 08:48:36,40.1849062477531,33.3283077769338,39.041996,,,3490.8749552119,38.057744,0,23.6678485264,18,5,14.647,3490.8749552119,39.041996,0.447388,24.1695873876,0,0,-6.263432,106.1, 0.9, 1.9,0,0,1024,1024,1024,1024,106.5,0,54,3.67,3.689,3.717,3.651,0,0,14.588,111.11,3490.8749552119,39.041996,14,Waypoint,
397800,2021-04-16 08:48:36,40.1849062676722,33.3283078705932,40.026248,,,3491.8592072119,38.057744,0,23.6778878968,18,5,14.647,3491.8592072119,40.026248,0.447388,24.1695873876,0,0,-6.263432,106.2, 0.9, 1.9,0,0,1024,1024,1024,1024,106.5,0,54,3.67,3.689,3.717,3.651,0,0,14.588,111.11,3491.8592072119,40.026248,14,Waypoint,
397900,2021-04-16 08:48:37,40.1849062860476,33.3283079583944,40.682416,,,3492.5153752119,38.057744,0,23.6874023328,18,5,14.647,3492.5153752119,40.682416,0.447388,24.1695873876,0,0,-6.263432,106.1, 0.7, 2,0,0,1024,1024,1024,1024,106.5,0,54,3.67,3.689,3.717,3.651,0,0,14.588,111.11,3492.5153752119,40.682416,14,Waypoint,
398000,2021-04-16 08:48:37,40.1849062638063,33.3283079759692,41.666668,,,3493.4996272119,38.057744,0,23.6968183436,18,5,14.647,3493.4996272119,41.666668,0.447388,24.1695873876,0,0,-6.263432,106.1, 0.8, 2.1,0,0,1024,1024,1024,1024,106.5,0,54,3.67,3.689,3.717,3.651,0,0,14.588,111.11,3493.4996272119,41.666668,14,Waypoint,
398100,2021-04-16 08:48:37,40.1849062278893,33.3283078907916,42.65092,,,3494.4838792119,38.057744,0,23.6928157188,18,5,14.647,3494.4838792119,42.65092,0.447388,24.1695873876,0,0,-6.487126,106.1, 0.6, 2,0,0,1024,1024,1024,1024,106.5,0,54,3.67,3.689,3.717,3.651,0,0,14.588,111.11,3494.4838792119,42.65092,14,Waypoint,
398200,2021-04-16 08:48:37,40.1849061217929,33.3283079563258,43.307088,,,3495.1400472119,38.057744,0.223694,23.7346792372,18,5,14.639,3495.1400472119,43.307088,0.447388,24.1695873876,0,0.223694,-6.487126,106.1, 0.7, 1.9,0,0,1024,1024,1024,1024,106.5,0,54,3.666,3.684,3.713,3.645,0,0,14.576,111.11,3495.1400472119,43.307088,14,Waypoint,
398300,2021-04-16 08:48:37,40.1849060319158,33.3283080448558,44.29134,,,3496.1242992119,38.057744,0.223694,23.7757225456,17,5,14.639,3496.1242992119,44.29134,0.447388,24.1695873876,0,0.223694,-6.487126,106.1, 1, 1.9,0,0,1024,1024,1024,1024,106.5,0,54,3.666,3.684,3.713,3.645,0,0,14.576,111.11,3496.1242992119,44.29134,14,Waypoint,
398400,2021-04-16 08:48:37,40.1849060476922,33.3283082504334,45.275592,,,3497.1085512119,38.057744,0.223694,23.8059062736,17,5,14.639,3497.1085512119,45.275592,0.447388,24.1695873876,0,0.223694,-6.487126,106.1, 1.4, 2.3,0,0,1024,1024,1024,1024,106.5,0,54,3.666,3.684,3.713,3.645,0,0,14.576,111.11,3497.1085512119,45.275592,14,Waypoint,
398500,2021-04-16 08:48:37,40.184906050529,33.3283086033705,46.259844,,,3498.0928032119,38.057744,0.223694,23.864994202,18,5,14.639,3498.0928032119,46.259844,0.447388,24.1695873876,0,0.223694,-6.487126,106.1, 2.1, 2.4,0,0,1024,1024,1024,1024,106.5,0,54,3.666,3.684,3.713,3.645,0,0,14.576,111.11,3498.0928032119,46.259844,14,Waypoint,
398600,2021-04-16 08:48:37,40.1849061056909,33.3283087190223,46.916012,,,3498.7489712119,38.057744,0.223694,23.8687343596,18,5,14.639,3498.7489712119,46.916012,0.447388,24.1695873876,0,0.223694,-6.487126,106, 2.7, 2.1,0,0,1024,1024,1024,1024,106.5,0,54,3.666,3.684,3.713,3.645,0,0,14.576,111.11,3498.7489712119,46.916012,14,Waypoint,
398700,2021-04-16 08:48:37,40.184906153958,33.3283087990031,47.900264,,,3499.7332232119,38.057744,0.223694,23.8684718924,18,5,14.639,3499.7332232119,47.900264,0.447388,24.1695873876,0,0.223694,-6.487126,106, 2.5, 1.7,0,0,1024,1024,1024,1024,106.5,0,54,3.666,3.684,3.713,3.645,0,0,14.576,111.11,3499.7332232119,47.900264,14,Waypoint,
398800,2021-04-16 08:48:37,40.1849061287529,33.3283088454937,48.884516,,,3500.7174752119,38.057744,0,23.8836621816,18,5,14.639,3500.7174752119,48.884516,0.447388,24.1695873876,0,0,-6.71082,106.1, 1.6, 2,0,0,1024,1024,1024,1024,106.5,0,54,3.666,3.684,3.713,3.645,0,0,14.576,111.11,3500.7174752119,48.884516,14,Waypoint,
398900,2021-04-16 08:48:37,40.1849062134483,33.3283088735853,49.540684,,,3501.3736432119,38.057744,0,23.8640427584,18,5,14.639,3501.3736432119,49.540684,0.447388,24.1695873876,0,0.223694,-6.71082,106.1, 1.3, 2.6,0,0,1024,1024,1024,1024,106.5,0,54,3.666,3.684,3.713,3.645,0,0,14.576,111.11,3501.3736432119,49.540684,14,Waypoint,
399000,2021-04-16 08:48:38,40.1849062609076,33.3283089409751,50.524936,,,3502.3578952119,38.057744,0,23.8619102124,18,5,14.639,3502.3578952119,50.524936,0.447388,24.1695873876,0,0,-6.71082,106.1, 1.5, 2.7,0,0,1024,1024,1024,1024,106.5,0,54,3.666,3.684,3.713,3.645,0,0,14.576,111.11,3502.3578952119,50.524936,14,Waypoint,
399100,2021-04-16 08:48:38,40.1849062867152,33.3283089921242,51.509188,,,3503.3421472119,38.057744,0,23.8632225484,17,5,14.639,3503.3421472119,51.509188,0.447388,24.1695873876,0,0,-6.71082,106.2, 1.8, 2.7,0,0,1024,1024,1024,1024,106.5,0,54,3.666,3.684,3.713,3.645,0,0,14.576,111.11,3503.3421472119,51.509188,14,Waypoint,
399200,2021-04-16 08:48:38,40.1849062323154,33.3283089647389,52.165356,,,3503.9983152119,38.057744,0,23.8742133624,17,5,14.559,3503.9983152119,52.165356,0.447388,24.1695873876,0,0,-6.71082,106.2, 1.8, 2.1,0,0,1024,1024,1024,1024,106.5,0,54,3.666,3.684,3.713,3.645,0,0,14.576,111.11,3503.9983152119,52.165356,14,Waypoint,
399300,2021-04-16 08:48:38,40.1849061677737,33.3283089253455,53.149608,,,3504.9825672119,38.057744,0,23.8860571948,17,5,14.559,3504.9825672119,53.149608,0.447388,24.1695873876,0,0,-6.934514,106.2, 1.6, 1.7,0,0,1024,1024,1024,1024,106.5,0,54,3.666,3.684,3.713,3.645,0,0,14.576,111.11,3504.9825672119,53.149608,14,Waypoint,
399400,2021-04-16 08:48:38,40.1849060721808,33.3283089192911,54.13386,,,3505.9668192119,38.057744,0,23.912566382,17,5,14.559,3505.9668192119,54.13386,0.447388,24.1695873876,0,0,-6.934514,106.2, 1.3, 1.9,0,0,1024,1024,1024,1024,106.5,0,54,3.666,3.684,3.713,3.645,0,0,14.576,111.11,3505.9668192119,54.13386,14,Waypoint,
399500,2021-04-16 08:48:38,40.1849059786625,33.3283089105513,54.790028,,,3506.6229872119,38.057744,0,23.9380585088,17,5,14.559,3506.6229872119,54.790028,0.447388,24.1695873876,0,0,-6.934514,106.1, 1.1, 1.7,0,0,1024,1024,1024,1024,106.5,0,54,3.666,3.684,3.713,3.645,0,0,14.576,111.11,3506.6229872119,54.790028,14,Waypoint,
399600,2021-04-16 08:48:38,40.1849058876748,33.3283088868155,55.77428,,,3507.6072392119,38.057744,0.223694,23.9602697956,17,5,14.559,3507.6072392119,55.77428,0.447388,24.1695873876,0,0.223694,-6.934514,106.2, 1.4, 1.4,0,0,1024,1024,1024,1024,106.5,0,54,3.666,3.684,3.713,3.645,0,0,14.576,111.11,3507.6072392119,55.77428,14,Waypoint,
399700,2021-04-16 08:48:38,40.1849058084217,33.3283088846292,56.758532,,,3508.5914912119,38.057744,0.223694,23.9828091664,17,5,14.559,3508.5914912119,56.758532,0.447388,24.1695873876,0,0.223694,-7.158208,106.2, 1.7, 1.6,0,0,1024,1024,1024,1024,106.5,0,54,3.666,3.684,3.713,3.645,0,0,14.576,111.11,3508.5914912119,56.758532,14,Waypoint,
399800,2021-04-16 08:48:38,40.1849058108187,33.328309185066,57.4147,,,3509.2476592119,38.057744,0,24.0333341024,17,5,14.559,3509.2476592119,57.4147,0.447388,24.1695873876,0,0,-7.158208,106.1, 2, 1.3,0,0,1024,1024,1024,1024,106.5,0,54,3.666,3.684,3.713,3.645,0,0,14.576,111.11,3509.2476592119,57.4147,14,Waypoint,
399900,2021-04-16 08:48:39,40.1849057888934,33.3283092825824,58.398952,,,3510.2319112119,38.057744,0,24.0562999824,17,5,14.559,3510.2319112119,58.398952,0.447388,24.1695873876,0,0,-7.158208,106.2, 2.2, 1.3,0,0,1024,1024,1024,1024,106.5,0,54,3.666,3.684,3.713,3.645,0,0,14.576,111.11,3510.2319112119,58.398952,14,Waypoint,
400000,2021-04-16 08:48:39,40.1849057056506,33.3283092080562,59.383204,,,3511.2161632119,38.057744,0,24.067586072,17,5,14.559,3511.2161632119,59.383204,0.447388,24.1695873876,0,0,-7.158208,106.2, 2.3, 1.5,0,0,1024,1024,1024,1024,106.5,0,54,3.666,3.684,3.713,3.645,0,0,14.576,111.11,3511.2161632119,59.383204,14,Waypoint,
400100,2021-04-16 08:48:39,40.1849056398712,33.3283091356154,60.367456,,,3512.2004152119,38.057744,0,24.0742461772,17,5,14.559,3512.2004152119,60.367456,0.447388,24.1695873876,0,0,-7.158208,106.1, 2.2, 1.4,0,0,1024,1024,1024,1024,106.5,0,54,3.666,3.684,3.713,3.645,0,0,14.576,111.11,3512.2004152119,60.367456,14,Waypoint,
400200,2021-04-16 08:48:39,40.1849056775729,33.3283089942825,61.351708,,,3513.1846672119,38.057744,0,24.0392724228,17,5,14.526,3513.1846672119,61.351708,0.447388,24.1695873876,0,0,-7.158208,106.2, 2, 1.3,0,0,1024,1024,1024,1024,106.5,0,54,3.648,3.67,3.698,3.628,0,0,15.666,111.11,3513.1846672119,61.351708,14,Waypoint,
400300,2021-04-16 08:48:39,40.184905684217,33.3283089610277,62.007876,,,3513.8408352119,38.057744,0,24.0316936824,16,5,14.526,3513.8408352119,62.007876,0.447388,24.1695873876,0,0,-7.158208,106.2, 1.7, 1.3,0,0,1024,1024,1024,1024,106.5,0,54,3.648,3.67,3.698,3.628,0,0,15.666,111.11,3513.8408352119,62.007876,14,Waypoint,
400400,2021-04-16 08:48:39,40.1849056703199,33.3283088720829,62.992128,,,3514.8250872119,38.057744,0,24.0206044432,16,5,14.526,3514.8250872119,62.992128,0.447388,24.1695873876,0,0,-7.158208,106.2, 1.4, 1.2,0,0,1024,1024,1024,1024,106.5,0,54,3.648,3.67,3.698,3.628,0,0,15.666,111.11,3514.8250872119,62.992128,14,Waypoint,
400500,2021-04-16 08:48:39,40.1849056637996,33.3283088074233,63.97638,,,3515.8093392119,38.057744,0,24.0115165164,16,5,14.526,3515.8093392119,63.97638,0.447388,24.1695873876,0,0,-7.158208,106.2, 1.5, 1.4,0,0,1024,1024,1024,1024,106.5,0,54,3.648,3.67,3.698,3.628,0,0,15.666,111.11,3515.8093392119,63.97638,14,Waypoint,
400600,2021-04-16 08:48:39,40.1849057287777,33.3283088273863,64.960632,,,3516.7935912119,38.057744,0,23.9960965684,16,5,14.526,3516.7935912119,64.960632,0.447388,24.1695873876,0,0,-7.158208,106.2, 1.8, 1.5,0,0,1024,1024,1024,1024,106.4,0,54,3.648,3.67,3.698,3.628,0,0,15.666,111.11,3516.7935912119,64.960632,14,Waypoint,
400700,2021-04-16 08:48:39,40.1849057454009,33.3283088466877,65.6168,,,3517.4497592119,38.057744,0,23.994587382,16,5,14.526,3517.4497592119,65.6168,0.447388,24.1695873876,0,0,-7.158208,106.2, 1.9, 1.7,0,0,1024,1024,1024,1024,106.4,0,54,3.648,3.67,3.698,3.628,0,0,15.666,111.11,3517.4497592119,65.6168,14,Waypoint,
400800,2021-04-16 08:48:39,40.1849057620501,33.3283088249757,66.601052,,,3518.4340112119,38.057744,0,23.9860900064,16,5,14.526,3518.4340112119,66.601052,0.447388,24.1695873876,0,0,-7.158208,106.2, 1.9, 1.8,0,0,1024,1024,1024,1024,106.4,0,54,3.648,3.67,3.698,3.628,0,0,15.666,111.11,3518.4340112119,66.601052,14,Waypoint,
400900,2021-04-16 08:48:40,40.1849057737782,33.3283087918667,67.585304,,,3519.4182632119,38.057744,0,23.9770676964,16,5,14.526,3519.4182632119,67.585304,0.447388,24.1695873876,0,0,-7.158208,106.2, 1.7, 1.8,0,0,1024,1024,1024,1024,106.4,0,54,3.648,3.67,3.698,3.628,0,0,15.666,111.11,3519.4182632119,67.585304,14,Waypoint,
401000,2021-04-16 08:48:40,40.1849058011621,33.3283085691122,68.569556,,,3520.4025152119,38.057744,0,23.9313327868,16,5,14.526,3520.4025152119,68.569556,0.447388,24.1695873876,0,0,-7.381902,106.2, 1.6, 1.5,0,0,1024,1024,1024,1024,106.5,0,54,3.648,3.67,3.698,3.628,0,0,15.666,111.11,3520.4025152119,68.569556,14,Waypoint,
401100,2021-04-16 08:48:40,40.1849057880596,33.3283084859303,69.553808,,,3521.3867672119,38.057744,0,23.9210309492,16,5,14.526,3521.3867672119,69.553808,0.447388,24.1695873876,0,0,-7.381902,106.2, 1.5, 1.2,0,0,1024,1024,1024,1024,106.5,0,54,3.648,3.67,3.698,3.628,0,0,15.666,111.11,3521.3867672119,69.553808,14,Waypoint,
401200,2021-04-16 08:48:40,40.1849057275955,33.3283084249651,70.53806,,,3522.3710192119,38.057744,0,23.9282487972,16,5,14.525,3522.3710192119,70.53806,0.447388,24.1695873876,0,0,-7.381902,106.2, 1.5, 1.2,0,0,1024,1024,1024,1024,106.5,0,54,3.633,3.655,3.689,3.616,0,0,16.646,111.11,3522.3710192119,70.53806,14,Waypoint,
401300,2021-04-16 08:48:40,40.1849056683885,33.3283083842319,71.522312,,,3523.3552712119,38.057744,0,23.9385506348,17,5,14.525,3523.3552712119,71.522312,0.447388,24.1695873876,0,0,-7.381902,106.2, 1.5, 1.1,0,0,1024,1024,1024,1024,106.4,0,54,3.633,3.655,3.689,3.616,0,0,16.646,111.11,3523.3552712119,71.522312,14,Waypoint,
401400,2021-04-16 08:48:40,40.1849055970692,33.3283084077266,72.506564,,,3524.3395232119,38.057744,0,23.9632225516,17,5,14.525,3524.3395232119,72.506564,0.447388,24.1695873876,0,0,-7.381902,106.1, 1.2, 1.1,0,0,1024,1024,1024,1024,106.4,0,54,3.633,3.655,3.689,3.616,0,0,16.646,111.11,3524.3395232119,72.506564,14,Waypoint,
401500,2021-04-16 08:48:40,40.1849054030108,33.3283084603333,73.162732,,,3524.9956912119,38.057744,0,24.0284784592,16,5,14.525,3524.9956912119,73.162732,0.447388,24.1695873876,0,0,-7.158208,106.1, 1.7, 1,0,0,1024,1024,1024,1024,106.4,0,54,3.633,3.655,3.689,3.616,0,0,16.646,111.11,3524.9956912119,73.162732,14,Waypoint,
401600,2021-04-16 08:48:40,40.184905407629,33.3283084346579,74.146984,,,3525.9799432119,38.057744,0,24.022802606,16,5,14.525,3525.9799432119,74.146984,0.447388,24.1695873876,0,0,-7.158208,106.2, 2, 1.3,0,0,1024,1024,1024,1024,106.4,0,54,3.633,3.655,3.689,3.616,0,0,16.646,111.11,3525.9799432119,74.146984,14,Waypoint,
401700,2021-04-16 08:48:40,40.1849054295088,33.3283084135849,75.131236,,,3526.9641952119,38.057744,0,24.0128944692,17,5,14.525,3526.9641952119,75.131236,0.447388,24.1695873876,0,0,-7.381902,106.2, 2.2, 1.4,0,0,1024,1024,1024,1024,106.4,0,54,3.633,3.655,3.689,3.616,0,0,16.646,111.11,3526.9641952119,75.131236,14,Waypoint,
401800,2021-04-16 08:48:40,40.1849055143377,33.328308399811,76.443572,,,3528.2765312119,38.057744,0.3131716,23.9859259644,17,5,14.525,3528.2765312119,76.443572,0.447388,24.1695873876,0.223694,0.223694,-7.381902,106.2, 1.8, 1.6,0,0,1024,1024,1024,1024,106.4,0,54,3.633,3.655,3.689,3.616,0,0,16.646,111.11,3528.2765312119,76.443572,14,Waypoint,
401900,2021-04-16 08:48:40,40.1849059045227,33.328308295758,77.09974,,,3528.9326992119,38.057744,0.3131716,23.8550860652,16,5,14.525,3528.9326992119,77.09974,0.447388,24.1695873876,0.223694,0.223694,-7.158208,106.2, 1.5, 2.3,0,0,1024,1024,1024,1024,106.4,0,54,3.633,3.655,3.689,3.616,0,0,16.646,111.11,3528.9326992119,77.09974,14,Waypoint,
402000,2021-04-16 08:48:41,40.1849061559479,33.3283082900006,78.083992,,,3529.9169512119,38.057744,0.223694,23.7812671652,16,5,14.525,3529.9169512119,78.083992,0.447388,24.1695873876,0,0.223694,-7.158208,106.2, 1.6, 2.8,0,0,1024,1024,1024,1024,106.4,0,54,3.633,3.655,3.689,3.616,0,0,16.646,111.11,3529.9169512119,78.083992,14,Waypoint,
402100,2021-04-16 08:48:41,40.1849063385225,33.328308287164,78.74016,,,3530.5731192119,38.057744,0.223694,23.7279535152,17,5,14.525,3530.5731192119,78.74016,0.447388,24.1695873876,0,0.223694,-7.381902,106.3, 1.9, 3.2,0,0,1024,1024,1024,1024,106.4,0,54,3.633,3.655,3.689,3.616,0,0,16.646,111.11,3530.5731192119,78.74016,14,Waypoint,
402200,2021-04-16 08:48:41,40.184906304931,33.3283082573512,80.052496,,,3531.8854552119,38.057744,0.223694,23.732612308,17,5,14.511,3531.8854552119,80.052496,0.447388,24.1695873876,0,0.223694,-7.381902,106.3, 2.3, 3.1,0,0,1024,1024,1024,1024,106.4,0,54,3.634,3.654,3.685,3.612,0,0,16.404,111.11,3531.8854552119,80.052496,14,Waypoint,
402300,2021-04-16 08:48:41,40.1849062658744,33.3283080853143,81.036748,,,3532.8697072119,38.057744,0.223694,23.71473173,17,5,14.511,3532.8697072119,81.036748,0.447388,24.1695873876,-0.223694,0,-7.381902,106.2, 2, 2.5,0,0,1024,1024,1024,1024,106.4,0,54,3.634,3.654,3.685,3.612,0,0,16.404,111.11,3532.8697072119,81.036748,14,Waypoint,
402400,2021-04-16 08:48:41,40.1849061062901,33.3283081339183,81.692916,,,3533.5258752119,38.057744,0.3131716,23.769193674,17,5,14.511,3533.5258752119,81.692916,0.447388,24.1695873876,-0.223694,0.223694,-7.381902,106.2, 2.1, 1.8,0,0,1024,1024,1024,1024,106.4,0,54,3.634,3.654,3.685,3.612,0,0,16.404,111.11,3533.5258752119,81.692916,14,Waypoint,
402500,2021-04-16 08:48:41,40.1849059466961,33.3283081871809,82.677168,,,3534.5101272119,38.057744,0.3131716,23.8245086364,17,5,14.511,3534.5101272119,82.677168,0.447388,24.1695873876,-0.223694,0.223694,-7.381902,106.2, 2.8, 1,0,0,1024,1024,1024,1024,106.4,0,54,3.634,3.654,3.685,3.612,0,0,16.404,111.11,3534.5101272119,82.677168,14,Waypoint,
402600,2021-04-16 08:48:41,40.184905753846,33.3283084022776,83.66142,,,3535.4943792119,38.057744,0.223694,23.9167986656,17,5,14.511,3535.4943792119,83.66142,0.447388,24.1695873876,-0.223694,0,-7.381902,106.2, 2.8, 0.5,0,0,1024,1024,1024,1024,106.4,0,54,3.634,3.654,3.685,3.612,0,0,16.404,111.11,3535.4943792119,83.66142,14,Waypoint,
402700,2021-04-16 08:48:41,40.184905544249,33.3283086245499,84.645672,,,3536.4786312119,38.057744,0.223694,24.0151910572,17,5,14.511,3536.4786312119,84.645672,0.447388,24.1695873876,-0.223694,0,-7.381902,106.2, 2.8, 0.5,0,0,1024,1024,1024,1024,106.4,0,54,3.634,3.654,3.685,3.612,0,0,16.404,111.11,3536.4786312119,84.645672,14,Waypoint,
402800,2021-04-16 08:48:41,40.1849051977812,33.3283088455777,85.629924,,,3537.4628832119,38.057744,0.223694,24.153051954,17,5,14.511,3537.4628832119,85.629924,0.447388,24.1695873876,-0.223694,0,-7.381902,106.2, 2.8, 0.3,0,0,1024,1024,1024,1024,106.4,0,54,3.634,3.654,3.685,3.612,0,0,16.404,111.11,3537.4628832119,85.629924,14,Waypoint,
402900,2021-04-16 08:48:41,40.1849048976851,33.3283090348195,86.614176,,,3538.4471352119,38.057744,0.223694,24.272146446,17,5,14.511,3538.4471352119,86.614176,0.447388,24.272146446,0,0,-7.381902,106.2, 3.1, 0.1,0,0,1024,1024,1024,1024,106.4,0,54,3.634,3.654,3.685,3.612,0,0,16.404,111.11,3538.4471352119,86.614176,14,Waypoint,
403000,2021-04-16 08:48:42,40.1849047681944,33.328309051901,87.270344,,,3539.1033032119,38.057744,0,24.31266482,17,5,14.511,3539.1033032119,87.270344,0.447388,24.31266482,0,0,-7.381902,106.2, 3.4, -0.1,0,0,1024,1024,1024,1024,106.4,0,54,3.634,3.654,3.685,3.612,0,0,16.404,111.11,3539.1033032119,87.270344,14,Waypoint,
403100,2021-04-16 08:48:42,40.1849046685044,33.3283090420176,88.254596,,,3540.0875552119,38.057744,0,24.3399942172,17,5,14.511,3540.0875552119,88.254596,0.447388,24.3399942172,0,0,-7.381902,106.2, 3.1, -0.2,0,0,1024,1024,1024,1024,106.4,0,54,3.634,3.654,3.685,3.612,0,0,16.404,111.11,3540.0875552119,88.254596,14,Waypoint,
403200,2021-04-16 08:48:42,40.1849045216741,33.3283087251777,89.238848,,,3541.0718072119,38.057744,0,24.3296595712,17,5,14.489,3541.0718072119,89.238848,0.447388,24.3399942172,0,0,-7.381902,106.3, 2.6, 0.1,0,0,1024,1024,1024,1024,106.4,0,54,3.623,3.645,3.675,3.597,0,0,16.92,111.11,3541.0718072119,89.238848,14,Waypoint,
403300,2021-04-16 08:48:42,40.1849044732083,33.328308640101,89.895016,,,3541.7279752119,38.057744,0,24.3295939544,17,5,14.489,3541.7279752119,89.895016,0.447388,24.3399942172,0,0,-7.381902,106.3, 2, 0.5,0,0,1024,1024,1024,1024,106.4,0,54,3.623,3.645,3.675,3.597,0,0,16.92,111.11,3541.7279752119,89.895016,14,Waypoint,
403400,2021-04-16 08:48:42,40.1849044228568,33.3283085934478,91.207352,,,3543.0403112119,38.057744,0,24.3365493352,17,5,14.489,3543.0403112119,91.207352,0.447388,24.3399942172,0,0,-7.381902,106.3, 2.1, 0.8,0,0,1024,1024,1024,1024,106.4,0,54,3.623,3.645,3.675,3.597,0,0,16.92,111.11,3543.0403112119,91.207352,14,Waypoint,
403500,2021-04-16 08:48:42,40.1849043834094,33.3283085635847,92.191604,,,3544.0245632119,38.057744,0,24.3431110152,17,5,14.489,3544.0245632119,92.191604,0.447388,24.3431110152,0,0,-7.381902,106.4, 2.2, 0.6,0,0,1024,1024,1024,1024,106.4,0,54,3.623,3.645,3.675,3.597,0,0,16.92,111.11,3544.0245632119,92.191604,14,Waypoint,
403600,2021-04-16 08:48:42,40.1849045149942,33.3283087479885,93.175856,,,3545.0088152119,38.057744,0.447388,24.3354338496,17,5,14.489,3545.0088152119,93.175856,0.447388,24.3431110152,0,0.447388,-7.381902,106.4, 2.5, 0.3,0,0,1024,1024,1024,1024,106.4,0,54,3.623,3.645,3.675,3.597,0,0,16.92,111.11,3545.0088152119,93.175856,14,Waypoint,
403700,2021-04-16 08:48:42,40.1849045701561,33.3283088524395,94.488192,,,3546.3211512119,38.057744,0.447388,24.3368118024,17,5,14.489,3546.3211512119,94.488192,0.447388,24.3431110152,0,0.447388,-7.381902,106.5, 3.2, 1,0,0,1024,1024,1024,1024,106.4,0,54,3.623,3.645,3.675,3.597,0,0,16.92,111.11,3546.3211512119,94.488192,14,Waypoint,
403800,2021-04-16 08:48:42,40.1849047394752,33.3283091137352,95.472444,,,3547.3054032119,38.057744,0,24.3314312248,17,5,14.489,3547.3054032119,95.472444,0.447388,24.3431110152,0,0,-7.381902,106.5, 3.4, 1.2,0,0,1024,1024,1024,1024,106.4,0,54,3.623,3.645,3.675,3.597,0,0,16.92,111.11,3547.3054032119,95.472444,14,Waypoint,
403900,2021-04-16 08:48:43,40.1849048831919,33.3283093237304,96.78478,,,3548.6177392119,38.057744,0,24.325132012,16,5,14.489,3548.6177392119,96.78478,0.447388,24.3431110152,0,0,-7.381902,106.5, 3.4, 1.4,0,0,1024,1024,1024,1024,106.4,0,54,3.623,3.645,3.675,3.597,0,0,16.92,111.11,3548.6177392119,96.78478,14,Waypoint,
404000,2021-04-16 08:48:43,40.1849050163107,33.3283094020294,97.440948,,,3549.2739072119,38.057744,0,24.2998367356,16,5,14.489,3549.2739072119,97.440948,0.447388,24.3431110152,0,0,-7.158208,106.5, 3.3, 1.5,0,0,1024,1024,1024,1024,106.4,0,54,3.623,3.645,3.675,3.597,0,0,16.92,111.11,3549.2739072119,97.440948,14,Waypoint,
404100,2021-04-16 08:48:43,40.1849050035339,33.3283093683878,98.4252,,,3550.2581592119,38.057744,0,24.2978354232,16,5,14.489,3550.2581592119,98.4252,0.447388,24.3431110152,0,0,-7.158208,106.4, 2.8, 1.4,0,0,1024,1024,1024,1024,106.4,0,54,3.623,3.645,3.675,3.597,0,0,16.92,111.11,3550.2581592119,98.4252,14,Waypoint,
404200,2021-04-16 08:48:43,40.1849049273683,33.3283093283722,99.409452,,,3551.2424112119,38.057744,0,24.3131241376,16,5,14.436,3551.2424112119,99.409452,0.447388,24.3431110152,0,0,-7.158208,106.4, 2.5, 1.3,0,0,1024,1024,1024,1024,106.4,0,54,3.623,3.645,3.675,3.597,0,0,16.92,111.11,3551.2424112119,99.409452,14,Waypoint,
404300,2021-04-16 08:48:43,40.1849048514438,33.3283092719422,100.721788,,,3552.5547472119,38.057744,0,24.3255913296,16,5,14.436,3552.5547472119,100.721788,0.447388,24.3431110152,0,0,-7.158208,106.4, 2.3, 1,0,0,1024,1024,1024,1024,106.4,0,54,3.623,3.645,3.675,3.597,0,0,16.92,111.11,3552.5547472119,100.721788,14,Waypoint,
404400,2021-04-16 08:48:43,40.1849046139222,33.3283089053041,101.377956,,,3553.2109152119,38.057744,0,24.3329404112,16,5,14.436,3553.2109152119,101.377956,0.447388,24.3431110152,0,0,-7.158208,106.4, 2.3, 0.9,0,0,1024,1024,1024,1024,106.4,0,54,3.623,3.645,3.675,3.597,0,0,16.92,111.11,3553.2109152119,101.377956,14,Waypoint,
404500,2021-04-16 08:48:43,40.1849045579265,33.3283087819945,102.362208,,,3554.1951672119,38.057744,0,24.328576894,17,5,14.436,3554.1951672119,102.362208,0.447388,24.3431110152,0,0,-7.158208,106.3, 2.3, 0.1,0,0,1024,1024,1024,1024,106.4,0,54,3.623,3.645,3.675,3.597,0,0,16.92,111.11,3554.1951672119,102.362208,14,Waypoint,
404600,2021-04-16 08:48:43,40.1849044887958,33.3283086706817,103.34646,,,3555.1794192119,38.057744,0,24.3301516972,17,5,14.436,3555.1794192119,103.34646,0.447388,24.3431110152,0,0,-7.158208,106.4, 2.3, 0,0,0,1024,1024,1024,1024,106.4,0,54,3.623,3.645,3.675,3.597,0,0,16.92,111.11,3555.1794192119,103.34646,14,Waypoint,
404700,2021-04-16 08:48:43,40.1849044440787,33.3283085825217,104.330712,,,3556.1636712119,38.057744,0,24.3285112772,17,5,14.436,3556.1636712119,104.330712,0.447388,24.3431110152,0,0,-7.158208,106.4, 2.1, 0.2,0,0,1024,1024,1024,1024,106.4,0,54,3.623,3.645,3.675,3.597,0,0,16.92,111.11,3556.1636712119,104.330712,14,Waypoint,
404800,2021-04-16 08:48:43,40.1849044554029,33.3283085427191,105.314964,,,3557.1479232119,38.057744,0,24.318570332,17,5,14.436,3557.1479232119,105.314964,0.447388,24.3431110152,0,0,-7.158208,106.4, 2, 0,0,0,1024,1024,1024,1024,106.4,0,54,3.623,3.645,3.675,3.597,0,0,16.92,111.11,3557.1479232119,105.314964,14,Waypoint,
404900,2021-04-16 08:48:43,40.1849044699514,33.3283084124357,106.299216,,,3558.1321752119,38.057744,0,24.2926188876,17,5,14.436,3558.1321752119,106.299216,0.447388,24.3431110152,0,0,-7.158208,106.4, 1.9, 0.2,0,0,1024,1024,1024,1024,106.4,0,54,3.623,3.645,3.675,3.597,0,0,16.92,111.11,3558.1321752119,106.299216,14,Waypoint,
405000,2021-04-16 08:48:44,40.1849045427527,33.3283083745727,107.611552,,,3559.4445112119,38.057744,0,24.2649942148,17,5,14.436,3559.4445112119,107.611552,0.447388,24.3431110152,0,0,-7.158208,106.4, 1.7, 0.9,0,0,1024,1024,1024,1024,106.4,0,54,3.623,3.645,3.675,3.597,0,0,16.92,111.11,3559.4445112119,107.611552,14,Waypoint,
405100,2021-04-16 08:48:44,40.1849046132773,33.328308364964,108.595804,,,3560.4287632119,38.057744,0,24.242782928,17,5,14.436,3560.4287632119,108.595804,0.447388,24.3431110152,0,0,-7.158208,106.4, 2, 1.3,0,0,1024,1024,1024,1024,106.4,0,54,3.623,3.645,3.675,3.597,0,0,16.92,111.11,3560.4287632119,108.595804,14,Waypoint,
405200,2021-04-16 08:48:44,40.1849046763763,33.3283084319894,109.580056,,,3561.4130152119,38.057744,0,24.2354994632,17,5,14.413,3561.4130152119,109.580056,0.447388,24.3431110152,0,0,-7.158208,106.4, 2.4, 1.3,0,0,1024,1024,1024,1024,106.4,0,54,3.623,3.645,3.675,3.597,0,0,16.92,111.11,3561.4130152119,109.580056,14,Waypoint,
405300,2021-04-16 08:48:44,40.1849048022354,33.3283085753068,110.564308,,,3562.3972672119,38.057744,0,24.2227369956,17,5,14.413,3562.3972672119,110.564308,0.447388,24.3431110152,0,0,-7.158208,106.3, 2.4, 1.1,0,0,1024,1024,1024,1024,106.4,0,54,3.623,3.645,3.675,3.597,0,0,16.92,111.11,3562.3972672119,110.564308,14,Waypoint,
405400,2021-04-16 08:48:44,40.184904821311,33.3283085245221,111.54856,,,3563.3815192119,38.057744,0,24.208662192,17,5,14.413,3563.3815192119,111.54856,0.447388,24.3431110152,0,0,-7.158208,106.3, 2.2, 1,0,0,1024,1024,1024,1024,106.4,0,54,3.623,3.645,3.675,3.597,0,0,16.92,111.11,3563.3815192119,111.54856,14,Waypoint,
405500,2021-04-16 08:48:44,40.1849048318438,33.3283084755144,112.532812,,,3564.3657712119,38.057744,0,24.1973761024,17,5,14.413,3564.3657712119,112.532812,0.447388,24.3431110152,0,0,-7.158208,106.3, 1.8, 0.6,0,0,1024,1024,1024,1024,106.4,0,54,3.623,3.645,3.675,3.597,0,0,16.92,111.11,3564.3657712119,112.532812,14,Waypoint,
405600,2021-04-16 08:48:44,40.1849048169631,33.3283084691516,113.517064,,,3565.3500232119,38.057744,0,24.2006569424,17,5,14.413,3565.3500232119,113.517064,0.447388,24.3431110152,0,0,-7.158208,106.4, 1.3, 0.3,0,0,1024,1024,1024,1024,106.4,0,54,3.623,3.645,3.675,3.597,0,0,16.92,111.11,3565.3500232119,113.517064,14,Waypoint,
405700,2021-04-16 08:48:44,40.1849047494022,33.3283083987402,114.173232,,,3566.0061912119,38.057744,0,24.2086293836,16,5,14.413,3566.0061912119,114.173232,0.447388,24.3431110152,0,0,-7.158208,106.4, 1.6, 0.5,0,0,1024,1024,1024,1024,106.4,0,54,3.623,3.645,3.675,3.597,0,0,16.92,111.11,3566.0061912119,114.173232,14,Waypoint,
405800,2021-04-16 08:48:44,40.1849048434514,33.3283084509321,115.485568,,,3567.3185272119,38.057744,0.223694,24.1898957872,16,5,14.413,3567.3185272119,115.485568,0.447388,24.3431110152,0,0.223694,-7.158208,106.4, 2.4, 1,0,0,1024,1024,1024,1024,106.4,0,54,3.623,3.645,3.675,3.597,0,0,16.92,111.11,3567.3185272119,115.485568,14,Waypoint,
405900,2021-04-16 08:48:45,40.1849049283291,33.3283085157487,116.797904,,,3568.6308632119,38.057744,0.223694,24.1759850256,17,5,14.413,3568.6308632119,116.797904,0.447388,24.3431110152,0,0.223694,-7.158208,106.5, 2.9, 1.5,0,0,1024,1024,1024,1024,106.4,0,54,3.623,3.645,3.675,3.597,0,0,16.92,111.11,3568.6308632119,116.797904,14,Waypoint,
406000,2021-04-16 08:48:45,40.1849049590676,33.3283086267082,117.782156,,,3569.6151152119,38.057744,0,24.1856306952,17,5,14.413,3569.6151152119,117.782156,0.447388,24.3431110152,0,0,-7.158208,106.5, 3.1, 1.9,0,0,1024,1024,1024,1024,106.4,0,54,3.623,3.645,3.675,3.597,0,0,16.92,111.11,3569.6151152119,117.782156,14,Waypoint,
406100,2021-04-16 08:48:45,40.1849049862594,33.3283087201995,119.094492,,,3570.9274512119,38.057744,0,24.1934390944,17,5,14.413,3570.9274512119,119.094492,0.447388,24.3431110152,0,0,-7.158208,106.4, 2.8, 1.5,0,0,1024,1024,1024,1024,106.4,0,54,3.623,3.645,3.675,3.597,0,0,16.92,111.11,3570.9274512119,119.094492,14,Waypoint,
406200,2021-04-16 08:48:45,40.1849050564746,33.3283088122108,120.078744,,,3571.9117032119,38.057744,0,24.188485026,17,5,14.434,3571.9117032119,120.078744,0.447388,24.3431110152,0,0,-6.934514,106.3, 2.7, 0.7,0,0,1024,1024,1024,1024,106.4,0,54,3.623,3.644,3.676,3.598,0,0,16.182,111.11,3571.9117032119,120.078744,14,Waypoint,
406300,2021-04-16 08:48:45,40.18490512768,33.3283088770386,121.062996,,,3572.8959552119,38.057744,0,24.1787409312,17,5,14.434,3572.8959552119,121.062996,0.447388,24.3431110152,0,0,-6.934514,106.2, 2.4, 0.8,0,0,1024,1024,1024,1024,106.4,0,54,3.623,3.644,3.676,3.598,0,0,16.182,111.11,3572.8959552119,121.062996,14,Waypoint,
406400,2021-04-16 08:48:45,40.1849051814838,33.3283088306938,122.047248,,,3573.8802072119,38.057744,0,24.1552829252,17,5,14.434,3573.8802072119,122.047248,0.447388,24.3431110152,0,0,-6.934514,106.1, 2.3, 1.1,0,0,1024,1024,1024,1024,106.4,0,54,3.623,3.644,3.676,3.598,0,0,16.182,111.11,3573.8802072119,122.047248,14,Waypoint,
406500,2021-04-16 08:48:45,40.1849052439411,33.328308807541,123.0315,,,3574.8644592119,38.057744,0,24.1332356804,17,5,14.434,3574.8644592119,123.0315,0.447388,24.3431110152,0,0,-6.71082,106.1, 2.6, 1.4,0,0,1024,1024,1024,1024,106.4,0,54,3.623,3.644,3.676,3.598,0,0,16.182,111.11,3574.8644592119,123.0315,14,Waypoint,
406600,2021-04-16 08:48:45,40.1849054793946,33.3283089288885,124.015752,,,3575.8487112119,38.057744,0,24.0854994584,17,5,14.434,3575.8487112119,124.015752,0.447388,24.3431110152,0,0,-6.71082,106.2, 2.4, 1.9,0,0,1024,1024,1024,1024,106.4,0,54,3.623,3.644,3.676,3.598,0,0,16.182,111.11,3575.8487112119,124.015752,14,Waypoint,
406700,2021-04-16 08:48:45,40.1849055731636,33.3283090041771,125.000004,,,3576.8329632119,38.057744,0,24.0711621876,17,5,14.434,3576.8329632119,125.000004,0.447388,24.3431110152,0,0,-6.71082,106.3, 2.2, 2,0,0,1024,1024,1024,1024,106.4,0,54,3.623,3.644,3.676,3.598,0,0,16.182,111.11,3576.8329632119,125.000004,14,Waypoint,
406800,2021-04-16 08:48:45,40.1849056305695,33.3283090127431,125.984256,,,3577.8172152119,38.057744,0,24.0560047068,17,5,14.434,3577.8172152119,125.984256,0.447388,24.3431110152,0,0,-6.71082,106.2, 2.2, 1.8,0,0,1024,1024,1024,1024,106.4,0,54,3.623,3.644,3.676,3.598,0,0,16.182,111.11,3577.8172152119,125.984256,14,Waypoint,
406900,2021-04-16 08:48:45,40.1849056751531,33.3283090226938,127.296592,,,3579.1295512119,38.057744,0,24.0448170424,17,5,14.434,3579.1295512119,127.296592,0.447388,24.3431110152,0,0,-6.71082,106.3, 2.2, 1.7,0,0,1024,1024,1024,1024,106.4,0,54,3.623,3.644,3.676,3.598,0,0,16.182,111.11,3579.1295512119,127.296592,14,Waypoint,
407000,2021-04-16 08:48:46,40.1849057733287,33.3283090854866,128.280844,,,3580.1138032119,38.057744,0,24.0271661232,17,5,14.434,3580.1138032119,128.280844,0.447388,24.3431110152,0,0,-6.71082,106.3, 2.2, 1.6,0,0,1024,1024,1024,1024,106.4,0,54,3.623,3.644,3.676,3.598,0,0,16.182,111.11,3580.1138032119,128.280844,14,Waypoint,
407100,2021-04-16 08:48:46,40.1849057920656,33.3283091292022,129.265096,,,3581.0980552119,38.057744,0,24.029200244,17,5,14.434,3581.0980552119,129.265096,0.447388,24.3431110152,0,0,-6.71082,106.3, 2.4, 1.2,0,0,1024,1024,1024,1024,106.4,0,54,3.623,3.644,3.676,3.598,0,0,16.182,111.11,3581.0980552119,129.265096,14,Waypoint,
407200,2021-04-16 08:48:46,40.1849057346532,33.3283091847576,130.249348,,,3582.0823072119,38.057744,0,24.0552501136,17,5,14.473,3582.0823072119,130.249348,0.447388,24.3431110152,0,0,-6.71082,106.3, 2.9, 1.2,0,0,1024,1024,1024,1024,106.4,0,54,3.623,3.643,3.675,3.599,0,0,16.328,111.11,3582.0823072119,130.249348,14,Waypoint,
